header: 
  seq: 15889
  stamp: 
    secs: 2250
    nsecs: 743000000
  frame_id: "sonar_link"
radiation_type: 0
field_of_view: 0.698131978512
min_range: 0.00999999977648
max_range: 3.0
range: 0.0399999991059
---
header: 
  seq: 15890
  stamp: 
    secs: 2250
    nsecs: 843000000
  frame_id: "sonar_link"
radiation_type: 0
field_of_view: 0.698131978512
min_range: 0.00999999977648
max_range: 3.0
range: 0.0399899557233
---
header: 
  seq: 15891
  stamp: 
    secs: 2250
    nsecs: 943000000
  frame_id: "sonar_link"
radiation_type: 0
field_of_view: 0.698131978512
min_range: 0.00999999977648
max_range: 3.0
range: 0.0400029681623
---
header: 
  seq: 15892
  stamp: 
    secs: 2251
    nsecs:  43000000
  frame_id: "sonar_link"
radiation_type: 0
field_of_view: 0.698131978512
min_range: 0.00999999977648
max_range: 3.0
range: 0.0399999991059
---
header: 
  seq: 15893
  stamp: 
    secs: 2251
    nsecs: 143000000
  frame_id: "sonar_link"
radiation_type: 0
field_of_view: 0.698131978512
min_range: 0.00999999977648
max_range: 3.0
range: 0.0399899557233
---
header: 
  seq: 15894
  stamp: 
    secs: 2251
    nsecs: 243000000
  frame_id: "sonar_link"
radiation_type: 0
field_of_view: 0.698131978512
min_range: 0.00999999977648
max_range: 3.0
range: 0.0400029681623
---
header: 
  seq: 15895
  stamp: 
    secs: 2251
    nsecs: 343000000
  frame_id: "sonar_link"
radiation_type: 0
field_of_view: 0.698131978512
min_range: 0.00999999977648
max_range: 3.0
range: 0.0399999991059
---
header: 
  seq: 15896
  stamp: 
    secs: 2251
    nsecs: 443000000
  frame_id: "sonar_link"
radiation_type: 0
field_of_view: 0.698131978512
min_range: 0.00999999977648
max_range: 3.0
range: 0.0400019772351
---
header: 
  seq: 15897
  stamp: 
    secs: 2251
    nsecs: 543000000
  frame_id: "sonar_link"
radiation_type: 0
field_of_view: 0.698131978512
min_range: 0.00999999977648
max_range: 3.0
range: 0.0400029681623
---
header: 
  seq: 15898
  stamp: 
    secs: 2251
    nsecs: 643000000
  frame_id: "sonar_link"
radiation_type: 0
field_of_view: 0.698131978512
min_range: 0.00999999977648
max_range: 3.0
range: 0.0399999991059
---
header: 
  seq: 15899
  stamp: 
    secs: 2251
    nsecs: 743000000
  frame_id: "sonar_link"
radiation_type: 0
field_of_view: 0.698131978512
min_range: 0.00999999977648
max_range: 3.0
range: 0.0399899557233
---
header: 
  seq: 15900
  stamp: 
    secs: 2251
    nsecs: 843000000
  frame_id: "sonar_link"
radiation_type: 0
field_of_view: 0.698131978512
min_range: 0.00999999977648
max_range: 3.0
range: 0.0400029681623
---
header: 
  seq: 15901
  stamp: 
    secs: 2251
    nsecs: 943000000
  frame_id: "sonar_link"
radiation_type: 0
field_of_view: 0.698131978512
min_range: 0.00999999977648
max_range: 3.0
range: 0.039988219738
---
header: 
  seq: 15902
  stamp: 
    secs: 2252
    nsecs:  43000000
  frame_id: "sonar_link"
radiation_type: 0
field_of_view: 0.698131978512
min_range: 0.00999999977648
max_range: 3.0
range: 0.0400019772351
---
header: 
  seq: 15903
  stamp: 
    secs: 2252
    nsecs: 143000000
  frame_id: "sonar_link"
radiation_type: 0
field_of_view: 0.698131978512
min_range: 0.00999999977648
max_range: 3.0
range: 0.0400029681623
---
header: 
  seq: 15904
  stamp: 
    secs: 2252
    nsecs: 243000000
  frame_id: "sonar_link"
radiation_type: 0
field_of_view: 0.698131978512
min_range: 0.00999999977648
max_range: 3.0
range: 0.0399999991059
---
header: 
  seq: 15905
  stamp: 
    secs: 2252
    nsecs: 346000000
  frame_id: "sonar_link"
radiation_type: 0
field_of_view: 0.698131978512
min_range: 0.00999999977648
max_range: 3.0
range: 0.039988219738
---
header: 
  seq: 15906
  stamp: 
    secs: 2252
    nsecs: 446000000
  frame_id: "sonar_link"
radiation_type: 0
field_of_view: 0.698131978512
min_range: 0.00999999977648
max_range: 3.0
range: 0.0400019772351
---
header: 
  seq: 15907
  stamp: 
    secs: 2252
    nsecs: 546000000
  frame_id: "sonar_link"
radiation_type: 0
field_of_view: 0.698131978512
min_range: 0.00999999977648
max_range: 3.0
range: 0.0399999991059
---
header: 
  seq: 15908
  stamp: 
    secs: 2252
    nsecs: 646000000
  frame_id: "sonar_link"
radiation_type: 0
field_of_view: 0.698131978512
min_range: 0.00999999977648
max_range: 3.0
range: 0.039988219738
---
header: 
  seq: 15909
  stamp: 
    secs: 2252
    nsecs: 746000000
  frame_id: "sonar_link"
radiation_type: 0
field_of_view: 0.698131978512
min_range: 0.00999999977648
max_range: 3.0
range: 0.0400019772351
---
header: 
  seq: 15910
  stamp: 
    secs: 2252
    nsecs: 846000000
  frame_id: "sonar_link"
radiation_type: 0
field_of_view: 0.698131978512
min_range: 0.00999999977648
max_range: 3.0
range: 0.0399999991059
---
header: 
  seq: 15911
  stamp: 
    secs: 2252
    nsecs: 946000000
  frame_id: "sonar_link"
radiation_type: 0
field_of_view: 0.698131978512
min_range: 0.00999999977648
max_range: 3.0
range: 0.039988219738
---
header: 
  seq: 15912
  stamp: 
    secs: 2253
    nsecs:  46000000
  frame_id: "sonar_link"
radiation_type: 0
field_of_view: 0.698131978512
min_range: 0.00999999977648
max_range: 3.0
range: 0.0400019772351
---
header: 
  seq: 15913
  stamp: 
    secs: 2253
    nsecs: 146000000
  frame_id: "sonar_link"
radiation_type: 0
field_of_view: 0.698131978512
min_range: 0.00999999977648
max_range: 3.0
range: 0.0399999991059
---
header: 
  seq: 15914
  stamp: 
    secs: 2253
    nsecs: 246000000
  frame_id: "sonar_link"
radiation_type: 0
field_of_view: 0.698131978512
min_range: 0.00999999977648
max_range: 3.0
range: 0.039988219738
---
header: 
  seq: 15915
  stamp: 
    secs: 2253
    nsecs: 346000000
  frame_id: "sonar_link"
radiation_type: 0
field_of_view: 0.698131978512
min_range: 0.00999999977648
max_range: 3.0
range: 0.0400019772351
---
header: 
  seq: 15916
  stamp: 
    secs: 2253
    nsecs: 446000000
  frame_id: "sonar_link"
radiation_type: 0
field_of_view: 0.698131978512
min_range: 0.00999999977648
max_range: 3.0
range: 0.0399999991059
---
header: 
  seq: 15917
  stamp: 
    secs: 2253
    nsecs: 546000000
  frame_id: "sonar_link"
radiation_type: 0
field_of_view: 0.698131978512
min_range: 0.00999999977648
max_range: 3.0
range: 0.039988219738
---
header: 
  seq: 15918
  stamp: 
    secs: 2253
    nsecs: 646000000
  frame_id: "sonar_link"
radiation_type: 0
field_of_view: 0.698131978512
min_range: 0.00999999977648
max_range: 3.0
range: 0.0400019772351
---
header: 
  seq: 15919
  stamp: 
    secs: 2253
    nsecs: 746000000
  frame_id: "sonar_link"
radiation_type: 0
field_of_view: 0.698131978512
min_range: 0.00999999977648
max_range: 3.0
range: 0.0399999991059
---
header: 
  seq: 15920
  stamp: 
    secs: 2253
    nsecs: 846000000
  frame_id: "sonar_link"
radiation_type: 0
field_of_view: 0.698131978512
min_range: 0.00999999977648
max_range: 3.0
range: 0.039988219738
---
header: 
  seq: 15921
  stamp: 
    secs: 2253
    nsecs: 946000000
  frame_id: "sonar_link"
radiation_type: 0
field_of_view: 0.698131978512
min_range: 0.00999999977648
max_range: 3.0
range: 0.0400019772351
---
header: 
  seq: 15922
  stamp: 
    secs: 2254
    nsecs:  46000000
  frame_id: "sonar_link"
radiation_type: 0
field_of_view: 0.698131978512
min_range: 0.00999999977648
max_range: 3.0
range: 0.0399999991059
---
header: 
  seq: 15923
  stamp: 
    secs: 2254
    nsecs: 146000000
  frame_id: "sonar_link"
radiation_type: 0
field_of_view: 0.698131978512
min_range: 0.00999999977648
max_range: 3.0
range: 0.039988219738
---
header: 
  seq: 15924
  stamp: 
    secs: 2254
    nsecs: 246000000
  frame_id: "sonar_link"
radiation_type: 0
field_of_view: 0.698131978512
min_range: 0.00999999977648
max_range: 3.0
range: 0.0400019772351
---
header: 
  seq: 15925
  stamp: 
    secs: 2254
    nsecs: 346000000
  frame_id: "sonar_link"
radiation_type: 0
field_of_view: 0.698131978512
min_range: 0.00999999977648
max_range: 3.0
range: 0.0399999991059
---
header: 
  seq: 15926
  stamp: 
    secs: 2254
    nsecs: 446000000
  frame_id: "sonar_link"
radiation_type: 0
field_of_view: 0.698131978512
min_range: 0.00999999977648
max_range: 3.0
range: 0.039988219738
---
header: 
  seq: 15927
  stamp: 
    secs: 2254
    nsecs: 546000000
  frame_id: "sonar_link"
radiation_type: 0
field_of_view: 0.698131978512
min_range: 0.00999999977648
max_range: 3.0
range: 0.0399999991059
---
header: 
  seq: 15928
  stamp: 
    secs: 2254
    nsecs: 646000000
  frame_id: "sonar_link"
radiation_type: 0
field_of_view: 0.698131978512
min_range: 0.00999999977648
max_range: 3.0
range: 0.0399999991059
---
header: 
  seq: 15929
  stamp: 
    secs: 2254
    nsecs: 746000000
  frame_id: "sonar_link"
radiation_type: 0
field_of_view: 0.698131978512
min_range: 0.00999999977648
max_range: 3.0
range: 0.039988219738
---
header: 
  seq: 15930
  stamp: 
    secs: 2254
    nsecs: 846000000
  frame_id: "sonar_link"
radiation_type: 0
field_of_view: 0.698131978512
min_range: 0.00999999977648
max_range: 3.0
range: 0.0400019772351
---
header: 
  seq: 15931
  stamp: 
    secs: 2254
    nsecs: 946000000
  frame_id: "sonar_link"
radiation_type: 0
field_of_view: 0.698131978512
min_range: 0.00999999977648
max_range: 3.0
range: 0.0399999991059
---
header: 
  seq: 15932
  stamp: 
    secs: 2255
    nsecs:  46000000
  frame_id: "sonar_link"
radiation_type: 0
field_of_view: 0.698131978512
min_range: 0.00999999977648
max_range: 3.0
range: 0.039988219738
---
header: 
  seq: 15933
  stamp: 
    secs: 2255
    nsecs: 146000000
  frame_id: "sonar_link"
radiation_type: 0
field_of_view: 0.698131978512
min_range: 0.00999999977648
max_range: 3.0
range: 0.0400019772351
---
header: 
  seq: 15934
  stamp: 
    secs: 2255
    nsecs: 246000000
  frame_id: "sonar_link"
radiation_type: 0
field_of_view: 0.698131978512
min_range: 0.00999999977648
max_range: 3.0
range: 0.0399899557233
---
header: 
  seq: 15935
  stamp: 
    secs: 2255
    nsecs: 346000000
  frame_id: "sonar_link"
radiation_type: 0
field_of_view: 0.698131978512
min_range: 0.00999999977648
max_range: 3.0
range: 0.039988219738
---
header: 
  seq: 15936
  stamp: 
    secs: 2255
    nsecs: 446000000
  frame_id: "sonar_link"
radiation_type: 0
field_of_view: 0.698131978512
min_range: 0.00999999977648
max_range: 3.0
range: 0.0400019772351
---
header: 
  seq: 15937
  stamp: 
    secs: 2255
    nsecs: 546000000
  frame_id: "sonar_link"
radiation_type: 0
field_of_view: 0.698131978512
min_range: 0.00999999977648
max_range: 3.0
range: 0.0399999991059
---
header: 
  seq: 15938
  stamp: 
    secs: 2255
    nsecs: 646000000
  frame_id: "sonar_link"
radiation_type: 0
field_of_view: 0.698131978512
min_range: 0.00999999977648
max_range: 3.0
range: 0.039988219738
---
header: 
  seq: 15939
  stamp: 
    secs: 2255
    nsecs: 746000000
  frame_id: "sonar_link"
radiation_type: 0
field_of_view: 0.698131978512
min_range: 0.00999999977648
max_range: 3.0
range: 0.0400019772351
---
header: 
  seq: 15940
  stamp: 
    secs: 2255
    nsecs: 846000000
  frame_id: "sonar_link"
radiation_type: 0
field_of_view: 0.698131978512
min_range: 0.00999999977648
max_range: 3.0
range: 0.0399999991059
---
header: 
  seq: 15941
  stamp: 
    secs: 2255
    nsecs: 946000000
  frame_id: "sonar_link"
radiation_type: 0
field_of_view: 0.698131978512
min_range: 0.00999999977648
max_range: 3.0
range: 0.039988219738
---
header: 
  seq: 15942
  stamp: 
    secs: 2256
    nsecs:  46000000
  frame_id: "sonar_link"
radiation_type: 0
field_of_view: 0.698131978512
min_range: 0.00999999977648
max_range: 3.0
range: 0.0400019772351
---
header: 
  seq: 15943
  stamp: 
    secs: 2256
    nsecs: 146000000
  frame_id: "sonar_link"
radiation_type: 0
field_of_view: 0.698131978512
min_range: 0.00999999977648
max_range: 3.0
range: 0.0399999991059
---
header: 
  seq: 15944
  stamp: 
    secs: 2256
    nsecs: 246000000
  frame_id: "sonar_link"
radiation_type: 0
field_of_view: 0.698131978512
min_range: 0.00999999977648
max_range: 3.0
range: 0.039988219738
---
header: 
  seq: 15945
  stamp: 
    secs: 2256
    nsecs: 346000000
  frame_id: "sonar_link"
radiation_type: 0
field_of_view: 0.698131978512
min_range: 0.00999999977648
max_range: 3.0
range: 0.0400019772351
---
header: 
  seq: 15946
  stamp: 
    secs: 2256
    nsecs: 446000000
  frame_id: "sonar_link"
radiation_type: 0
field_of_view: 0.698131978512
min_range: 0.00999999977648
max_range: 3.0
range: 0.0399999991059
---
header: 
  seq: 15947
  stamp: 
    secs: 2256
    nsecs: 546000000
  frame_id: "sonar_link"
radiation_type: 0
field_of_view: 0.698131978512
min_range: 0.00999999977648
max_range: 3.0
range: 0.039988219738
---
header: 
  seq: 15948
  stamp: 
    secs: 2256
    nsecs: 646000000
  frame_id: "sonar_link"
radiation_type: 0
field_of_view: 0.698131978512
min_range: 0.00999999977648
max_range: 3.0
range: 0.0400019772351
---
header: 
  seq: 15949
  stamp: 
    secs: 2256
    nsecs: 746000000
  frame_id: "sonar_link"
radiation_type: 0
field_of_view: 0.698131978512
min_range: 0.00999999977648
max_range: 3.0
range: 0.0399899557233
---
header: 
  seq: 15950
  stamp: 
    secs: 2256
    nsecs: 846000000
  frame_id: "sonar_link"
radiation_type: 0
field_of_view: 0.698131978512
min_range: 0.00999999977648
max_range: 3.0
range: 0.039988219738
---
header: 
  seq: 15951
  stamp: 
    secs: 2256
    nsecs: 946000000
  frame_id: "sonar_link"
radiation_type: 0
field_of_view: 0.698131978512
min_range: 0.00999999977648
max_range: 3.0
range: 0.0400019772351
---
header: 
  seq: 15952
  stamp: 
    secs: 2257
    nsecs:  46000000
  frame_id: "sonar_link"
radiation_type: 0
field_of_view: 0.698131978512
min_range: 0.00999999977648
max_range: 3.0
range: 0.0399999991059
---
header: 
  seq: 15953
  stamp: 
    secs: 2257
    nsecs: 146000000
  frame_id: "sonar_link"
radiation_type: 0
field_of_view: 0.698131978512
min_range: 0.00999999977648
max_range: 3.0
range: 0.039988219738
---
header: 
  seq: 15954
  stamp: 
    secs: 2257
    nsecs: 246000000
  frame_id: "sonar_link"
radiation_type: 0
field_of_view: 0.698131978512
min_range: 0.00999999977648
max_range: 3.0
range: 0.0399999991059
---
header: 
  seq: 15955
  stamp: 
    secs: 2257
    nsecs: 346000000
  frame_id: "sonar_link"
radiation_type: 0
field_of_view: 0.698131978512
min_range: 0.00999999977648
max_range: 3.0
range: 0.0399899557233
---
header: 
  seq: 15956
  stamp: 
    secs: 2257
    nsecs: 446000000
  frame_id: "sonar_link"
radiation_type: 0
field_of_view: 0.698131978512
min_range: 0.00999999977648
max_range: 3.0
range: 0.039988219738
---
header: 
  seq: 15957
  stamp: 
    secs: 2257
    nsecs: 546000000
  frame_id: "sonar_link"
radiation_type: 0
field_of_view: 0.698131978512
min_range: 0.00999999977648
max_range: 3.0
range: 0.0399999991059
---
header: 
  seq: 15958
  stamp: 
    secs: 2257
    nsecs: 646000000
  frame_id: "sonar_link"
radiation_type: 0
field_of_view: 0.698131978512
min_range: 0.00999999977648
max_range: 3.0
range: 0.0399899557233
---
header: 
  seq: 15959
  stamp: 
    secs: 2257
    nsecs: 746000000
  frame_id: "sonar_link"
radiation_type: 0
field_of_view: 0.698131978512
min_range: 0.00999999977648
max_range: 3.0
range: 0.039988219738
---
header: 
  seq: 15960
  stamp: 
    secs: 2257
    nsecs: 846000000
  frame_id: "sonar_link"
radiation_type: 0
field_of_view: 0.698131978512
min_range: 0.00999999977648
max_range: 3.0
range: 0.0400019772351
---
header: 
  seq: 15961
  stamp: 
    secs: 2257
    nsecs: 946000000
  frame_id: "sonar_link"
radiation_type: 0
field_of_view: 0.698131978512
min_range: 0.00999999977648
max_range: 3.0
range: 0.0399999991059
---
header: 
  seq: 15962
  stamp: 
    secs: 2258
    nsecs:  46000000
  frame_id: "sonar_link"
radiation_type: 0
field_of_view: 0.698131978512
min_range: 0.00999999977648
max_range: 3.0
range: 0.039988219738
---
header: 
  seq: 15963
  stamp: 
    secs: 2258
    nsecs: 150000000
  frame_id: "sonar_link"
radiation_type: 0
field_of_view: 0.698131978512
min_range: 0.00999999977648
max_range: 3.0
range: 0.0399999991059
---
header: 
  seq: 15964
  stamp: 
    secs: 2258
    nsecs: 250000000
  frame_id: "sonar_link"
radiation_type: 0
field_of_view: 0.698131978512
min_range: 0.00999999977648
max_range: 3.0
range: 0.039988219738
---
header: 
  seq: 15965
  stamp: 
    secs: 2258
    nsecs: 350000000
  frame_id: "sonar_link"
radiation_type: 0
field_of_view: 0.698131978512
min_range: 0.00999999977648
max_range: 3.0
range: 0.0400019772351
---
header: 
  seq: 15966
  stamp: 
    secs: 2258
    nsecs: 450000000
  frame_id: "sonar_link"
radiation_type: 0
field_of_view: 0.698131978512
min_range: 0.00999999977648
max_range: 3.0
range: 0.0399999991059
---
header: 
  seq: 15967
  stamp: 
    secs: 2258
    nsecs: 550000000
  frame_id: "sonar_link"
radiation_type: 0
field_of_view: 0.698131978512
min_range: 0.00999999977648
max_range: 3.0
range: 0.039988219738
---
header: 
  seq: 15968
  stamp: 
    secs: 2258
    nsecs: 650000000
  frame_id: "sonar_link"
radiation_type: 0
field_of_view: 0.698131978512
min_range: 0.00999999977648
max_range: 3.0
range: 0.0400019772351
---
header: 
  seq: 15969
  stamp: 
    secs: 2258
    nsecs: 750000000
  frame_id: "sonar_link"
radiation_type: 0
field_of_view: 0.698131978512
min_range: 0.00999999977648
max_range: 3.0
range: 0.0399999991059
---
header: 
  seq: 15970
  stamp: 
    secs: 2258
    nsecs: 850000000
  frame_id: "sonar_link"
radiation_type: 0
field_of_view: 0.698131978512
min_range: 0.00999999977648
max_range: 3.0
range: 0.039988219738
---
header: 
  seq: 15971
  stamp: 
    secs: 2258
    nsecs: 950000000
  frame_id: "sonar_link"
radiation_type: 0
field_of_view: 0.698131978512
min_range: 0.00999999977648
max_range: 3.0
range: 0.0400019772351
---
header: 
  seq: 15972
  stamp: 
    secs: 2259
    nsecs:  50000000
  frame_id: "sonar_link"
radiation_type: 0
field_of_view: 0.698131978512
min_range: 0.00999999977648
max_range: 3.0
range: 0.0399999991059
---
header: 
  seq: 15973
  stamp: 
    secs: 2259
    nsecs: 150000000
  frame_id: "sonar_link"
radiation_type: 0
field_of_view: 0.698131978512
min_range: 0.00999999977648
max_range: 3.0
range: 0.039988219738
---
header: 
  seq: 15974
  stamp: 
    secs: 2259
    nsecs: 250000000
  frame_id: "sonar_link"
radiation_type: 0
field_of_view: 0.698131978512
min_range: 0.00999999977648
max_range: 3.0
range: 0.0400019772351
---
header: 
  seq: 15975
  stamp: 
    secs: 2259
    nsecs: 350000000
  frame_id: "sonar_link"
radiation_type: 0
field_of_view: 0.698131978512
min_range: 0.00999999977648
max_range: 3.0
range: 0.0399999991059
---
header: 
  seq: 15976
  stamp: 
    secs: 2259
    nsecs: 450000000
  frame_id: "sonar_link"
radiation_type: 0
field_of_view: 0.698131978512
min_range: 0.00999999977648
max_range: 3.0
range: 0.039988219738
---
header: 
  seq: 15977
  stamp: 
    secs: 2259
    nsecs: 550000000
  frame_id: "sonar_link"
radiation_type: 0
field_of_view: 0.698131978512
min_range: 0.00999999977648
max_range: 3.0
range: 0.0400019772351
---
header: 
  seq: 15978
  stamp: 
    secs: 2259
    nsecs: 650000000
  frame_id: "sonar_link"
radiation_type: 0
field_of_view: 0.698131978512
min_range: 0.00999999977648
max_range: 3.0
range: 0.0399999991059
---
header: 
  seq: 15979
  stamp: 
    secs: 2259
    nsecs: 750000000
  frame_id: "sonar_link"
radiation_type: 0
field_of_view: 0.698131978512
min_range: 0.00999999977648
max_range: 3.0
range: 0.039988219738
---
header: 
  seq: 15980
  stamp: 
    secs: 2259
    nsecs: 850000000
  frame_id: "sonar_link"
radiation_type: 0
field_of_view: 0.698131978512
min_range: 0.00999999977648
max_range: 3.0
range: 0.0400019772351
---
header: 
  seq: 15981
  stamp: 
    secs: 2259
    nsecs: 950000000
  frame_id: "sonar_link"
radiation_type: 0
field_of_view: 0.698131978512
min_range: 0.00999999977648
max_range: 3.0
range: 0.0399999991059
---
header: 
  seq: 15982
  stamp: 
    secs: 2260
    nsecs:  50000000
  frame_id: "sonar_link"
radiation_type: 0
field_of_view: 0.698131978512
min_range: 0.00999999977648
max_range: 3.0
range: 0.039988219738
---
header: 
  seq: 15983
  stamp: 
    secs: 2260
    nsecs: 150000000
  frame_id: "sonar_link"
radiation_type: 0
field_of_view: 0.698131978512
min_range: 0.00999999977648
max_range: 3.0
range: 0.0400019772351
---
header: 
  seq: 15984
  stamp: 
    secs: 2260
    nsecs: 250000000
  frame_id: "sonar_link"
radiation_type: 0
field_of_view: 0.698131978512
min_range: 0.00999999977648
max_range: 3.0
range: 0.0452317893505
---
header: 
  seq: 15985
  stamp: 
    secs: 2260
    nsecs: 350000000
  frame_id: "sonar_link"
radiation_type: 0
field_of_view: 0.698131978512
min_range: 0.00999999977648
max_range: 3.0
range: 0.0904598981142
---
header: 
  seq: 15986
  stamp: 
    secs: 2260
    nsecs: 450000000
  frame_id: "sonar_link"
radiation_type: 0
field_of_view: 0.698131978512
min_range: 0.00999999977648
max_range: 3.0
range: 0.156107679009
---
header: 
  seq: 15987
  stamp: 
    secs: 2260
    nsecs: 550000000
  frame_id: "sonar_link"
radiation_type: 0
field_of_view: 0.698131978512
min_range: 0.00999999977648
max_range: 3.0
range: 0.225782811642
---
header: 
  seq: 15988
  stamp: 
    secs: 2260
    nsecs: 650000000
  frame_id: "sonar_link"
radiation_type: 0
field_of_view: 0.698131978512
min_range: 0.00999999977648
max_range: 3.0
range: 0.294386476278
---
header: 
  seq: 15989
  stamp: 
    secs: 2260
    nsecs: 750000000
  frame_id: "sonar_link"
radiation_type: 0
field_of_view: 0.698131978512
min_range: 0.00999999977648
max_range: 3.0
range: 0.36801815033
---
header: 
  seq: 15990
  stamp: 
    secs: 2260
    nsecs: 850000000
  frame_id: "sonar_link"
radiation_type: 0
field_of_view: 0.698131978512
min_range: 0.00999999977648
max_range: 3.0
range: 0.449013471603
---
header: 
  seq: 15991
  stamp: 
    secs: 2260
    nsecs: 950000000
  frame_id: "sonar_link"
radiation_type: 0
field_of_view: 0.698131978512
min_range: 0.00999999977648
max_range: 3.0
range: 0.531126022339
---
header: 
  seq: 15992
  stamp: 
    secs: 2261
    nsecs:  50000000
  frame_id: "sonar_link"
radiation_type: 0
field_of_view: 0.698131978512
min_range: 0.00999999977648
max_range: 3.0
range: 0.602820754051
---
header: 
  seq: 15993
  stamp: 
    secs: 2261
    nsecs: 150000000
  frame_id: "sonar_link"
radiation_type: 0
field_of_view: 0.698131978512
min_range: 0.00999999977648
max_range: 3.0
range: 0.658751070499
---
header: 
  seq: 15994
  stamp: 
    secs: 2261
    nsecs: 250000000
  frame_id: "sonar_link"
radiation_type: 0
field_of_view: 0.698131978512
min_range: 0.00999999977648
max_range: 3.0
range: 0.70223903656
---
header: 
  seq: 15995
  stamp: 
    secs: 2261
    nsecs: 350000000
  frame_id: "sonar_link"
radiation_type: 0
field_of_view: 0.698131978512
min_range: 0.00999999977648
max_range: 3.0
range: 0.735721349716
---
header: 
  seq: 15996
  stamp: 
    secs: 2261
    nsecs: 450000000
  frame_id: "sonar_link"
radiation_type: 0
field_of_view: 0.698131978512
min_range: 0.00999999977648
max_range: 3.0
range: 0.762024760246
---
header: 
  seq: 15997
  stamp: 
    secs: 2261
    nsecs: 550000000
  frame_id: "sonar_link"
radiation_type: 0
field_of_view: 0.698131978512
min_range: 0.00999999977648
max_range: 3.0
range: 0.782445311546
---
header: 
  seq: 15998
  stamp: 
    secs: 2261
    nsecs: 650000000
  frame_id: "sonar_link"
radiation_type: 0
field_of_view: 0.698131978512
min_range: 0.00999999977648
max_range: 3.0
range: 0.798440814018
---
header: 
  seq: 15999
  stamp: 
    secs: 2261
    nsecs: 750000000
  frame_id: "sonar_link"
radiation_type: 0
field_of_view: 0.698131978512
min_range: 0.00999999977648
max_range: 3.0
range: 0.810730099678
---
header: 
  seq: 16000
  stamp: 
    secs: 2261
    nsecs: 850000000
  frame_id: "sonar_link"
radiation_type: 0
field_of_view: 0.698131978512
min_range: 0.00999999977648
max_range: 3.0
range: 0.820294201374
---
header: 
  seq: 16001
  stamp: 
    secs: 2261
    nsecs: 950000000
  frame_id: "sonar_link"
radiation_type: 0
field_of_view: 0.698131978512
min_range: 0.00999999977648
max_range: 3.0
range: 0.827655792236
---
header: 
  seq: 16002
  stamp: 
    secs: 2262
    nsecs:  50000000
  frame_id: "sonar_link"
radiation_type: 0
field_of_view: 0.698131978512
min_range: 0.00999999977648
max_range: 3.0
range: 0.833432853222
---
header: 
  seq: 16003
  stamp: 
    secs: 2262
    nsecs: 150000000
  frame_id: "sonar_link"
radiation_type: 0
field_of_view: 0.698131978512
min_range: 0.00999999977648
max_range: 3.0
range: 0.837928533554
---
header: 
  seq: 16004
  stamp: 
    secs: 2262
    nsecs: 251000000
  frame_id: "sonar_link"
radiation_type: 0
field_of_view: 0.698131978512
min_range: 0.00999999977648
max_range: 3.0
range: 0.841486275196
---
header: 
  seq: 16005
  stamp: 
    secs: 2262
    nsecs: 351000000
  frame_id: "sonar_link"
radiation_type: 0
field_of_view: 0.698131978512
min_range: 0.00999999977648
max_range: 3.0
range: 0.844167888165
---
header: 
  seq: 16006
  stamp: 
    secs: 2262
    nsecs: 452000000
  frame_id: "sonar_link"
radiation_type: 0
field_of_view: 0.698131978512
min_range: 0.00999999977648
max_range: 3.0
range: 0.846296429634
---
header: 
  seq: 16007
  stamp: 
    secs: 2262
    nsecs: 551000000
  frame_id: "sonar_link"
radiation_type: 0
field_of_view: 0.698131978512
min_range: 0.00999999977648
max_range: 3.0
range: 0.84792548418
---
header: 
  seq: 16008
  stamp: 
    secs: 2262
    nsecs: 651000000
  frame_id: "sonar_link"
radiation_type: 0
field_of_view: 0.698131978512
min_range: 0.00999999977648
max_range: 3.0
range: 0.849196016788
---
header: 
  seq: 16009
  stamp: 
    secs: 2262
    nsecs: 751000000
  frame_id: "sonar_link"
radiation_type: 0
field_of_view: 0.698131978512
min_range: 0.00999999977648
max_range: 3.0
range: 0.850186407566
---
header: 
  seq: 16010
  stamp: 
    secs: 2262
    nsecs: 851000000
  frame_id: "sonar_link"
radiation_type: 0
field_of_view: 0.698131978512
min_range: 0.00999999977648
max_range: 3.0
range: 0.850943684578
---
header: 
  seq: 16011
  stamp: 
    secs: 2262
    nsecs: 951000000
  frame_id: "sonar_link"
radiation_type: 0
field_of_view: 0.698131978512
min_range: 0.00999999977648
max_range: 3.0
range: 0.851526796818
---
header: 
  seq: 16012
  stamp: 
    secs: 2263
    nsecs:  51000000
  frame_id: "sonar_link"
radiation_type: 0
field_of_view: 0.698131978512
min_range: 0.00999999977648
max_range: 3.0
range: 0.851999342442
---
header: 
  seq: 16013
  stamp: 
    secs: 2263
    nsecs: 151000000
  frame_id: "sonar_link"
radiation_type: 0
field_of_view: 0.698131978512
min_range: 0.00999999977648
max_range: 3.0
range: 0.852366745472
---
header: 
  seq: 16014
  stamp: 
    secs: 2263
    nsecs: 251000000
  frame_id: "sonar_link"
radiation_type: 0
field_of_view: 0.698131978512
min_range: 0.00999999977648
max_range: 3.0
range: 0.852640032768
---
header: 
  seq: 16015
  stamp: 
    secs: 2263
    nsecs: 351000000
  frame_id: "sonar_link"
radiation_type: 0
field_of_view: 0.698131978512
min_range: 0.00999999977648
max_range: 3.0
range: 0.852847516537
---
header: 
  seq: 16016
  stamp: 
    secs: 2263
    nsecs: 453000000
  frame_id: "sonar_link"
radiation_type: 0
field_of_view: 0.698131978512
min_range: 0.00999999977648
max_range: 3.0
range: 0.853015422821
---
header: 
  seq: 16017
  stamp: 
    secs: 2263
    nsecs: 552000000
  frame_id: "sonar_link"
radiation_type: 0
field_of_view: 0.698131978512
min_range: 0.00999999977648
max_range: 3.0
range: 0.853155612946
---
header: 
  seq: 16018
  stamp: 
    secs: 2263
    nsecs: 652000000
  frame_id: "sonar_link"
radiation_type: 0
field_of_view: 0.698131978512
min_range: 0.00999999977648
max_range: 3.0
range: 0.853283643723
---
header: 
  seq: 16019
  stamp: 
    secs: 2263
    nsecs: 752000000
  frame_id: "sonar_link"
radiation_type: 0
field_of_view: 0.698131978512
min_range: 0.00999999977648
max_range: 3.0
range: 0.853374242783
---
header: 
  seq: 16020
  stamp: 
    secs: 2263
    nsecs: 852000000
  frame_id: "sonar_link"
radiation_type: 0
field_of_view: 0.698131978512
min_range: 0.00999999977648
max_range: 3.0
range: 0.853445470333
---
header: 
  seq: 16021
  stamp: 
    secs: 2263
    nsecs: 952000000
  frame_id: "sonar_link"
radiation_type: 0
field_of_view: 0.698131978512
min_range: 0.00999999977648
max_range: 3.0
range: 0.853483498096
---
header: 
  seq: 16022
  stamp: 
    secs: 2264
    nsecs:  52000000
  frame_id: "sonar_link"
radiation_type: 0
field_of_view: 0.698131978512
min_range: 0.00999999977648
max_range: 3.0
range: 0.853507816792
---
header: 
  seq: 16023
  stamp: 
    secs: 2264
    nsecs: 152000000
  frame_id: "sonar_link"
radiation_type: 0
field_of_view: 0.698131978512
min_range: 0.00999999977648
max_range: 3.0
range: 0.853526175022
---
header: 
  seq: 16024
  stamp: 
    secs: 2264
    nsecs: 252000000
  frame_id: "sonar_link"
radiation_type: 0
field_of_view: 0.698131978512
min_range: 0.00999999977648
max_range: 3.0
range: 0.853543102741
---
header: 
  seq: 16025
  stamp: 
    secs: 2264
    nsecs: 352000000
  frame_id: "sonar_link"
radiation_type: 0
field_of_view: 0.698131978512
min_range: 0.00999999977648
max_range: 3.0
range: 0.853555560112
---
header: 
  seq: 16026
  stamp: 
    secs: 2264
    nsecs: 452000000
  frame_id: "sonar_link"
radiation_type: 0
field_of_view: 0.698131978512
min_range: 0.00999999977648
max_range: 3.0
range: 0.853552818298
---
header: 
  seq: 16027
  stamp: 
    secs: 2264
    nsecs: 552000000
  frame_id: "sonar_link"
radiation_type: 0
field_of_view: 0.698131978512
min_range: 0.00999999977648
max_range: 3.0
range: 0.853566586971
---
header: 
  seq: 16028
  stamp: 
    secs: 2264
    nsecs: 652000000
  frame_id: "sonar_link"
radiation_type: 0
field_of_view: 0.698131978512
min_range: 0.00999999977648
max_range: 3.0
range: 0.853584945202
---
header: 
  seq: 16029
  stamp: 
    secs: 2264
    nsecs: 752000000
  frame_id: "sonar_link"
radiation_type: 0
field_of_view: 0.698131978512
min_range: 0.00999999977648
max_range: 3.0
range: 0.853603959084
---
header: 
  seq: 16030
  stamp: 
    secs: 2264
    nsecs: 852000000
  frame_id: "sonar_link"
radiation_type: 0
field_of_view: 0.698131978512
min_range: 0.00999999977648
max_range: 3.0
range: 0.853613138199
---
header: 
  seq: 16031
  stamp: 
    secs: 2264
    nsecs: 952000000
  frame_id: "sonar_link"
radiation_type: 0
field_of_view: 0.698131978512
min_range: 0.00999999977648
max_range: 3.0
range: 0.853602290154
---
header: 
  seq: 16032
  stamp: 
    secs: 2265
    nsecs:  52000000
  frame_id: "sonar_link"
radiation_type: 0
field_of_view: 0.698131978512
min_range: 0.00999999977648
max_range: 3.0
range: 0.853616654873
---
header: 
  seq: 16033
  stamp: 
    secs: 2265
    nsecs: 152000000
  frame_id: "sonar_link"
radiation_type: 0
field_of_view: 0.698131978512
min_range: 0.00999999977648
max_range: 3.0
range: 0.853632509708
---
header: 
  seq: 16034
  stamp: 
    secs: 2265
    nsecs: 252000000
  frame_id: "sonar_link"
radiation_type: 0
field_of_view: 0.698131978512
min_range: 0.00999999977648
max_range: 3.0
range: 0.853637993336
---
header: 
  seq: 16035
  stamp: 
    secs: 2265
    nsecs: 352000000
  frame_id: "sonar_link"
radiation_type: 0
field_of_view: 0.698131978512
min_range: 0.00999999977648
max_range: 3.0
range: 0.8536439538
---
header: 
  seq: 16036
  stamp: 
    secs: 2265
    nsecs: 452000000
  frame_id: "sonar_link"
radiation_type: 0
field_of_view: 0.698131978512
min_range: 0.00999999977648
max_range: 3.0
range: 0.853073358536
---
header: 
  seq: 16037
  stamp: 
    secs: 2265
    nsecs: 552000000
  frame_id: "sonar_link"
radiation_type: 0
field_of_view: 0.698131978512
min_range: 0.00999999977648
max_range: 3.0
range: 0.854760527611
---
header: 
  seq: 16038
  stamp: 
    secs: 2265
    nsecs: 652000000
  frame_id: "sonar_link"
radiation_type: 0
field_of_view: 0.698131978512
min_range: 0.00999999977648
max_range: 3.0
range: 0.858606815338
---
header: 
  seq: 16039
  stamp: 
    secs: 2265
    nsecs: 757000000
  frame_id: "sonar_link"
radiation_type: 0
field_of_view: 0.698131978512
min_range: 0.00999999977648
max_range: 3.0
range: 0.864786088467
---
header: 
  seq: 16040
  stamp: 
    secs: 2265
    nsecs: 857000000
  frame_id: "sonar_link"
radiation_type: 0
field_of_view: 0.698131978512
min_range: 0.00999999977648
max_range: 3.0
range: 0.870394349098
---
header: 
  seq: 16041
  stamp: 
    secs: 2265
    nsecs: 957000000
  frame_id: "sonar_link"
radiation_type: 0
field_of_view: 0.698131978512
min_range: 0.00999999977648
max_range: 3.0
range: 0.877081573009
---
header: 
  seq: 16042
  stamp: 
    secs: 2266
    nsecs:  57000000
  frame_id: "sonar_link"
radiation_type: 0
field_of_view: 0.698131978512
min_range: 0.00999999977648
max_range: 3.0
range: 0.884505450726
---
header: 
  seq: 16043
  stamp: 
    secs: 2266
    nsecs: 157000000
  frame_id: "sonar_link"
radiation_type: 0
field_of_view: 0.698131978512
min_range: 0.00999999977648
max_range: 3.0
range: 0.892576277256
---
header: 
  seq: 16044
  stamp: 
    secs: 2266
    nsecs: 257000000
  frame_id: "sonar_link"
radiation_type: 0
field_of_view: 0.698131978512
min_range: 0.00999999977648
max_range: 3.0
range: 0.903406918049
---
header: 
  seq: 16045
  stamp: 
    secs: 2266
    nsecs: 357000000
  frame_id: "sonar_link"
radiation_type: 0
field_of_view: 0.698131978512
min_range: 0.00999999977648
max_range: 3.0
range: 0.912718594074
---
header: 
  seq: 16046
  stamp: 
    secs: 2266
    nsecs: 457000000
  frame_id: "sonar_link"
radiation_type: 0
field_of_view: 0.698131978512
min_range: 0.00999999977648
max_range: 3.0
range: 0.923472046852
---
header: 
  seq: 16047
  stamp: 
    secs: 2266
    nsecs: 557000000
  frame_id: "sonar_link"
radiation_type: 0
field_of_view: 0.698131978512
min_range: 0.00999999977648
max_range: 3.0
range: 0.933965623379
---
header: 
  seq: 16048
  stamp: 
    secs: 2266
    nsecs: 657000000
  frame_id: "sonar_link"
radiation_type: 0
field_of_view: 0.698131978512
min_range: 0.00999999977648
max_range: 3.0
range: 0.94346755743
---
header: 
  seq: 16049
  stamp: 
    secs: 2266
    nsecs: 757000000
  frame_id: "sonar_link"
radiation_type: 0
field_of_view: 0.698131978512
min_range: 0.00999999977648
max_range: 3.0
range: 0.954514980316
---
header: 
  seq: 16050
  stamp: 
    secs: 2266
    nsecs: 857000000
  frame_id: "sonar_link"
radiation_type: 0
field_of_view: 0.698131978512
min_range: 0.00999999977648
max_range: 3.0
range: 0.963343501091
---
header: 
  seq: 16051
  stamp: 
    secs: 2266
    nsecs: 957000000
  frame_id: "sonar_link"
radiation_type: 0
field_of_view: 0.698131978512
min_range: 0.00999999977648
max_range: 3.0
range: 0.971636474133
---
header: 
  seq: 16052
  stamp: 
    secs: 2267
    nsecs:  57000000
  frame_id: "sonar_link"
radiation_type: 0
field_of_view: 0.698131978512
min_range: 0.00999999977648
max_range: 3.0
range: 0.97939658165
---
header: 
  seq: 16053
  stamp: 
    secs: 2267
    nsecs: 157000000
  frame_id: "sonar_link"
radiation_type: 0
field_of_view: 0.698131978512
min_range: 0.00999999977648
max_range: 3.0
range: 0.98853123188
---
header: 
  seq: 16054
  stamp: 
    secs: 2267
    nsecs: 257000000
  frame_id: "sonar_link"
radiation_type: 0
field_of_view: 0.698131978512
min_range: 0.00999999977648
max_range: 3.0
range: 0.99785387516
---
header: 
  seq: 16055
  stamp: 
    secs: 2267
    nsecs: 357000000
  frame_id: "sonar_link"
radiation_type: 0
field_of_view: 0.698131978512
min_range: 0.00999999977648
max_range: 3.0
range: 1.00710248947
---
header: 
  seq: 16056
  stamp: 
    secs: 2267
    nsecs: 457000000
  frame_id: "sonar_link"
radiation_type: 0
field_of_view: 0.698131978512
min_range: 0.00999999977648
max_range: 3.0
range: 1.01722002029
---
header: 
  seq: 16057
  stamp: 
    secs: 2267
    nsecs: 557000000
  frame_id: "sonar_link"
radiation_type: 0
field_of_view: 0.698131978512
min_range: 0.00999999977648
max_range: 3.0
range: 1.02751421928
---
header: 
  seq: 16058
  stamp: 
    secs: 2267
    nsecs: 657000000
  frame_id: "sonar_link"
radiation_type: 0
field_of_view: 0.698131978512
min_range: 0.00999999977648
max_range: 3.0
range: 1.0350561142
---
header: 
  seq: 16059
  stamp: 
    secs: 2267
    nsecs: 757000000
  frame_id: "sonar_link"
radiation_type: 0
field_of_view: 0.698131978512
min_range: 0.00999999977648
max_range: 3.0
range: 1.04367792606
---
header: 
  seq: 16060
  stamp: 
    secs: 2267
    nsecs: 857000000
  frame_id: "sonar_link"
radiation_type: 0
field_of_view: 0.698131978512
min_range: 0.00999999977648
max_range: 3.0
range: 1.05145478249
---
header: 
  seq: 16061
  stamp: 
    secs: 2267
    nsecs: 957000000
  frame_id: "sonar_link"
radiation_type: 0
field_of_view: 0.698131978512
min_range: 0.00999999977648
max_range: 3.0
range: 1.05828857422
---
header: 
  seq: 16062
  stamp: 
    secs: 2268
    nsecs:  57000000
  frame_id: "sonar_link"
radiation_type: 0
field_of_view: 0.698131978512
min_range: 0.00999999977648
max_range: 3.0
range: 1.06729531288
---
header: 
  seq: 16063
  stamp: 
    secs: 2268
    nsecs: 158000000
  frame_id: "sonar_link"
radiation_type: 0
field_of_view: 0.698131978512
min_range: 0.00999999977648
max_range: 3.0
range: 1.07563650608
---
header: 
  seq: 16064
  stamp: 
    secs: 2268
    nsecs: 258000000
  frame_id: "sonar_link"
radiation_type: 0
field_of_view: 0.698131978512
min_range: 0.00999999977648
max_range: 3.0
range: 1.08228933811
---
header: 
  seq: 16065
  stamp: 
    secs: 2268
    nsecs: 358000000
  frame_id: "sonar_link"
radiation_type: 0
field_of_view: 0.698131978512
min_range: 0.00999999977648
max_range: 3.0
range: 1.09093165398
---
header: 
  seq: 16066
  stamp: 
    secs: 2268
    nsecs: 458000000
  frame_id: "sonar_link"
radiation_type: 0
field_of_view: 0.698131978512
min_range: 0.00999999977648
max_range: 3.0
range: 1.0989228487
---
header: 
  seq: 16067
  stamp: 
    secs: 2268
    nsecs: 558000000
  frame_id: "sonar_link"
radiation_type: 0
field_of_view: 0.698131978512
min_range: 0.00999999977648
max_range: 3.0
range: 1.10582327843
---
header: 
  seq: 16068
  stamp: 
    secs: 2268
    nsecs: 658000000
  frame_id: "sonar_link"
radiation_type: 0
field_of_view: 0.698131978512
min_range: 0.00999999977648
max_range: 3.0
range: 1.1137843132
---
header: 
  seq: 16069
  stamp: 
    secs: 2268
    nsecs: 758000000
  frame_id: "sonar_link"
radiation_type: 0
field_of_view: 0.698131978512
min_range: 0.00999999977648
max_range: 3.0
range: 1.12566781044
---
header: 
  seq: 16070
  stamp: 
    secs: 2268
    nsecs: 858000000
  frame_id: "sonar_link"
radiation_type: 0
field_of_view: 0.698131978512
min_range: 0.00999999977648
max_range: 3.0
range: 1.13622784615
---
header: 
  seq: 16071
  stamp: 
    secs: 2268
    nsecs: 958000000
  frame_id: "sonar_link"
radiation_type: 0
field_of_view: 0.698131978512
min_range: 0.00999999977648
max_range: 3.0
range: 1.14759492874
---
header: 
  seq: 16072
  stamp: 
    secs: 2269
    nsecs:  58000000
  frame_id: "sonar_link"
radiation_type: 0
field_of_view: 0.698131978512
min_range: 0.00999999977648
max_range: 3.0
range: 1.15648698807
---
header: 
  seq: 16073
  stamp: 
    secs: 2269
    nsecs: 158000000
  frame_id: "sonar_link"
radiation_type: 0
field_of_view: 0.698131978512
min_range: 0.00999999977648
max_range: 3.0
range: 1.16605901718
---
header: 
  seq: 16074
  stamp: 
    secs: 2269
    nsecs: 258000000
  frame_id: "sonar_link"
radiation_type: 0
field_of_view: 0.698131978512
min_range: 0.00999999977648
max_range: 3.0
range: 1.17482554913
---
header: 
  seq: 16075
  stamp: 
    secs: 2269
    nsecs: 358000000
  frame_id: "sonar_link"
radiation_type: 0
field_of_view: 0.698131978512
min_range: 0.00999999977648
max_range: 3.0
range: 1.18391013145
---
header: 
  seq: 16076
  stamp: 
    secs: 2269
    nsecs: 458000000
  frame_id: "sonar_link"
radiation_type: 0
field_of_view: 0.698131978512
min_range: 0.00999999977648
max_range: 3.0
range: 1.19467759132
---
header: 
  seq: 16077
  stamp: 
    secs: 2269
    nsecs: 558000000
  frame_id: "sonar_link"
radiation_type: 0
field_of_view: 0.698131978512
min_range: 0.00999999977648
max_range: 3.0
range: 1.20309364796
---
header: 
  seq: 16078
  stamp: 
    secs: 2269
    nsecs: 658000000
  frame_id: "sonar_link"
radiation_type: 0
field_of_view: 0.698131978512
min_range: 0.00999999977648
max_range: 3.0
range: 1.2107899189
---
header: 
  seq: 16079
  stamp: 
    secs: 2269
    nsecs: 758000000
  frame_id: "sonar_link"
radiation_type: 0
field_of_view: 0.698131978512
min_range: 0.00999999977648
max_range: 3.0
range: 1.21931254864
---
header: 
  seq: 16080
  stamp: 
    secs: 2269
    nsecs: 858000000
  frame_id: "sonar_link"
radiation_type: 0
field_of_view: 0.698131978512
min_range: 0.00999999977648
max_range: 3.0
range: 1.22796750069
---
header: 
  seq: 16081
  stamp: 
    secs: 2269
    nsecs: 958000000
  frame_id: "sonar_link"
radiation_type: 0
field_of_view: 0.698131978512
min_range: 0.00999999977648
max_range: 3.0
range: 1.23944485188
---
header: 
  seq: 16082
  stamp: 
    secs: 2270
    nsecs:  58000000
  frame_id: "sonar_link"
radiation_type: 0
field_of_view: 0.698131978512
min_range: 0.00999999977648
max_range: 3.0
range: 1.24985766411
---
header: 
  seq: 16083
  stamp: 
    secs: 2270
    nsecs: 158000000
  frame_id: "sonar_link"
radiation_type: 0
field_of_view: 0.698131978512
min_range: 0.00999999977648
max_range: 3.0
range: 1.25959980488
---
header: 
  seq: 16084
  stamp: 
    secs: 2270
    nsecs: 258000000
  frame_id: "sonar_link"
radiation_type: 0
field_of_view: 0.698131978512
min_range: 0.00999999977648
max_range: 3.0
range: 1.26884531975
---
header: 
  seq: 16085
  stamp: 
    secs: 2270
    nsecs: 358000000
  frame_id: "sonar_link"
radiation_type: 0
field_of_view: 0.698131978512
min_range: 0.00999999977648
max_range: 3.0
range: 1.27949607372
---
header: 
  seq: 16086
  stamp: 
    secs: 2270
    nsecs: 458000000
  frame_id: "sonar_link"
radiation_type: 0
field_of_view: 0.698131978512
min_range: 0.00999999977648
max_range: 3.0
range: 1.28973543644
---
header: 
  seq: 16087
  stamp: 
    secs: 2270
    nsecs: 558000000
  frame_id: "sonar_link"
radiation_type: 0
field_of_view: 0.698131978512
min_range: 0.00999999977648
max_range: 3.0
range: 1.29826951027
---
header: 
  seq: 16088
  stamp: 
    secs: 2270
    nsecs: 658000000
  frame_id: "sonar_link"
radiation_type: 0
field_of_view: 0.698131978512
min_range: 0.00999999977648
max_range: 3.0
range: 1.30831050873
---
header: 
  seq: 16089
  stamp: 
    secs: 2270
    nsecs: 758000000
  frame_id: "sonar_link"
radiation_type: 0
field_of_view: 0.698131978512
min_range: 0.00999999977648
max_range: 3.0
range: 1.31843674183
---
header: 
  seq: 16090
  stamp: 
    secs: 2270
    nsecs: 858000000
  frame_id: "sonar_link"
radiation_type: 0
field_of_view: 0.698131978512
min_range: 0.00999999977648
max_range: 3.0
range: 1.32967269421
---
header: 
  seq: 16091
  stamp: 
    secs: 2270
    nsecs: 958000000
  frame_id: "sonar_link"
radiation_type: 0
field_of_view: 0.698131978512
min_range: 0.00999999977648
max_range: 3.0
range: 1.34040796757
---
header: 
  seq: 16092
  stamp: 
    secs: 2271
    nsecs:  58000000
  frame_id: "sonar_link"
radiation_type: 0
field_of_view: 0.698131978512
min_range: 0.00999999977648
max_range: 3.0
range: 1.35277235508
---
header: 
  seq: 16093
  stamp: 
    secs: 2271
    nsecs: 158000000
  frame_id: "sonar_link"
radiation_type: 0
field_of_view: 0.698131978512
min_range: 0.00999999977648
max_range: 3.0
range: 1.36675417423
---
header: 
  seq: 16094
  stamp: 
    secs: 2271
    nsecs: 258000000
  frame_id: "sonar_link"
radiation_type: 0
field_of_view: 0.698131978512
min_range: 0.00999999977648
max_range: 3.0
range: 1.37823402882
---
header: 
  seq: 16095
  stamp: 
    secs: 2271
    nsecs: 358000000
  frame_id: "sonar_link"
radiation_type: 0
field_of_view: 0.698131978512
min_range: 0.00999999977648
max_range: 3.0
range: 1.3897074461
---
header: 
  seq: 16096
  stamp: 
    secs: 2271
    nsecs: 458000000
  frame_id: "sonar_link"
radiation_type: 0
field_of_view: 0.698131978512
min_range: 0.00999999977648
max_range: 3.0
range: 1.40378093719
---
header: 
  seq: 16097
  stamp: 
    secs: 2271
    nsecs: 558000000
  frame_id: "sonar_link"
radiation_type: 0
field_of_view: 0.698131978512
min_range: 0.00999999977648
max_range: 3.0
range: 1.41452789307
---
header: 
  seq: 16098
  stamp: 
    secs: 2271
    nsecs: 658000000
  frame_id: "sonar_link"
radiation_type: 0
field_of_view: 0.698131978512
min_range: 0.00999999977648
max_range: 3.0
range: 1.42749607563
---
header: 
  seq: 16099
  stamp: 
    secs: 2271
    nsecs: 758000000
  frame_id: "sonar_link"
radiation_type: 0
field_of_view: 0.698131978512
min_range: 0.00999999977648
max_range: 3.0
range: 1.43908560276
---
header: 
  seq: 16100
  stamp: 
    secs: 2271
    nsecs: 858000000
  frame_id: "sonar_link"
radiation_type: 0
field_of_view: 0.698131978512
min_range: 0.00999999977648
max_range: 3.0
range: 1.44990670681
---
header: 
  seq: 16101
  stamp: 
    secs: 2271
    nsecs: 958000000
  frame_id: "sonar_link"
radiation_type: 0
field_of_view: 0.698131978512
min_range: 0.00999999977648
max_range: 3.0
range: 1.46137809753
---
header: 
  seq: 16102
  stamp: 
    secs: 2272
    nsecs:  58000000
  frame_id: "sonar_link"
radiation_type: 0
field_of_view: 0.698131978512
min_range: 0.00999999977648
max_range: 3.0
range: 1.47093367577
---
header: 
  seq: 16103
  stamp: 
    secs: 2272
    nsecs: 158000000
  frame_id: "sonar_link"
radiation_type: 0
field_of_view: 0.698131978512
min_range: 0.00999999977648
max_range: 3.0
range: 1.48175787926
---
header: 
  seq: 16104
  stamp: 
    secs: 2272
    nsecs: 258000000
  frame_id: "sonar_link"
radiation_type: 0
field_of_view: 0.698131978512
min_range: 0.00999999977648
max_range: 3.0
range: 1.49472153187
---
header: 
  seq: 16105
  stamp: 
    secs: 2272
    nsecs: 358000000
  frame_id: "sonar_link"
radiation_type: 0
field_of_view: 0.698131978512
min_range: 0.00999999977648
max_range: 3.0
range: 1.50813543797
---
header: 
  seq: 16106
  stamp: 
    secs: 2272
    nsecs: 458000000
  frame_id: "sonar_link"
radiation_type: 0
field_of_view: 0.698131978512
min_range: 0.00999999977648
max_range: 3.0
range: 1.52213835716
---
header: 
  seq: 16107
  stamp: 
    secs: 2272
    nsecs: 558000000
  frame_id: "sonar_link"
radiation_type: 0
field_of_view: 0.698131978512
min_range: 0.00999999977648
max_range: 3.0
range: 1.5367013216
---
header: 
  seq: 16108
  stamp: 
    secs: 2272
    nsecs: 658000000
  frame_id: "sonar_link"
radiation_type: 0
field_of_view: 0.698131978512
min_range: 0.00999999977648
max_range: 3.0
range: 1.54996144772
---
header: 
  seq: 16109
  stamp: 
    secs: 2272
    nsecs: 758000000
  frame_id: "sonar_link"
radiation_type: 0
field_of_view: 0.698131978512
min_range: 0.00999999977648
max_range: 3.0
range: 1.56313765049
---
header: 
  seq: 16110
  stamp: 
    secs: 2272
    nsecs: 858000000
  frame_id: "sonar_link"
radiation_type: 0
field_of_view: 0.698131978512
min_range: 0.00999999977648
max_range: 3.0
range: 1.57599067688
---
header: 
  seq: 16111
  stamp: 
    secs: 2272
    nsecs: 958000000
  frame_id: "sonar_link"
radiation_type: 0
field_of_view: 0.698131978512
min_range: 0.00999999977648
max_range: 3.0
range: 1.5866676569
---
header: 
  seq: 16112
  stamp: 
    secs: 2273
    nsecs:  58000000
  frame_id: "sonar_link"
radiation_type: 0
field_of_view: 0.698131978512
min_range: 0.00999999977648
max_range: 3.0
range: 1.59863841534
---
header: 
  seq: 16113
  stamp: 
    secs: 2273
    nsecs: 158000000
  frame_id: "sonar_link"
radiation_type: 0
field_of_view: 0.698131978512
min_range: 0.00999999977648
max_range: 3.0
range: 1.6104875803
---
header: 
  seq: 16114
  stamp: 
    secs: 2273
    nsecs: 258000000
  frame_id: "sonar_link"
radiation_type: 0
field_of_view: 0.698131978512
min_range: 0.00999999977648
max_range: 3.0
range: 1.62352859974
---
header: 
  seq: 16115
  stamp: 
    secs: 2273
    nsecs: 358000000
  frame_id: "sonar_link"
radiation_type: 0
field_of_view: 0.698131978512
min_range: 0.00999999977648
max_range: 3.0
range: 1.63864135742
---
header: 
  seq: 16116
  stamp: 
    secs: 2273
    nsecs: 458000000
  frame_id: "sonar_link"
radiation_type: 0
field_of_view: 0.698131978512
min_range: 0.00999999977648
max_range: 3.0
range: 1.65208888054
---
header: 
  seq: 16117
  stamp: 
    secs: 2273
    nsecs: 559000000
  frame_id: "sonar_link"
radiation_type: 0
field_of_view: 0.698131978512
min_range: 0.00999999977648
max_range: 3.0
range: 1.666877985
---
header: 
  seq: 16118
  stamp: 
    secs: 2273
    nsecs: 659000000
  frame_id: "sonar_link"
radiation_type: 0
field_of_view: 0.698131978512
min_range: 0.00999999977648
max_range: 3.0
range: 1.67925298214
---
header: 
  seq: 16119
  stamp: 
    secs: 2273
    nsecs: 759000000
  frame_id: "sonar_link"
radiation_type: 0
field_of_view: 0.698131978512
min_range: 0.00999999977648
max_range: 3.0
range: 1.69269287586
---
header: 
  seq: 16120
  stamp: 
    secs: 2273
    nsecs: 859000000
  frame_id: "sonar_link"
radiation_type: 0
field_of_view: 0.698131978512
min_range: 0.00999999977648
max_range: 3.0
range: 1.7064653635
---
header: 
  seq: 16121
  stamp: 
    secs: 2273
    nsecs: 959000000
  frame_id: "sonar_link"
radiation_type: 0
field_of_view: 0.698131978512
min_range: 0.00999999977648
max_range: 3.0
range: 1.72031092644
---
header: 
  seq: 16122
  stamp: 
    secs: 2274
    nsecs:  59000000
  frame_id: "sonar_link"
radiation_type: 0
field_of_view: 0.698131978512
min_range: 0.00999999977648
max_range: 3.0
range: 1.73416268826
---
header: 
  seq: 16123
  stamp: 
    secs: 2274
    nsecs: 159000000
  frame_id: "sonar_link"
radiation_type: 0
field_of_view: 0.698131978512
min_range: 0.00999999977648
max_range: 3.0
range: 1.74621355534
---
header: 
  seq: 16124
  stamp: 
    secs: 2274
    nsecs: 259000000
  frame_id: "sonar_link"
radiation_type: 0
field_of_view: 0.698131978512
min_range: 0.00999999977648
max_range: 3.0
range: 1.75870931149
---
header: 
  seq: 16125
  stamp: 
    secs: 2274
    nsecs: 359000000
  frame_id: "sonar_link"
radiation_type: 0
field_of_view: 0.698131978512
min_range: 0.00999999977648
max_range: 3.0
range: 1.77177035809
---
header: 
  seq: 16126
  stamp: 
    secs: 2274
    nsecs: 459000000
  frame_id: "sonar_link"
radiation_type: 0
field_of_view: 0.698131978512
min_range: 0.00999999977648
max_range: 3.0
range: 1.783821702
---
header: 
  seq: 16127
  stamp: 
    secs: 2274
    nsecs: 559000000
  frame_id: "sonar_link"
radiation_type: 0
field_of_view: 0.698131978512
min_range: 0.00999999977648
max_range: 3.0
range: 1.79844284058
---
header: 
  seq: 16128
  stamp: 
    secs: 2274
    nsecs: 659000000
  frame_id: "sonar_link"
radiation_type: 0
field_of_view: 0.698131978512
min_range: 0.00999999977648
max_range: 3.0
range: 1.81241691113
---
header: 
  seq: 16129
  stamp: 
    secs: 2274
    nsecs: 759000000
  frame_id: "sonar_link"
radiation_type: 0
field_of_view: 0.698131978512
min_range: 0.00999999977648
max_range: 3.0
range: 1.82649946213
---
header: 
  seq: 16130
  stamp: 
    secs: 2274
    nsecs: 859000000
  frame_id: "sonar_link"
radiation_type: 0
field_of_view: 0.698131978512
min_range: 0.00999999977648
max_range: 3.0
range: 1.83959269524
---
header: 
  seq: 16131
  stamp: 
    secs: 2274
    nsecs: 959000000
  frame_id: "sonar_link"
radiation_type: 0
field_of_view: 0.698131978512
min_range: 0.00999999977648
max_range: 3.0
range: 1.85317206383
---
header: 
  seq: 16132
  stamp: 
    secs: 2275
    nsecs:  59000000
  frame_id: "sonar_link"
radiation_type: 0
field_of_view: 0.698131978512
min_range: 0.00999999977648
max_range: 3.0
range: 1.86524093151
---
header: 
  seq: 16133
  stamp: 
    secs: 2275
    nsecs: 159000000
  frame_id: "sonar_link"
radiation_type: 0
field_of_view: 0.698131978512
min_range: 0.00999999977648
max_range: 3.0
range: 1.87970554829
---
header: 
  seq: 16134
  stamp: 
    secs: 2275
    nsecs: 259000000
  frame_id: "sonar_link"
radiation_type: 0
field_of_view: 0.698131978512
min_range: 0.00999999977648
max_range: 3.0
range: 1.89316570759
---
header: 
  seq: 16135
  stamp: 
    secs: 2275
    nsecs: 359000000
  frame_id: "sonar_link"
radiation_type: 0
field_of_view: 0.698131978512
min_range: 0.00999999977648
max_range: 3.0
range: 1.90743029118
---
header: 
  seq: 16136
  stamp: 
    secs: 2275
    nsecs: 459000000
  frame_id: "sonar_link"
radiation_type: 0
field_of_view: 0.698131978512
min_range: 0.00999999977648
max_range: 3.0
range: 1.92085516453
---
header: 
  seq: 16137
  stamp: 
    secs: 2275
    nsecs: 559000000
  frame_id: "sonar_link"
radiation_type: 0
field_of_view: 0.698131978512
min_range: 0.00999999977648
max_range: 3.0
range: 1.93354725838
---
header: 
  seq: 16138
  stamp: 
    secs: 2275
    nsecs: 659000000
  frame_id: "sonar_link"
radiation_type: 0
field_of_view: 0.698131978512
min_range: 0.00999999977648
max_range: 3.0
range: 1.94738733768
---
header: 
  seq: 16139
  stamp: 
    secs: 2275
    nsecs: 759000000
  frame_id: "sonar_link"
radiation_type: 0
field_of_view: 0.698131978512
min_range: 0.00999999977648
max_range: 3.0
range: 1.95987224579
---
header: 
  seq: 16140
  stamp: 
    secs: 2275
    nsecs: 859000000
  frame_id: "sonar_link"
radiation_type: 0
field_of_view: 0.698131978512
min_range: 0.00999999977648
max_range: 3.0
range: 1.96765768528
---
header: 
  seq: 16141
  stamp: 
    secs: 2275
    nsecs: 959000000
  frame_id: "sonar_link"
radiation_type: 0
field_of_view: 0.698131978512
min_range: 0.00999999977648
max_range: 3.0
range: 1.97702109814
---
header: 
  seq: 16142
  stamp: 
    secs: 2276
    nsecs:  59000000
  frame_id: "sonar_link"
radiation_type: 0
field_of_view: 0.698131978512
min_range: 0.00999999977648
max_range: 3.0
range: 1.98852169514
---
header: 
  seq: 16143
  stamp: 
    secs: 2276
    nsecs: 159000000
  frame_id: "sonar_link"
radiation_type: 0
field_of_view: 0.698131978512
min_range: 0.00999999977648
max_range: 3.0
range: 2.00013279915
---
header: 
  seq: 16144
  stamp: 
    secs: 2276
    nsecs: 259000000
  frame_id: "sonar_link"
radiation_type: 0
field_of_view: 0.698131978512
min_range: 0.00999999977648
max_range: 3.0
range: 2.00905418396
---
header: 
  seq: 16145
  stamp: 
    secs: 2276
    nsecs: 359000000
  frame_id: "sonar_link"
radiation_type: 0
field_of_view: 0.698131978512
min_range: 0.00999999977648
max_range: 3.0
range: 2.02188372612
---
header: 
  seq: 16146
  stamp: 
    secs: 2276
    nsecs: 459000000
  frame_id: "sonar_link"
radiation_type: 0
field_of_view: 0.698131978512
min_range: 0.00999999977648
max_range: 3.0
range: 2.03105473518
---
header: 
  seq: 16147
  stamp: 
    secs: 2276
    nsecs: 559000000
  frame_id: "sonar_link"
radiation_type: 0
field_of_view: 0.698131978512
min_range: 0.00999999977648
max_range: 3.0
range: 2.04189348221
---
header: 
  seq: 16148
  stamp: 
    secs: 2276
    nsecs: 659000000
  frame_id: "sonar_link"
radiation_type: 0
field_of_view: 0.698131978512
min_range: 0.00999999977648
max_range: 3.0
range: 2.05190443993
---
header: 
  seq: 16149
  stamp: 
    secs: 2276
    nsecs: 759000000
  frame_id: "sonar_link"
radiation_type: 0
field_of_view: 0.698131978512
min_range: 0.00999999977648
max_range: 3.0
range: 2.06211876869
---
header: 
  seq: 16150
  stamp: 
    secs: 2276
    nsecs: 859000000
  frame_id: "sonar_link"
radiation_type: 0
field_of_view: 0.698131978512
min_range: 0.00999999977648
max_range: 3.0
range: 2.07359409332
---
header: 
  seq: 16151
  stamp: 
    secs: 2276
    nsecs: 959000000
  frame_id: "sonar_link"
radiation_type: 0
field_of_view: 0.698131978512
min_range: 0.00999999977648
max_range: 3.0
range: 2.08324861526
---
header: 
  seq: 16152
  stamp: 
    secs: 2277
    nsecs:  59000000
  frame_id: "sonar_link"
radiation_type: 0
field_of_view: 0.698131978512
min_range: 0.00999999977648
max_range: 3.0
range: 2.09256768227
---
header: 
  seq: 16153
  stamp: 
    secs: 2277
    nsecs: 165000000
  frame_id: "sonar_link"
radiation_type: 0
field_of_view: 0.698131978512
min_range: 0.00999999977648
max_range: 3.0
range: 2.10242652893
---
header: 
  seq: 16154
  stamp: 
    secs: 2277
    nsecs: 265000000
  frame_id: "sonar_link"
radiation_type: 0
field_of_view: 0.698131978512
min_range: 0.00999999977648
max_range: 3.0
range: 2.11312675476
---
header: 
  seq: 16155
  stamp: 
    secs: 2277
    nsecs: 365000000
  frame_id: "sonar_link"
radiation_type: 0
field_of_view: 0.698131978512
min_range: 0.00999999977648
max_range: 3.0
range: 2.12250256538
---
header: 
  seq: 16156
  stamp: 
    secs: 2277
    nsecs: 465000000
  frame_id: "sonar_link"
radiation_type: 0
field_of_view: 0.698131978512
min_range: 0.00999999977648
max_range: 3.0
range: 2.1311955452
---
header: 
  seq: 16157
  stamp: 
    secs: 2277
    nsecs: 565000000
  frame_id: "sonar_link"
radiation_type: 0
field_of_view: 0.698131978512
min_range: 0.00999999977648
max_range: 3.0
range: 2.13862967491
---
header: 
  seq: 16158
  stamp: 
    secs: 2277
    nsecs: 665000000
  frame_id: "sonar_link"
radiation_type: 0
field_of_view: 0.698131978512
min_range: 0.00999999977648
max_range: 3.0
range: 2.146068573
---
header: 
  seq: 16159
  stamp: 
    secs: 2277
    nsecs: 765000000
  frame_id: "sonar_link"
radiation_type: 0
field_of_view: 0.698131978512
min_range: 0.00999999977648
max_range: 3.0
range: 2.15413880348
---
header: 
  seq: 16160
  stamp: 
    secs: 2277
    nsecs: 865000000
  frame_id: "sonar_link"
radiation_type: 0
field_of_view: 0.698131978512
min_range: 0.00999999977648
max_range: 3.0
range: 2.16235685349
---
header: 
  seq: 16161
  stamp: 
    secs: 2277
    nsecs: 965000000
  frame_id: "sonar_link"
radiation_type: 0
field_of_view: 0.698131978512
min_range: 0.00999999977648
max_range: 3.0
range: 2.17049407959
---
header: 
  seq: 16162
  stamp: 
    secs: 2278
    nsecs:  65000000
  frame_id: "sonar_link"
radiation_type: 0
field_of_view: 0.698131978512
min_range: 0.00999999977648
max_range: 3.0
range: 2.17845797539
---
header: 
  seq: 16163
  stamp: 
    secs: 2278
    nsecs: 165000000
  frame_id: "sonar_link"
radiation_type: 0
field_of_view: 0.698131978512
min_range: 0.00999999977648
max_range: 3.0
range: 2.18622136116
---
header: 
  seq: 16164
  stamp: 
    secs: 2278
    nsecs: 265000000
  frame_id: "sonar_link"
radiation_type: 0
field_of_view: 0.698131978512
min_range: 0.00999999977648
max_range: 3.0
range: 2.19387459755
---
header: 
  seq: 16165
  stamp: 
    secs: 2278
    nsecs: 365000000
  frame_id: "sonar_link"
radiation_type: 0
field_of_view: 0.698131978512
min_range: 0.00999999977648
max_range: 3.0
range: 2.20121574402
---
header: 
  seq: 16166
  stamp: 
    secs: 2278
    nsecs: 465000000
  frame_id: "sonar_link"
radiation_type: 0
field_of_view: 0.698131978512
min_range: 0.00999999977648
max_range: 3.0
range: 2.20853209496
---
header: 
  seq: 16167
  stamp: 
    secs: 2278
    nsecs: 565000000
  frame_id: "sonar_link"
radiation_type: 0
field_of_view: 0.698131978512
min_range: 0.00999999977648
max_range: 3.0
range: 2.2157831192
---
header: 
  seq: 16168
  stamp: 
    secs: 2278
    nsecs: 665000000
  frame_id: "sonar_link"
radiation_type: 0
field_of_view: 0.698131978512
min_range: 0.00999999977648
max_range: 3.0
range: 2.22297310829
---
header: 
  seq: 16169
  stamp: 
    secs: 2278
    nsecs: 765000000
  frame_id: "sonar_link"
radiation_type: 0
field_of_view: 0.698131978512
min_range: 0.00999999977648
max_range: 3.0
range: 2.23013401031
---
header: 
  seq: 16170
  stamp: 
    secs: 2278
    nsecs: 865000000
  frame_id: "sonar_link"
radiation_type: 0
field_of_view: 0.698131978512
min_range: 0.00999999977648
max_range: 3.0
range: 2.23727488518
---
header: 
  seq: 16171
  stamp: 
    secs: 2278
    nsecs: 965000000
  frame_id: "sonar_link"
radiation_type: 0
field_of_view: 0.698131978512
min_range: 0.00999999977648
max_range: 3.0
range: 2.24439167976
---
header: 
  seq: 16172
  stamp: 
    secs: 2279
    nsecs:  65000000
  frame_id: "sonar_link"
radiation_type: 0
field_of_view: 0.698131978512
min_range: 0.00999999977648
max_range: 3.0
range: 2.25149154663
---
header: 
  seq: 16173
  stamp: 
    secs: 2279
    nsecs: 165000000
  frame_id: "sonar_link"
radiation_type: 0
field_of_view: 0.698131978512
min_range: 0.00999999977648
max_range: 3.0
range: 2.2586555481
---
header: 
  seq: 16174
  stamp: 
    secs: 2279
    nsecs: 265000000
  frame_id: "sonar_link"
radiation_type: 0
field_of_view: 0.698131978512
min_range: 0.00999999977648
max_range: 3.0
range: 2.26567459106
---
header: 
