header: 
  seq: 5
  stamp: 
    secs: 21712
    nsecs:  19000000
  frame_id: "world"
pose: 
  position: 
    x: 1.34830588649e-05
    y: -2.82000692096e-05
    z: 1.24938669614e-05
  orientation: 
    x: -1.39884014041e-05
    y: -8.55879807084e-06
    z: -3.69772214929e-06
    w: 0.999999999859
---
header: 
  seq: 6
  stamp: 
    secs: 21712
    nsecs: 254000000
  frame_id: "world"
pose: 
  position: 
    x: 7.19301751815e-05
    y: -3.88245825889e-06
    z: 4.63379401481e-05
  orientation: 
    x: -9.6499134e-06
    y: -3.20903017999e-05
    z: -2.64629088392e-05
    w: 0.999999999088
---
header: 
  seq: 7
  stamp: 
    secs: 21712
    nsecs: 621000000
  frame_id: "world"
pose: 
  position: 
    x: 5.71330929233e-05
    y: -5.19784407516e-05
    z: 3.62495520676e-05
  orientation: 
    x: -3.45171392471e-05
    y: -2.62874527556e-05
    z: -1.54438839509e-05
    w: 0.99999999894
---
header: 
  seq: 8
  stamp: 
    secs: 21712
    nsecs: 796000000
  frame_id: "world"
pose: 
  position: 
    x: 1.96307446458e-05
    y: 2.11724291148e-05
    z: 1.09443999463e-05
  orientation: 
    x: 5.38158792514e-06
    y: -9.92719196733e-06
    z: 3.29632462103e-06
    w: 0.999999999931
---
header: 
  seq: 9
  stamp: 
    secs: 21712
    nsecs: 997000000
  frame_id: "world"
pose: 
  position: 
    x: -1.84717209777e-05
    y: -1.03847351056e-05
    z: 1.7395526811e-05
  orientation: 
    x: -7.69058624378e-06
    y: 7.87005774276e-06
    z: -3.16491809806e-06
    w: 0.999999999934
---
header: 
  seq: 10
  stamp: 
    secs: 21713
    nsecs: 162000000
  frame_id: "world"
pose: 
  position: 
    x: 1.96391411009e-05
    y: 2.11739643419e-05
    z: 1.09566090032e-05
  orientation: 
    x: 5.38267249757e-06
    y: -9.92882178184e-06
    z: 3.29622662298e-06
    w: 0.999999999931
---
header: 
  seq: 11
  stamp: 
    secs: 21713
    nsecs: 318000000
  frame_id: "world"
pose: 
  position: 
    x: 1.96076944121e-05
    y: 2.11757396755e-05
    z: 1.09554657683e-05
  orientation: 
    x: 5.38426138482e-06
    y: -9.91536035076e-06
    z: 3.29603494697e-06
    w: 0.999999999931
---
header: 
  seq: 12
  stamp: 
    secs: 21713
    nsecs: 526000000
  frame_id: "world"
pose: 
  position: 
    x: 7.71726481616e-05
    y: -7.53301446821e-06
    z: 4.51292580692e-05
  orientation: 
    x: -1.05166400207e-05
    y: -3.51702619443e-05
    z: -2.71557873647e-05
    w: 0.999999998958
---
header: 
  seq: 13
  stamp: 
    secs: 21713
    nsecs: 873000000
  frame_id: "world"
pose: 
  position: 
    x: 3.59229597962e-05
    y: -8.15450985101e-05
    z: 3.3951986552e-05
  orientation: 
    x: -2.5148456165e-05
    y: -1.68651967966e-05
    z: -3.09446513421e-05
    w: 0.999999999063
---
header: 
  seq: 14
  stamp: 
    secs: 21714
    nsecs: 113000000
  frame_id: "world"
pose: 
  position: 
    x: 3.59335499525e-05
    y: -8.155163232e-05
    z: 3.39394864568e-05
  orientation: 
    x: -2.51510063882e-05
    y: -1.68697297182e-05
    z: -3.09452261427e-05
    w: 0.999999999063
---
header: 
  seq: 15
  stamp: 
    secs: 21714
    nsecs: 263000000
  frame_id: "world"
pose: 
  position: 
    x: 3.59079531336e-05
    y: -8.15565435914e-05
    z: 3.39309044648e-05
  orientation: 
    x: -2.51530891311e-05
    y: -1.68588557996e-05
    z: -3.09433962394e-05
    w: 0.999999999063
---
header: 
  seq: 16
  stamp: 
    secs: 21714
    nsecs: 620000000
  frame_id: "world"
pose: 
  position: 
    x: 2.12364629988e-05
    y: -4.45553814643e-06
    z: 1.54616827786e-05
  orientation: 
    x: -6.34267689682e-06
    y: -1.19356800484e-05
    z: 4.88488967625e-06
    w: 0.999999999897
---
header: 
  seq: 17
  stamp: 
    secs: 21714
    nsecs: 884000000
  frame_id: "world"
pose: 
  position: 
    x: -1.49098223119e-05
    y: -1.09789164071e-06
    z: -6.77344269207e-06
  orientation: 
    x: -6.14484633791e-07
    y: 7.68408062803e-06
    z: -1.04810324038e-05
    w: 0.999999999915
---
header: 
  seq: 18
  stamp: 
    secs: 21715
    nsecs: 107000000
  frame_id: "world"
pose: 
  position: 
    x: 4.75527012895e-05
    y: 2.16675880438e-06
    z: 4.79885020468e-05
  orientation: 
    x: -3.86233113707e-06
    y: -1.88148714899e-05
    z: -4.16623988274e-05
    w: 0.999999998948
---
header: 
  seq: 19
  stamp: 
    secs: 21715
    nsecs: 282000000
  frame_id: "world"
pose: 
  position: 
    x: 2.62171715804e-06
    y: -3.90976601921e-05
    z: 1.12413436e-05
  orientation: 
    x: -2.37613457846e-05
    y: 1.27290149887e-06
    z: -2.88331684513e-05
    w: 0.999999999301
---
header: 
  seq: 20
  stamp: 
    secs: 21715
    nsecs: 490000000
  frame_id: "world"
pose: 
  position: 
    x: -9.74786780716e-06
    y: -4.93892548548e-06
    z: 7.86876444181e-06
  orientation: 
    x: -3.37536971505e-06
    y: 4.06160552273e-06
    z: -1.07077357817e-05
    w: 0.999999999929
---
header: 
  seq: 21
  stamp: 
    secs: 21715
    nsecs: 745000000
  frame_id: "world"
pose: 
  position: 
    x: -9.76562478172e-06
    y: -4.02530531574e-06
    z: 1.52690590767e-05
  orientation: 
    x: -3.84696113519e-06
    y: 3.93352411242e-06
    z: -9.45210103908e-06
    w: 0.99999999994
---
header: 
  seq: 22
  stamp: 
    secs: 21716
    nsecs: 129000000
  frame_id: "world"
pose: 
  position: 
    x: -5.91516072745e-05
    y: -8.16411466076e-06
    z: -2.79021223832e-05
  orientation: 
    x: 2.47708862679e-06
    y: 3.03399792554e-05
    z: -2.01257062011e-05
    w: 0.999999999334
---
header: 
  seq: 23
  stamp: 
    secs: 21716
    nsecs: 568000000
  frame_id: "world"
pose: 
  position: 
    x: 8.06238313089e-05
    y: -1.58322309289e-05
    z: 5.20299108757e-05
  orientation: 
    x: -1.4598012951e-05
    y: -3.64223924001e-05
    z: -2.63068249912e-05
    w: 0.999999998884
---
header: 
  seq: 24
  stamp: 
    secs: 21716
    nsecs: 761000000
  frame_id: "world"
pose: 
  position: 
    x: -1.35661002787e-05
    y: -4.58494978375e-05
    z: 2.1181658667e-05
  orientation: 
    x: -2.65580456251e-05
    y: 9.71002099609e-06
    z: -2.92906970329e-05
    w: 0.999999999171
---
header: 
  seq: 25
  stamp: 
    secs: 21716
    nsecs: 984000000
  frame_id: "world"
pose: 
  position: 
    x: -1.02465737655e-05
    y: 9.17818033486e-06
    z: 1.03294241853e-05
  orientation: 
    x: 3.40536485034e-06
    y: 4.8559654712e-06
    z: -9.45838746643e-06
    w: 0.999999999938
---
header: 
  seq: 26
  stamp: 
    secs: 21717
    nsecs: 208000000
  frame_id: "world"
pose: 
  position: 
    x: -2.3620443244e-05
    y: -4.8318055633e-05
    z: 2.02682313102e-05
  orientation: 
    x: -2.81108386602e-05
    y: 1.37235501707e-05
    z: -2.72043198259e-05
    w: 0.999999999141
---
header: 
  seq: 27
  stamp: 
    secs: 21717
    nsecs: 506000000
  frame_id: "world"
pose: 
  position: 
    x: -1.66208355949e-05
    y: -4.28547400588e-06
    z: 6.68529264658e-06
  orientation: 
    x: -1.6788757192e-06
    y: 6.78892411032e-06
    z: -1.07974656194e-05
    w: 0.999999999917
---
header: 
  seq: 28
  stamp: 
    secs: 21717
    nsecs: 667000000
  frame_id: "world"
pose: 
  position: 
    x: -1.66208355949e-05
    y: -4.28547400588e-06
    z: 6.68529264658e-06
  orientation: 
    x: -1.6788757192e-06
    y: 6.78892411032e-06
    z: -1.07974656194e-05
    w: 0.999999999917
---
header: 
  seq: 29
  stamp: 
    secs: 21717
    nsecs: 921000000
  frame_id: "world"
pose: 
  position: 
    x: 5.443104601e-05
    y: -6.85334771333e-06
    z: 4.62598327431e-05
  orientation: 
    x: -9.81258652833e-06
    y: -2.14836490798e-05
    z: -4.41971860155e-05
    w: 0.999999998744
---
header: 
  seq: 30
  stamp: 
    secs: 21718
    nsecs: 202000000
  frame_id: "world"
pose: 
  position: 
    x: -1.78164682438e-05
    y: -3.49981769432e-06
    z: -5.32034209755e-06
  orientation: 
    x: -1.04510058909e-06
    y: 8.29079362959e-06
    z: -9.94719812213e-06
    w: 0.999999999916
---
header: 
  seq: 31
  stamp: 
    secs: 21718
    nsecs: 435000000
  frame_id: "world"
pose: 
  position: 
    x: -1.59529554367e-05
    y: -3.42723978974e-05
    z: 2.33753344219e-05
  orientation: 
    x: -2.15965464891e-05
    y: 9.15602867597e-06
    z: -2.73123768971e-05
    w: 0.999999999352
---
header: 
  seq: 32
  stamp: 
    secs: 21718
    nsecs: 726000000
  frame_id: "world"
pose: 
  position: 
    x: 3.93452273784e-06
    y: -5.10233512614e-05
    z: 2.1312649551e-05
  orientation: 
    x: -2.90350417097e-05
    y: 1.72485130032e-07
    z: -2.93520915625e-05
    w: 0.999999999148
---
header: 
  seq: 33
  stamp: 
    secs: 21718
    nsecs: 961000000
  frame_id: "world"
pose: 
  position: 
    x: -3.85182684113e-05
    y: -1.9787434212e-05
    z: -5.349445928e-06
  orientation: 
    x: -1.09330449022e-05
    y: 1.8064234605e-05
    z: -7.15280429908e-06
    w: 0.999999999751
---
header: 
  seq: 34
  stamp: 
    secs: 21719
    nsecs: 108000000
  frame_id: "world"
pose: 
  position: 
    x: -4.20656870119e-05
    y: 3.11027338284e-06
    z: -2.75915635939e-06
  orientation: 
    x: 1.53551218282e-06
    y: 1.9300703566e-05
    z: -9.50206412887e-06
    w: 0.999999999767
---
header: 
  seq: 35
  stamp: 
    secs: 21719
    nsecs: 345000000
  frame_id: "world"
pose: 
  position: 
    x: 2.32607635553e-05
    y: 1.85598019016e-05
    z: 2.87942166324e-05
  orientation: 
    x: 4.02194837012e-06
    y: -1.3914044755e-05
    z: 1.10386936267e-05
    w: 0.999999999834
---
header: 
  seq: 36
  stamp: 
    secs: 21719
    nsecs: 685000000
  frame_id: "world"
pose: 
  position: 
    x: 7.33369306545e-05
    y: 1.14423046398e-05
    z: 5.76908023504e-05
  orientation: 
    x: -1.56670171014e-06
    y: -3.22726627471e-05
    z: -4.23370219632e-05
    w: 0.999999998582
---
header: 
  seq: 37
  stamp: 
    secs: 21720
    nsecs:   4000000
  frame_id: "world"
pose: 
  position: 
    x: 6.88254513079e-05
    y: -8.03577131592e-05
    z: 5.3494124586e-05
  orientation: 
    x: -4.71873462698e-05
    y: -3.49876244685e-05
    z: -1.06854695142e-05
    w: 0.999999998218
---
header: 
  seq: 38
  stamp: 
    secs: 21720
    nsecs: 148000000
  frame_id: "world"
pose: 
  position: 
    x: 6.88475265633e-05
    y: -8.03527073003e-05
    z: 5.34910104761e-05
  orientation: 
    x: -4.7185068895e-05
    y: -3.49977234977e-05
    z: -1.06862780549e-05
    w: 0.999999998217
---
header: 
  seq: 39
  stamp: 
    secs: 21720
    nsecs: 468000000
  frame_id: "world"
pose: 
  position: 
    x: 8.52666344144e-05
    y: -9.490663615e-06
    z: 6.04622509854e-05
  orientation: 
    x: -1.17945100872e-05
    y: -3.9870508725e-05
    z: -2.4899783937e-05
    w: 0.999999998826
---
header: 
  seq: 40
  stamp: 
    secs: 21720
    nsecs: 666000000
  frame_id: "world"
pose: 
  position: 
    x: 8.52829325595e-05
    y: -9.48903380049e-06
    z: 6.04371052759e-05
  orientation: 
    x: -1.17934905436e-05
    y: -3.98783558453e-05
    z: -2.49007170786e-05
    w: 0.999999998825
---
header: 
  seq: 41
  stamp: 
    secs: 21720
    nsecs: 875000000
  frame_id: "world"
pose: 
  position: 
    x: -1.96433084056e-05
    y: 7.42446945878e-06
    z: 6.6121015152e-06
  orientation: 
    x: 4.01133638629e-06
    y: 9.05479737339e-06
    z: -7.8897892302e-06
    w: 0.99999999992
---
header: 
  seq: 42
  stamp: 
    secs: 21721
    nsecs:   4000000
  frame_id: "world"
pose: 
  position: 
    x: -1.38054576837e-06
    y: -2.18266563934e-06
    z: 8.62976594362e-06
  orientation: 
    x: -1.0801282002e-07
    y: 5.13106215285e-07
    z: -5.90352783537e-06
    w: 0.999999999982
---
header: 
  seq: 43
  stamp: 
    secs: 21721
    nsecs: 158000000
  frame_id: "world"
pose: 
  position: 
    x: 8.89576404006e-05
    y: -2.29635134019e-05
    z: 5.94586672378e-05
  orientation: 
    x: -1.86320921532e-05
    y: -4.14602617987e-05
    z: -2.52820627451e-05
    w: 0.999999998647
---
header: 
  seq: 44
  stamp: 
    secs: 21721
    nsecs: 439000000
  frame_id: "world"
pose: 
  position: 
    x: -3.71162641386e-05
    y: 4.291204732e-06
    z: 8.70712119649e-06
  orientation: 
    x: 2.02126443547e-06
    y: 1.74329616098e-05
    z: -6.87069768779e-06
    w: 0.999999999822
---
header: 
  seq: 45
  stamp: 
    secs: 21721
    nsecs: 707000000
  frame_id: "world"
pose: 
  position: 
    x: 8.51792428875e-05
    y: 2.79931118712e-05
    z: 6.49335124763e-05
  orientation: 
    x: 6.97569293008e-06
    y: -3.88571096987e-05
    z: -3.82206707732e-05
    w: 0.99999999849
---
header: 
  seq: 46
  stamp: 
    secs: 21722
    nsecs:  42000000
  frame_id: "world"
pose: 
  position: 
    x: -1.52210095621e-05
    y: 1.07871665023e-05
    z: 1.97297395061e-05
  orientation: 
    x: 6.52386097462e-06
    y: 6.56614747603e-06
    z: -5.32522881228e-06
    w: 0.999999999943
---
header: 
  seq: 47
  stamp: 
    secs: 21722
    nsecs: 396000000
  frame_id: "world"
pose: 
  position: 
    x: -1.53552246047e-05
    y: 4.91100445288e-06
    z: 1.78213667823e-05
  orientation: 
    x: 3.72195859183e-06
    y: 6.61800731875e-06
    z: -5.58029387296e-06
    w: 0.999999999956
---
header: 
  seq: 48
  stamp: 
    secs: 21722
    nsecs: 577000000
  frame_id: "world"
pose: 
  position: 
    x: 9.58624441409e-05
    y: 2.77388044196e-05
    z: 6.10030947428e-05
  orientation: 
    x: 6.86994052273e-06
    y: -4.21268340865e-05
    z: -4.06671642143e-05
    w: 0.999999998262
---
header: 
  seq: 49
  stamp: 
    secs: 21722
    nsecs: 764000000
  frame_id: "world"
pose: 
  position: 
    x: 4.82723999085e-06
    y: -5.31600453542e-05
    z: 2.47231218964e-05
  orientation: 
    x: -3.134955111e-05
    y: -1.36965411342e-06
    z: -2.64076970557e-05
    w: 0.999999999159
---
header: 
  seq: 50
  stamp: 
    secs: 21722
    nsecs: 977000000
  frame_id: "world"
pose: 
  position: 
    x: 4.85878763357e-06
    y: -5.31559198862e-05
    z: 2.47498828685e-05
  orientation: 
    x: -3.13475356698e-05
    y: -1.38502843922e-06
    z: -2.64079717231e-05
    w: 0.999999999159
---
header: 
  seq: 51
  stamp: 
    secs: 21723
    nsecs: 157000000
  frame_id: "world"
pose: 
  position: 
    x: 4.0930481191e-06
    y: -4.92887702421e-05
    z: 2.5604669645e-05
  orientation: 
    x: -2.93344328156e-05
    y: -1.39839175864e-06
    z: -2.62681896653e-05
    w: 0.999999999224
---
header: 
  seq: 52
  stamp: 
    secs: 21723
    nsecs: 339000000
  frame_id: "world"
pose: 
  position: 
    x: 9.76833907771e-05
    y: 3.22254782077e-05
    z: 7.82313436503e-05
  orientation: 
    x: 9.06943203822e-06
    y: -4.5070708363e-05
    z: -3.50123227106e-05
    w: 0.99999999833
---
header: 
  seq: 53
  stamp: 
    secs: 21723
    nsecs: 587000000
  frame_id: "world"
pose: 
  position: 
    x: -3.72058566427e-05
    y: 1.66961472132e-05
    z: 1.44588912008e-05
  orientation: 
    x: 7.89883870185e-06
    y: 1.54117533359e-05
    z: -4.52457470529e-06
    w: 0.99999999984
---
header: 
  seq: 54
  stamp: 
    secs: 21723
    nsecs: 894000000
  frame_id: "world"
pose: 
  position: 
    x: 2.63547826762e-05
    y: 2.15983709495e-05
    z: 1.61673488037e-05
  orientation: 
    x: 7.46385966677e-06
    y: -1.03954443952e-05
    z: -4.31230618706e-05
    w: 0.999999998988
---
header: 
  seq: 55
  stamp: 
    secs: 21724
    nsecs: 220000000
  frame_id: "world"
pose: 
  position: 
    x: -5.82632928854e-05
    y: -9.24317373574e-06
    z: -2.96847720165e-05
  orientation: 
    x: 2.73470322807e-06
    y: 3.06814726856e-05
    z: -2.29492052143e-05
    w: 0.999999999262
---
header: 
  seq: 56
  stamp: 
    secs: 21724
    nsecs: 571000000
  frame_id: "world"
pose: 
  position: 
    x: -1.41820182762e-05
    y: 1.00778015621e-05
    z: -5.1578563216e-06
  orientation: 
    x: 8.92798561783e-06
    y: 5.04087438428e-06
    z: -3.55299584932e-06
    w: 0.999999999941
---
header: 
  seq: 57
  stamp: 
    secs: 21724
    nsecs: 758000000
  frame_id: "world"
pose: 
  position: 
    x: 3.96682189603e-05
    y: 3.57060271199e-05
    z: 3.32848358084e-05
  orientation: 
    x: 1.92140541674e-05
    y: -1.6463334739e-05
    z: -4.2946747218e-05
    w: 0.999999998758
---
header: 
  seq: 58
  stamp: 
    secs: 21724
    nsecs: 953000000
  frame_id: "world"
pose: 
  position: 
    x: 8.1846723333e-05
    y: 4.30226136814e-05
    z: 6.63598329993e-05
  orientation: 
    x: 1.44288332878e-05
    y: -3.63991311474e-05
    z: -3.98775845784e-05
    w: 0.999999998438
---
header: 
  seq: 59
  stamp: 
    secs: 21725
    nsecs: 158000000
  frame_id: "world"
pose: 
  position: 
    x: 7.40290852264e-05
    y: -8.22131114546e-05
    z: 4.87006509502e-05
  orientation: 
    x: -4.98812622851e-05
    y: -3.71112618437e-05
    z: -1.11857152437e-05
    w: 0.999999998005
---
header: 
  seq: 60
  stamp: 
    secs: 21725
    nsecs: 378000000
  frame_id: "world"
pose: 
  position: 
    x: -4.33074965258e-05
    y: -1.85762455658e-05
    z: -3.2433479646e-05
  orientation: 
    x: -3.48264599192e-08
    y: 2.31732101257e-05
    z: -2.3496024356e-05
    w: 0.999999999455
---
header: 
  seq: 61
  stamp: 
    secs: 21725
    nsecs: 652000000
  frame_id: "world"
pose: 
  position: 
    x: 5.17415792274e-05
    y: 8.9549639597e-06
    z: 1.86665947695e-05
  orientation: 
    x: 5.90953231232e-06
    y: -2.22100061095e-05
    z: -4.35781548202e-05
    w: 0.999999998786
---
header: 
  seq: 62
  stamp: 
    secs: 21725
    nsecs: 794000000
  frame_id: "world"
pose: 
  position: 
    x: 5.17415792274e-05
    y: 8.9549639597e-06
    z: 1.86665947695e-05
  orientation: 
    x: 5.90953231232e-06
    y: -2.22100061095e-05
    z: -4.35781548202e-05
    w: 0.999999998786
---
header: 
  seq: 63
  stamp: 
    secs: 21726
    nsecs:  10000000
  frame_id: "world"
pose: 
  position: 
    x: 5.17415792274e-05
    y: 8.9549639597e-06
    z: 1.86665947695e-05
  orientation: 
    x: 5.90953231232e-06
    y: -2.22100061095e-05
    z: -4.35781548202e-05
    w: 0.999999998786
---
header: 
  seq: 64
  stamp: 
    secs: 21726
    nsecs: 238000000
  frame_id: "world"
pose: 
  position: 
    x: 5.17415792274e-05
    y: 8.9549639597e-06
    z: 1.86665947695e-05
  orientation: 
    x: 5.90953231232e-06
    y: -2.22100061095e-05
    z: -4.35781548202e-05
    w: 0.999999998786
---
header: 
  seq: 65
  stamp: 
    secs: 21726
    nsecs: 578000000
  frame_id: "world"
pose: 
  position: 
    x: -2.84734651359e-05
    y: -3.32910094585e-05
    z: 2.16957687371e-06
  orientation: 
    x: -1.47639366295e-05
    y: 1.49517363714e-05
    z: -8.00377165231e-06
    w: 0.999999999747
---
header: 
  seq: 66
  stamp: 
    secs: 21726
    nsecs: 905000000
  frame_id: "world"
pose: 
  position: 
    x: -2.49777167483e-05
    y: 4.43171302322e-06
    z: -6.58813132759e-06
  orientation: 
    x: 5.01027170652e-06
    y: 9.41938651461e-06
    z: -4.04891625268e-06
    w: 0.999999999935
---
header: 
  seq: 67
  stamp: 
    secs: 21727
    nsecs: 260000000
  frame_id: "world"
pose: 
  position: 
    x: -1.0914214954e-06
    y: 3.79418270313e-05
    z: 1.55731722771e-05
  orientation: 
    x: 1.99693131227e-05
    y: 4.28963630392e-06
    z: -4.08275117963e-05
    w: 0.999999998958
---
header: 
  seq: 68
  stamp: 
    secs: 21727
    nsecs: 625000000
  frame_id: "world"
pose: 
  position: 
    x: -3.60393496521e-05
    y: -1.81212290045e-05
    z: -4.38754841525e-06
  orientation: 
    x: -5.20042385608e-06
    y: 1.53938690322e-05
    z: -6.42255235918e-06
    w: 0.999999999847
---
header: 
  seq: 69
  stamp: 
    secs: 21727
    nsecs: 933000000
  frame_id: "world"
pose: 
  position: 
    x: 0.000630471680779
    y: -0.0196087025106
    z: 0.000250639626756
  orientation: 
    x: -0.0157032848479
    y: -0.000213651506815
    z: -0.000154141261318
    w: 0.999876661113
---
header: 
  seq: 70
  stamp: 
    secs: 21728
    nsecs: 225000000
  frame_id: "world"
pose: 
  position: 
    x: -0.00642352597788
    y: 0.00178056431469
    z: -0.0111402561888
  orientation: 
    x: 0.023343986823
    y: 0.00442424398729
    z: -0.0094130687351
    w: 0.999673385902
---
header: 
  seq: 71
  stamp: 
    secs: 21728
    nsecs: 629000000
  frame_id: "world"
pose: 
  position: 
    x: -0.0279151145369
    y: -0.0544620007277
    z: -0.0320693738759
  orientation: 
    x: -0.0074352914009
    y: 0.0119569532201
    z: 0.0135666036305
    w: 0.999808829216
---
header: 
  seq: 72
  stamp: 
    secs: 21729
    nsecs: 185000000
  frame_id: "world"
pose: 
  position: 
    x: -0.0924496650696
    y: -0.0817930921912
    z: -0.0667047724128
  orientation: 
    x: 0.00215911901336
    y: 0.0389454308648
    z: 0.0291326758302
    w: 0.998814236392
---
header: 
  seq: 73
  stamp: 
    secs: 21729
    nsecs: 360000000
  frame_id: "world"
pose: 
  position: 
    x: -0.140237122774
    y: -0.0930323302746
    z: -0.0813130289316
  orientation: 
    x: 0.0011241853486
    y: 0.0592544055125
    z: 0.0322660716382
    w: 0.997720678475
---
header: 
  seq: 74
  stamp: 
    secs: 21729
    nsecs: 550000000
  frame_id: "world"
pose: 
  position: 
    x: -0.164789825678
    y: -0.110993109643
    z: -0.0739879980683
  orientation: 
    x: -0.0061023564856
    y: 0.0705320748072
    z: 0.0373576798356
    w: 0.996791047023
---
header: 
  seq: 75
  stamp: 
    secs: 21729
    nsecs: 718000000
  frame_id: "world"
pose: 
  position: 
    x: -0.159755602479
    y: -0.106763593853
    z: -0.081695728004
  orientation: 
    x: -0.0035464489464
    y: 0.0680626418066
    z: 0.0372843413011
    w: 0.996977821912
---
header: 
  seq: 76
  stamp: 
    secs: 21729
    nsecs: 922000000
  frame_id: "world"
pose: 
  position: 
    x: -0.177822783589
    y: -0.122329428792
    z: -0.0878898352385
  orientation: 
    x: -0.00867052259459
    y: 0.0757238769712
    z: 0.0380745855006
    w: 0.996363910644
---
header: 
  seq: 77
  stamp: 
    secs: 21730
    nsecs: 116000000
  frame_id: "world"
pose: 
  position: 
    x: -0.214065596461
    y: -0.117742396891
    z: -0.0876934081316
  orientation: 
    x: -0.00517257592368
    y: 0.0914044613546
    z: 0.0377937081541
    w: 0.99508296364
---
header: 
  seq: 78
  stamp: 
    secs: 21730
    nsecs: 585000000
  frame_id: "world"
pose: 
  position: 
    x: -0.215385049582
    y: -0.117891736329
    z: -0.0961581468582
  orientation: 
    x: -0.00499320640353
    y: 0.0914447901615
    z: 0.0372935763085
    w: 0.995099044019
---
header: 
  seq: 79
  stamp: 
    secs: 21731
    nsecs: 229000000
  frame_id: "world"
pose: 
  position: 
    x: -0.215290889144
    y: -0.117936529219
    z: -0.0962928384542
  orientation: 
    x: -0.00496833703107
    y: 0.0914894600313
    z: 0.0373246355373
    w: 0.995093898038
---
header: 
  seq: 80
  stamp: 
    secs: 21731
    nsecs: 686000000
  frame_id: "world"
pose: 
  position: 
    x: -0.21733738482
    y: -0.128245085478
    z: -0.0988868102431
  orientation: 
    x: -0.00895266125127
    y: 0.0926018563608
    z: 0.0362224162353
    w: 0.995003860604
---
header: 
  seq: 81
  stamp: 
    secs: 21732
    nsecs:  19000000
  frame_id: "world"
pose: 
  position: 
    x: -0.211683511734
    y: -0.138956874609
    z: -0.107974864542
  orientation: 
    x: -0.0131729846006
    y: 0.0887548222356
    z: 0.0353609050546
    w: 0.995338465247
---
header: 
  seq: 82
  stamp: 
    secs: 21732
    nsecs: 192000000
  frame_id: "world"
pose: 
  position: 
    x: -0.210094720125
    y: -0.135875940323
    z: -0.0930419042706
  orientation: 
    x: -0.012644543646
    y: 0.0890712397902
    z: 0.0415380875499
    w: 0.995078397435
---
header: 
  seq: 83
  stamp: 
    secs: 21732
    nsecs: 426000000
  frame_id: "world"
pose: 
  position: 
    x: -0.209718778729
    y: -0.13780477643
    z: -0.0987314209342
  orientation: 
    x: -0.0128963342073
    y: 0.0889694355074
    z: 0.0411125366893
    w: 0.995101946253
---
header: 
  seq: 84
  stamp: 
    secs: 21732
    nsecs: 798000000
  frame_id: "world"
pose: 
  position: 
    x: -0.202926009893
    y: -0.151655599475
    z: -0.11212118715
  orientation: 
    x: -0.0187732490726
    y: 0.0861657653385
    z: 0.0401879858418
    w: 0.995292897491
---
header: 
  seq: 85
  stamp: 
    secs: 21733
    nsecs: 178000000
  frame_id: "world"
pose: 
  position: 
    x: -0.208365932107
    y: -0.151687130332
    z: -0.123660713434
  orientation: 
    x: -0.0149446382407
    y: 0.0887517061042
    z: 0.0437984368127
    w: 0.994978135129
---
header: 
  seq: 86
  stamp: 
    secs: 21733
    nsecs: 652000000
  frame_id: "world"
pose: 
  position: 
    x: -0.217418134212
    y: -0.135252460837
    z: -0.11812017858
  orientation: 
    x: -0.0079885290478
    y: 0.0923079225432
    z: 0.0396537918256
    w: 0.994908542346
---
header: 
  seq: 87
  stamp: 
    secs: 21733
    nsecs: 847000000
  frame_id: "world"
pose: 
  position: 
    x: -0.220070287585
    y: -0.139102190733
    z: -0.130563691258
  orientation: 
    x: -0.00596413630668
    y: 0.0924184485298
    z: 0.0398228248995
    w: 0.994905725215
---
header: 
  seq: 88
  stamp: 
    secs: 21734
    nsecs:  42000000
  frame_id: "world"
pose: 
  position: 
    x: -0.216877728701
    y: -0.141236945987
    z: -0.118612632155
  orientation: 
    x: -0.00408206444606
    y: 0.0923647172914
    z: 0.0431682263862
    w: 0.994780679336
---
header: 
  seq: 89
  stamp: 
    secs: 21734
    nsecs: 231000000
  frame_id: "world"
pose: 
  position: 
    x: -0.221374467015
    y: -0.117033608258
    z: -0.107251152396
  orientation: 
    x: 0.00820153926191
    y: 0.0933160156853
    z: 0.0460989386438
    w: 0.994534938464
---
header: 
  seq: 90
  stamp: 
    secs: 21734
    nsecs: 429000000
  frame_id: "world"
pose: 
  position: 
    x: -0.227224066854
    y: -0.0994202271104
    z: -0.0803890302777
  orientation: 
    x: 0.0116087133181
    y: 0.0979599726081
    z: 0.05677957383
    w: 0.993501465292
---
header: 
  seq: 91
  stamp: 
    secs: 21734
    nsecs: 705000000
  frame_id: "world"
pose: 
  position: 
    x: -0.248275488615
    y: -0.0935726687312
    z: -0.0847823768854
  orientation: 
    x: 0.0177382070026
    y: 0.104221456317
    z: 0.0496747498173
    w: 0.993154400527
---
header: 
  seq: 92
  stamp: 
    secs: 21735
    nsecs:  51000000
  frame_id: "world"
pose: 
  position: 
    x: -0.272271454334
    y: -0.103524848819
    z: -0.106743350625
  orientation: 
    x: 0.0138558884529
    y: 0.11130984825
    z: 0.0591477188074
    w: 0.991927255094
---
header: 
  seq: 93
  stamp: 
    secs: 21735
    nsecs: 380000000
  frame_id: "world"
pose: 
  position: 
    x: -0.275122851133
    y: -0.103189326823
    z: -0.109987154603
  orientation: 
    x: 0.0144522198041
    y: 0.109984307441
    z: 0.0659838834127
    w: 0.9916353728
---
header: 
  seq: 94
  stamp: 
    secs: 21735
    nsecs: 713000000
  frame_id: "world"
pose: 
  position: 
    x: -0.280047893524
    y: -0.106591850519
    z: -0.128890708089
  orientation: 
    x: 0.0172312704367
    y: 0.10939625502
    z: 0.0659099733812
    w: 0.991660939089
---
header: 
  seq: 95
  stamp: 
    secs: 21736
    nsecs: 120000000
  frame_id: "world"
pose: 
  position: 
    x: -0.286965429783
    y: -0.125391751528
    z: -0.136108368635
  orientation: 
    x: 0.00983261678673
    y: 0.112528181322
    z: 0.0607838251427
    w: 0.991738904479
---
header: 
  seq: 96
  stamp: 
    secs: 21736
    nsecs: 308000000
  frame_id: "world"
pose: 
  position: 
    x: -0.306194931269
    y: -0.124076105654
    z: -0.152661412954
  orientation: 
    x: 0.0121298577843
    y: 0.118751634193
    z: 0.0597101991439
    w: 0.991052777628
---
header: 
  seq: 97
  stamp: 
    secs: 21736
    nsecs: 492000000
  frame_id: "world"
pose: 
  position: 
    x: -0.319205462933
    y: -0.116143673658
    z: -0.17354772985
  orientation: 
    x: 0.0145702149961
    y: 0.120282271514
    z: 0.0600323014061
    w: 0.990815828892
---
header: 
  seq: 98
  stamp: 
    secs: 21736
    nsecs: 654000000
  frame_id: "world"
pose: 
  position: 
    x: -0.328134864569
    y: -0.118733435869
    z: -0.175314366817
  orientation: 
    x: 0.0157821881301
    y: 0.1227824426
    z: 0.0604393537794
    w: 0.990465788829
---
header: 
  seq: 99
  stamp: 
    secs: 21736
    nsecs: 844000000
  frame_id: "world"
pose: 
  position: 
    x: -0.375254690647
    y: -0.135566517711
    z: -0.186425492167
  orientation: 
    x: 0.0105895559027
    y: 0.138388500473
    z: 0.0590056631636
    w: 0.988561993988
---
header: 
  seq: 100
  stamp: 
    secs: 21737
    nsecs:  85000000
  frame_id: "world"
pose: 
  position: 
    x: -0.377604544163
    y: -0.137062638998
    z: -0.189543485641
  orientation: 
    x: 0.0112662013785
    y: 0.137803177651
    z: 0.0595809723979
    w: 0.988601772537
---
header: 
  seq: 101
  stamp: 
    secs: 21737
    nsecs: 479000000
  frame_id: "world"
pose: 
  position: 
    x: -0.378374457359
    y: -0.137901678681
    z: -0.19338054955
  orientation: 
    x: 0.011520672601
    y: 0.137822717565
    z: 0.0565135665801
    w: 0.988776207955
---
header: 
  seq: 102
  stamp: 
    secs: 21737
    nsecs: 860000000
  frame_id: "world"
pose: 
  position: 
    x: -0.382762521505
    y: -0.14126843214
    z: -0.202986583114
  orientation: 
    x: 0.0127394820647
    y: 0.137116146151
    z: 0.0527685757675
    w: 0.989066400942
---
header: 
  seq: 103
  stamp: 
    secs: 21738
    nsecs: 228000000
  frame_id: "world"
pose: 
  position: 
    x: -0.438812166452
    y: -0.196329683065
    z: -0.252750992775
  orientation: 
    x: -0.00367473744933
    y: 0.16275787525
    z: 0.0509697166984
    w: 0.985341797717
---
header: 
  seq: 104
  stamp: 
    secs: 21738
    nsecs: 536000000
  frame_id: "world"
pose: 
  position: 
    x: -0.399055987597
    y: -0.194962531328
    z: -0.208757147193
  orientation: 
    x: 0.00135878422005
    y: 0.155047336534
    z: 0.0460925010941
    w: 0.986830258191
---
header: 
  seq: 105
  stamp: 
    secs: 21738
    nsecs: 730000000
  frame_id: "world"
pose: 
  position: 
    x: -0.396595627069
    y: -0.19177184999
    z: -0.197876960039
  orientation: 
    x: 0.00162979684632
    y: 0.15588635926
    z: 0.0452874131473
    w: 0.986734937544
---
header: 
  seq: 106
  stamp: 
    secs: 21738
    nsecs: 905000000
  frame_id: "world"
pose: 
  position: 
    x: -0.409942388535
    y: -0.224881470203
    z: -0.179075747728
  orientation: 
    x: -0.0137479183866
    y: 0.166630152102
    z: 0.0433430231511
    w: 0.984970440924
---
header: 
  seq: 107
  stamp: 
    secs: 21739
    nsecs:  83000000
  frame_id: "world"
pose: 
  position: 
    x: -0.418628245592
    y: -0.214045375586
    z: -0.170423418283
  orientation: 
    x: -0.00893978936602
    y: 0.171320418844
    z: 0.0399597350862
    w: 0.984364065692
---
header: 
  seq: 108
  stamp: 
    secs: 21739
    nsecs: 266000000
  frame_id: "world"
pose: 
  position: 
    x: -0.463950484991
    y: -0.234685152769
    z: -0.167522266507
  orientation: 
    x: -0.0159079032267
    y: 0.188124005208
    z: 0.0381817199885
    w: 0.981273893232
---
header: 
  seq: 109
  stamp: 
    secs: 21739
    nsecs: 564000000
  frame_id: "world"
pose: 
  position: 
    x: -0.456889003515
    y: -0.239899411798
    z: -0.165849044919
  orientation: 
    x: -0.0181715294912
    y: 0.190075121679
    z: 0.0366338029774
    w: 0.980917533799
---
header: 
  seq: 110
  stamp: 
    secs: 21739
    nsecs: 877000000
  frame_id: "world"
pose: 
  position: 
    x: -0.472021400928
    y: -0.224931016564
    z: -0.154389813542
  orientation: 
    x: -0.0110323777356
    y: 0.197801833148
    z: 0.0377143043322
    w: 0.979454109539
---
header: 
  seq: 111
  stamp: 
    secs: 21740
    nsecs: 209000000
  frame_id: "world"
pose: 
  position: 
    x: -0.463069736958
    y: -0.227923154831
    z: -0.152426451445
  orientation: 
    x: -0.00924456080245
    y: 0.1993762468
    z: 0.0377636945588
    w: 0.979151445733
---
header: 
  seq: 112
  stamp: 
    secs: 21740
    nsecs: 739000000
  frame_id: "world"
pose: 
  position: 
    x: -0.457924991846
    y: -0.230701655149
    z: -0.145619943738
  orientation: 
    x: -0.0073634430125
    y: 0.199008264331
    z: 0.0340325820795
    w: 0.979379024582
---
header: 
  seq: 113
  stamp: 
    secs: 21740
    nsecs: 931000000
  frame_id: "world"
pose: 
  position: 
    x: -0.451571702957
    y: -0.287756592035
    z: -0.0911816880107
  orientation: 
    x: -0.0324746701235
    y: 0.211801228066
    z: 0.0316240820516
    w: 0.976261006609
---
header: 
  seq: 114
  stamp: 
    secs: 21741
    nsecs: 137000000
  frame_id: "world"
pose: 
  position: 
    x: -0.47762542963
    y: -0.329364955425
    z: -0.109763160348
  orientation: 
    x: -0.0460931166285
    y: 0.222699250803
    z: 0.026150118096
    w: 0.973445755867
---
header: 
  seq: 115
  stamp: 
    secs: 21741
    nsecs: 328000000
  frame_id: "world"
pose: 
  position: 
    x: -0.490369528532
    y: -0.316502034664
    z: -0.0828287005424
  orientation: 
    x: -0.0382803528501
    y: 0.23314215182
    z: 0.0276383067691
    w: 0.971295771446
---
header: 
  seq: 116
  stamp: 
    secs: 21741
    nsecs: 501000000
  frame_id: "world"
pose: 
  position: 
    x: -0.43861168623
    y: -0.288222134113
    z: -0.102576076984
  orientation: 
    x: -0.0255219594938
    y: 0.2130143144
    z: 0.0316643185725
    w: 0.976202285581
---
header: 
  seq: 117
  stamp: 
    secs: 21741
    nsecs: 730000000
  frame_id: "world"
pose: 
  position: 
    x: -0.438600242138
    y: -0.288210660219
    z: -0.102545939386
  orientation: 
    x: -0.0255218301006
    y: 0.213013874999
    z: 0.0316867735409
    w: 0.976201656231
---
header: 
  seq: 118
  stamp: 
    secs: 21742
    nsecs: 309000000
  frame_id: "world"
pose: 
  position: 
    x: -0.464805901051
    y: -0.293957799673
    z: -0.0831538587809
  orientation: 
    x: -0.0290868769857
    y: 0.227332729005
    z: 0.0288023393277
    w: 0.972956427164
---
header: 
  seq: 119
  stamp: 
    secs: 21742
    nsecs: 840000000
  frame_id: "world"
pose: 
  position: 
    x: -0.410333186388
    y: -0.382266312838
    z: -0.127620995045
  orientation: 
    x: -0.0613516617986
    y: 0.207210263885
    z: 0.0416459796297
    w: 0.975482184623
---
header: 
  seq: 120
  stamp: 
    secs: 21743
    nsecs:  23000000
  frame_id: "world"
pose: 
  position: 
    x: -0.414003223181
    y: -0.390028446913
    z: -0.126140445471
  orientation: 
    x: -0.0642757124007
    y: 0.210186796447
    z: 0.0350879247923
    w: 0.974914858297
---
header: 
  seq: 121
  stamp: 
    secs: 21743
    nsecs: 203000000
  frame_id: "world"
pose: 
  position: 
    x: -0.398148477077
    y: -0.361745089293
    z: -0.140543669462
  orientation: 
    x: -0.0538549906506
    y: 0.201907858812
    z: 0.0404408210104
    w: 0.977086176613
---
header: 
  seq: 122
  stamp: 
    secs: 21743
    nsecs: 388000000
  frame_id: "world"
pose: 
  position: 
    x: -0.370178192854
    y: -0.446420550346
    z: -0.187228277326
  orientation: 
    x: -0.0825155526397
    y: 0.189386099576
    z: 0.0382697097956
    w: 0.977680683133
---
header: 
  seq: 123
  stamp: 
    secs: 21743
    nsecs: 588000000
  frame_id: "world"
pose: 
  position: 
    x: -0.474627822638
    y: -0.630664885044
    z: -0.05111400038
  orientation: 
    x: -0.169612459176
    y: 0.237771872234
    z: 0.00947210985563
    w: 0.956350578816
---
header: 
  seq: 124
  stamp: 
    secs: 21743
    nsecs: 866000000
  frame_id: "world"
pose: 
  position: 
    x: -0.498572468758
    y: -0.762604296207
    z: 0.0276910588145
  orientation: 
    x: -0.231377288572
    y: 0.248685537518
    z: -0.0126816929463
    w: 0.940456925344
---
header: 
  seq: 125
  stamp: 
    secs: 21744
    nsecs: 307000000
  frame_id: "world"
pose: 
  position: 
    x: -0.526318848133
    y: -0.744345366955
    z: 0.066767603159
  orientation: 
    x: -0.231014703727
    y: 0.266142135639
    z: -0.00974875709582
    w: 0.935791393439
---
header: 
  seq: 126
  stamp: 
    secs: 21744
    nsecs: 663000000
  frame_id: "world"
pose: 
  position: 
    x: -0.541566073895
    y: -0.743644058704
    z: 0.0729050040245
  orientation: 
    x: -0.233696619448
    y: 0.273889177917
    z: -0.0227254605463
    w: 0.932659724509
---
header: 
  seq: 127
  stamp: 
    secs: 21745
    nsecs: 104000000
  frame_id: "world"
pose: 
  position: 
    x: -0.564311921597
    y: -0.635881721973
    z: 0.0115504860878
  orientation: 
    x: -0.18291368367
    y: 0.282412011335
    z: -0.0174362131111
    w: 0.941531740651
---
header: 
  seq: 128
  stamp: 
    secs: 21745
    nsecs: 302000000
  frame_id: "world"
pose: 
  position: 
    x: -0.555731117725
    y: -0.633486330509
    z: 0.0151496008039
  orientation: 
    x: -0.184930098674
    y: 0.282125141592
    z: -0.0219312195657
    w: 0.941129791631
---
header: 
  seq: 129
  stamp: 
    secs: 21745
    nsecs: 493000000
  frame_id: "world"
pose: 
  position: 
    x: -0.522571861744
    y: -0.666056513786
    z: 0.0261900350451
  orientation: 
    x: -0.201031894644
    y: 0.272030533919
    z: -0.0252722335565
    w: 0.940716152813
---
header: 
  seq: 130
  stamp: 
    secs: 21745
    nsecs: 689000000
  frame_id: "world"
pose: 
  position: 
    x: -0.438579112291
    y: -0.622080087662
    z: -0.0585335046053
  orientation: 
    x: -0.167875313511
    y: 0.238004690548
    z: 0.000310781662268
    w: 0.956645989803
---
header: 
  seq: 131
  stamp: 
    secs: 21745
    nsecs: 882000000
  frame_id: "world"
pose: 
  position: 
    x: -0.449953854084
    y: -0.547030746937
    z: -0.0778506845236
  orientation: 
    x: -0.136254059807
    y: 0.24533347046
    z: 0.00689926494543
    w: 0.959790977037
---
header: 
  seq: 132
  stamp: 
    secs: 21746
    nsecs: 116000000
  frame_id: "world"
pose: 
  position: 
    x: -0.373424828053
    y: -0.619529008865
    z: -0.0430415831506
  orientation: 
    x: -0.171113247479
    y: 0.219923772736
    z: -0.00314189507463
    w: 0.960387379768
---
header: 
  seq: 133
  stamp: 
    secs: 21746
    nsecs: 490000000
  frame_id: "world"
pose: 
  position: 
    x: -0.336154788733
    y: -0.628231823444
    z: -0.0440327338874
  orientation: 
    x: -0.175306108556
    y: 0.206496130845
    z: -0.00484435903881
    w: 0.962602539179
---
header: 
  seq: 134
  stamp: 
    secs: 21746
    nsecs: 835000000
  frame_id: "world"
pose: 
  position: 
    x: -0.329830050468
    y: -0.621716678143
    z: -0.0450709462166
  orientation: 
    x: -0.172303960652
    y: 0.207689018172
    z: 1.50662272871e-05
    w: 0.962900107305
---
header: 
  seq: 135
  stamp: 
    secs: 21747
    nsecs: 381000000
  frame_id: "world"
pose: 
  position: 
    x: -0.264300584793
    y: -0.750225305557
    z: 0.0188032761216
  orientation: 
    x: -0.239220168892
    y: 0.188208833938
    z: -0.00788237653388
    w: 0.95251719867
---
header: 
  seq: 136
  stamp: 
    secs: 21747
    nsecs: 626000000
  frame_id: "world"
pose: 
  position: 
    x: -0.234091937542
    y: -0.75982105732
    z: 0.0531254634261
  orientation: 
    x: -0.248560107972
    y: 0.179503316071
    z: 0.000733800791689
    w: 0.951838165751
---
header: 
  seq: 137
  stamp: 
    secs: 21747
    nsecs: 826000000
  frame_id: "world"
pose: 
  position: 
    x: -0.23965407908
    y: -0.73627191782
    z: 0.0473086982965
  orientation: 
    x: -0.237231487679
    y: 0.178694918423
    z: -0.00764581169963
    w: 0.954846002739
---
header: 
  seq: 138
  stamp: 
    secs: 21748
    nsecs:   2000000
  frame_id: "world"
pose: 
  position: 
    x: -0.264802664518
    y: -0.680196285248
    z: 0.032366707921
  orientation: 
    x: -0.211086574963
    y: 0.190434906286
    z: -0.00225977394084
    w: 0.958734529346
---
header: 
  seq: 139
  stamp: 
    secs: 21748
    nsecs: 182000000
  frame_id: "world"
pose: 
  position: 
    x: -0.220772787929
    y: -0.605300307274
    z: -0.0345313362777
  orientation: 
    x: -0.16677373065
    y: 0.170615562796
    z: 0.00903878143142
    w: 0.971079375194
---
header: 
  seq: 140
  stamp: 
    secs: 21748
    nsecs: 350000000
  frame_id: "world"
pose: 
  position: 
    x: -0.250008642673
    y: -0.601833820343
    z: 0.00455378554761
  orientation: 
    x: -0.16996638985
    y: 0.180605177578
    z: -0.00930016806634
    w: 0.968713942827
---
header: 
  seq: 141
  stamp: 
    secs: 21748
    nsecs: 776000000
  frame_id: "world"
pose: 
  position: 
    x: -0.225917547941
    y: -0.582470178604
    z: -0.00827509909868
  orientation: 
    x: -0.157524727074
    y: 0.16743495246
    z: -0.00578101137476
    w: 0.973199916236
---
header: 
  seq: 142
  stamp: 
    secs: 21749
    nsecs: 100000000
  frame_id: "world"
pose: 
  position: 
    x: -0.23851762712
    y: -0.519714832306
    z: -0.00972486846149
  orientation: 
    x: -0.133208727021
    y: 0.171268838022
    z: 0.000147281189256
    w: 0.976177442106
---
header: 
  seq: 143
  stamp: 
    secs: 21749
    nsecs: 654000000
  frame_id: "world"
pose: 
  position: 
    x: -0.196566984057
    y: -0.444349050522
    z: -0.0344262421131
  orientation: 
    x: -0.0923816324112
    y: 0.143465025028
    z: -0.0054557080481
    w: 0.985319062962
---
header: 
  seq: 144
  stamp: 
    secs: 21749
    nsecs: 927000000
  frame_id: "world"
pose: 
  position: 
    x: -0.196013703942
    y: -0.519521057606
    z: 0.00697529269382
  orientation: 
    x: -0.129151385371
    y: 0.141952078523
    z: -0.00440273281844
    w: 0.981402131139
---
header: 
  seq: 145
  stamp: 
    secs: 21750
    nsecs: 261000000
  frame_id: "world"
pose: 
  position: 
    x: -0.193623289466
    y: -0.41639316082
    z: -0.0687352865934
  orientation: 
    x: -0.0731339292451
    y: 0.137306061891
    z: 0.00642683345411
    w: 0.987804216215
---
header: 
  seq: 146
  stamp: 
    secs: 21750
    nsecs: 672000000
  frame_id: "world"
pose: 
  position: 
    x: -0.241609737277
    y: -0.440813332796
    z: -0.0238262303174
  orientation: 
    x: -0.0892945588997
    y: 0.157262874245
    z: 0.000498545930612
    w: 0.98351137339
---
header: 
  seq: 147
  stamp: 
    secs: 21751
    nsecs:  78000000
  frame_id: "world"
pose: 
  position: 
    x: -0.257150143385
    y: -0.463704019785
    z: 0.0265333391726
  orientation: 
    x: -0.108180565278
    y: 0.158571344159
    z: -0.0154428776733
    w: 0.981281616885
---
header: 
  seq: 148
  stamp: 
    secs: 21751
    nsecs: 496000000
  frame_id: "world"
pose: 
  position: 
    x: -0.250142157078
    y: -0.46215981245
    z: 0.0311897862703
  orientation: 
    x: -0.106049675051
    y: 0.15503814207
    z: -0.0196393999932
    w: 0.982003530998
---
header: 
  seq: 149
  stamp: 
    secs: 21751
    nsecs: 833000000
  frame_id: "world"
pose: 
  position: 
    x: -0.264410555363
    y: -0.451464682817
    z: 0.0722654685378
  orientation: 
    x: -0.102694492366
    y: 0.16656043453
    z: -0.0171679623943
    w: 0.980518599494
---
header: 
  seq: 150
  stamp: 
    secs: 21752
    nsecs: 167000000
  frame_id: "world"
pose: 
  position: 
    x: -0.309546232224
    y: -0.382392078638
    z: 0.0813692733645
  orientation: 
    x: -0.0729926040836
    y: 0.191538234337
    z: -0.014897365265
    w: 0.978653796316
---
header: 
  seq: 151
  stamp: 
    secs: 21752
    nsecs: 346000000
  frame_id: "world"
pose: 
  position: 
    x: -0.326458066702
    y: -0.373603135347
    z: 0.0879504084587
  orientation: 
    x: -0.0741153225998
    y: 0.198217366337
    z: -0.028169269335
    w: 0.976945897634
---
header: 
  seq: 152
  stamp: 
    secs: 21752
    nsecs: 516000000
  frame_id: "world"
pose: 
  position: 
    x: -0.366447508335
    y: -0.38394138217
    z: 0.0991518497467
  orientation: 
    x: -0.0797335781105
    y: 0.218575709877
    z: -0.0292341402899
    w: 0.97211757551
---
header: 
  seq: 153
  stamp: 
    secs: 21752
    nsecs: 701000000
  frame_id: "world"
pose: 
  position: 
    x: -0.474608868361
    y: -0.390434861183
    z: 0.12755137682
  orientation: 
    x: -0.0916208709762
    y: 0.269661944123
    z: -0.0489705543237
    w: 0.957334809094
---
header: 
  seq: 154
  stamp: 
    secs: 21752
    nsecs: 885000000
  frame_id: "world"
pose: 
  position: 
    x: -0.488043874502
    y: -0.395459055901
    z: 0.190156280994
  orientation: 
    x: -0.101099268772
    y: 0.287738654368
    z: -0.0522753304333
    w: 0.950922023336
---
header: 
  seq: 155
  stamp: 
    secs: 21753
    nsecs: 147000000
  frame_id: "world"
pose: 
  position: 
    x: -0.484630793333
    y: -0.394146203995
    z: 0.194666951895
  orientation: 
    x: -0.101685824321
    y: 0.287560448418
    z: -0.0528919893592
    w: 0.950879287344
---
header: 
  seq: 156
  stamp: 
    secs: 21753
    nsecs: 609000000
  frame_id: "world"
pose: 
  position: 
    x: -0.484521538019
    y: -0.396359801292
    z: 0.174202263355
  orientation: 
    x: -0.101602944479
    y: 0.286335454982
    z: -0.0497978492775
    w: 0.951424733282
---
header: 
  seq: 157
  stamp: 
    secs: 21754
    nsecs:  25000000
  frame_id: "world"
pose: 
  position: 
    x: -0.498097062111
    y: -0.36506152153
    z: 0.156235381961
  orientation: 
    x: -0.0829724198636
    y: 0.29110076189
    z: -0.0407157454144
    w: 0.952217491986
---
header: 
  seq: 158
  stamp: 
    secs: 21754
    nsecs: 366000000
  frame_id: "world"
pose: 
  position: 
    x: -0.491101503372
    y: -0.358264446259
    z: 0.154377907515
  orientation: 
    x: -0.0803853499518
    y: 0.290626735438
    z: -0.0402947255786
    w: 0.952602031938
---
header: 
  seq: 159
  stamp: 
    secs: 21754
    nsecs: 509000000
  frame_id: "world"
pose: 
  position: 
    x: -0.496184706688
    y: -0.494105041027
    z: 0.174973845482
  orientation: 
    x: -0.149904674948
    y: 0.289930834244
    z: -0.0409215070043
    w: 0.944348521494
---
header: 
  seq: 160
  stamp: 
    secs: 21754
    nsecs: 667000000
  frame_id: "world"
pose: 
  position: 
    x: -0.480586409569
    y: -0.487099081278
    z: 0.16930398345
  orientation: 
    x: -0.147297495939
    y: 0.282321889347
    z: -0.0394921846507
    w: 0.947120987961
---
header: 
  seq: 161
  stamp: 
    secs: 21754
    nsecs: 831000000
  frame_id: "world"
pose: 
  position: 
    x: -0.426887601614
    y: -0.45771548152
    z: 0.114174574614
  orientation: 
    x: -0.125369929481
    y: 0.256080285836
    z: -0.0282372723971
    w: 0.958075114193
---
header: 
  seq: 162
  stamp: 
    secs: 21755
    nsecs:  19000000
  frame_id: "world"
pose: 
  position: 
    x: -0.425992310047
    y: -0.455802470446
    z: 0.108870863914
  orientation: 
    x: -0.124957850715
    y: 0.253594276548
    z: -0.0303951051526
    w: 0.958723951943
---
header: 
  seq: 163
  stamp: 
    secs: 21755
    nsecs: 298000000
  frame_id: "world"
pose: 
  position: 
    x: -0.404032498598
    y: -0.453616887331
    z: 0.0919449925423
  orientation: 
    x: -0.123750783185
    y: 0.244158922999
    z: -0.0245118066039
    w: 0.961494324122
---
header: 
  seq: 164
  stamp: 
    secs: 21755
    nsecs: 756000000
  frame_id: "world"
pose: 
  position: 
    x: -0.389935702085
    y: -0.433681488037
    z: 0.0816697627306
  orientation: 
    x: -0.115630638739
    y: 0.238310956606
    z: -0.024532640032
    w: 0.963968668018
---
header: 
  seq: 165
  stamp: 
    secs: 21756
    nsecs: 220000000
  frame_id: "world"
pose: 
  position: 
    x: -0.371841669083
    y: -0.428509294987
    z: 0.0460028685629
  orientation: 
    x: -0.109355794768
    y: 0.233458403816
    z: -0.01536755658
    w: 0.966075733078
---
header: 
  seq: 166
  stamp: 
    secs: 21756
    nsecs: 391000000
  frame_id: "world"
pose: 
  position: 
    x: -0.363398134708
    y: -0.429941117764
    z: 0.0343190059066
  orientation: 
    x: -0.104666508204
    y: 0.228076172365
    z: -0.0195020310611
    w: 0.967804656139
---
header: 
  seq: 167
  stamp: 
    secs: 21756
    nsecs: 562000000
  frame_id: "world"
pose: 
  position: 
    x: -0.347203552723
    y: -0.439978510141
    z: 0.0425524190068
  orientation: 
    x: -0.111454850342
    y: 0.2222894548
    z: -0.0178640824232
    w: 0.968424539744
---
header: 
  seq: 168
  stamp: 
    secs: 21756
    nsecs: 739000000
  frame_id: "world"
pose: 
  position: 
    x: -0.322846591473
    y: -0.484502851963
    z: 0.0260678380728
  orientation: 
    x: -0.131417811558
    y: 0.210382566883
    z: -0.0175437983982
    w: 0.968586986024
---
header: 
  seq: 169
  stamp: 
    secs: 21756
    nsecs: 903000000
  frame_id: "world"
pose: 
  position: 
    x: -0.29809102416
    y: -0.444948166609
    z: 0.0230972953141
  orientation: 
    x: -0.114944449726
    y: 0.201451002095
    z: -0.0164238250558
    w: 0.972592167973
---
header: 
  seq: 170
  stamp: 
    secs: 21757
    nsecs:  62000000
  frame_id: "world"
pose: 
  position: 
    x: -0.282756626606
    y: -0.46389323473
    z: 0.0154990637675
  orientation: 
    x: -0.123372307092
    y: 0.191026401685
    z: -0.0183257979434
    w: 0.973628447012
---
header: 
  seq: 171
  stamp: 
    secs: 21757
    nsecs: 511000000
  frame_id: "world"
pose: 
  position: 
    x: -0.269379943609
    y: -0.433607310057
    z: -0.00719638168812
  orientation: 
    x: -0.106509555667
    y: 0.186706731093
    z: -0.0110001858755
    w: 0.976563007198
---
header: 
  seq: 172
  stamp: 
    secs: 21757
    nsecs: 907000000
  frame_id: "world"
pose: 
  position: 
    x: -0.224317654967
    y: -0.476706624031
    z: -0.056511901319
  orientation: 
    x: -0.116091889288
    y: 0.16212454492
    z: -0.00224127530753
    w: 0.979914936033
---
header: 
  seq: 173
  stamp: 
    secs: 21758
    nsecs: 279000000
  frame_id: "world"
pose: 
  position: 
    x: -0.220635414124
    y: -0.470777451992
    z: -0.0549291223288
  orientation: 
    x: -0.116036513944
    y: 0.164198897497
    z: 0.00994907831487
    w: 0.979528082973
---
header: 
  seq: 174
  stamp: 
    secs: 21758
    nsecs: 495000000
  frame_id: "world"
pose: 
  position: 
    x: -0.20741429925
    y: -0.454865008593
    z: -0.0629086047411
  orientation: 
    x: -0.110118575053
    y: 0.159290272648
    z: 0.0146090014746
    w: 0.980962326261
---
header: 
  seq: 175
  stamp: 
    secs: 21758
    nsecs: 718000000
  frame_id: "world"
pose: 
  position: 
    x: -0.180721357465
    y: -0.460273891687
    z: -0.0645929500461
  orientation: 
    x: -0.109771148018
    y: 0.149496575866
    z: 0.0158350811771
    w: 0.982522426752
---
header: 
  seq: 176
  stamp: 
    secs: 21758
    nsecs: 930000000
  frame_id: "world"
pose: 
  position: 
    x: -0.174048066139
    y: -0.457211434841
    z: -0.0627221167088
  orientation: 
    x: -0.109132232197
    y: 0.152440669828
    z: 0.0257363864081
    w: 0.981931584426
---
header: 
  seq: 177
  stamp: 
    secs: 21759
    nsecs: 108000000
  frame_id: "world"
pose: 
  position: 
    x: -0.179208338261
    y: -0.432776153088
    z: -0.0567526333034
  orientation: 
    x: -0.0998626471847
    y: 0.156155239056
    z: 0.022830362711
    w: 0.982406111316
---
header: 
  seq: 178
  stamp: 
    secs: 21759
    nsecs: 300000000
  frame_id: "world"
pose: 
  position: 
    x: -0.175538882613
    y: -0.429510354996
    z: -0.0571455098689
  orientation: 
    x: -0.099556836616
    y: 0.156974204492
    z: 0.0210035396896
    w: 0.982347385973
---
header: 
  seq: 179
  stamp: 
    secs: 21759
    nsecs: 588000000
  frame_id: "world"
pose: 
  position: 
    x: -0.17470638454
    y: -0.427952408791
    z: -0.0595608055592
  orientation: 
    x: -0.100067609053
    y: 0.157345582824
    z: 0.0202621860395
    w: 0.982251640366
---
header: 
  seq: 180
  stamp: 
    secs: 21759
    nsecs: 956000000
  frame_id: "world"
pose: 
  position: 
    x: -0.17384044826
    y: -0.448093563318
    z: -0.0676549449563
  orientation: 
    x: -0.109055167567
    y: 0.1590344439
    z: 0.0217210349714
    w: 0.980990934066
---
header: 
  seq: 181
  stamp: 
    secs: 21760
    nsecs: 306000000
  frame_id: "world"
pose: 
  position: 
    x: -0.170096069574
    y: -0.416324645281
    z: -0.100434020162
  orientation: 
    x: -0.0925245251231
    y: 0.155900591877
    z: 0.024882742226
    w: 0.983114981496
---
header: 
  seq: 182
  stamp: 
    secs: 21760
    nsecs: 654000000
  frame_id: "world"
pose: 
  position: 
    x: -0.170725911856
    y: -0.402449071407
    z: -0.124441131949
  orientation: 
    x: -0.0876509377061
    y: 0.156359698574
    z: 0.0301932815624
    w: 0.983339881999
---
header: 
  seq: 183
  stamp: 
    secs: 21760
    nsecs: 843000000
  frame_id: "world"
pose: 
  position: 
    x: -0.184203177691
    y: -0.418053418398
    z: -0.197385936975
  orientation: 
    x: -0.088799298679
    y: 0.155321318321
    z: 0.0122462492673
    w: 0.983788596197
---
header: 
  seq: 184
  stamp: 
    secs: 21761
    nsecs:   2000000
  frame_id: "world"
pose: 
  position: 
    x: -0.165417164564
    y: -0.422535926104
    z: -0.207465097308
  orientation: 
    x: -0.0904339494719
    y: 0.148663675322
    z: 0.0175080139291
    w: 0.98458838195
---
header: 
  seq: 185
  stamp: 
    secs: 21761
    nsecs: 196000000
  frame_id: "world"
pose: 
  position: 
    x: -0.16756233573
    y: -0.421154290438
    z: -0.218676149845
  orientation: 
    x: -0.090892018718
    y: 0.149272119709
    z: 0.0219743629368
    w: 0.984364567924
---
header: 
  seq: 186
  stamp: 
    secs: 21761
    nsecs: 368000000
  frame_id: "world"
pose: 
  position: 
    x: -0.150778651237
    y: -0.426613241434
    z: -0.250781536102
  orientation: 
    x: -0.0888348042618
    y: 0.139856736086
    z: 0.0227575555171
    w: 0.985916104235
---
header: 
  seq: 187
  stamp: 
    secs: 21761
    nsecs: 607000000
  frame_id: "world"
pose: 
  position: 
    x: -0.128947079182
    y: -0.434757500887
    z: -0.28202149272
  orientation: 
    x: -0.0867331848673
    y: 0.13106456416
    z: 0.0122468890781
    w: 0.987496556132
---
header: 
  seq: 188
  stamp: 
    secs: 21761
    nsecs: 870000000
  frame_id: "world"
pose: 
  position: 
    x: -0.0995771884918
    y: -0.510498702526
    z: -0.269548505545
  orientation: 
    x: -0.116547484742
    y: 0.121960524779
    z: 0.0164285492415
    w: 0.98553154032
---
header: 
  seq: 189
  stamp: 
    secs: 21762
    nsecs: 181000000
  frame_id: "world"
pose: 
  position: 
    x: -0.166619047523
    y: -0.546013534069
    z: -0.357568860054
  orientation: 
    x: -0.121537591401
    y: 0.142994353739
    z: 0.00273936417791
    w: 0.9822289573
---
header: 
  seq: 190
  stamp: 
    secs: 21762
    nsecs: 453000000
  frame_id: "world"
pose: 
  position: 
    x: -0.201892957091
    y: -0.767991960049
    z: -0.268455773592
  orientation: 
    x: -0.206905064686
    y: 0.15899133507
    z: -0.0131947070768
    w: 0.965265740242
---
header: 
  seq: 191
  stamp: 
    secs: 21762
    nsecs: 796000000
  frame_id: "world"
pose: 
  position: 
    x: -0.278521507978
    y: -0.775773108006
    z: -0.245268553495
  orientation: 
    x: -0.211542928547
    y: 0.187009299782
    z: -0.0131233722202
    w: 0.959220979899
---
header: 
  seq: 192
  stamp: 
    secs: 21763
    nsecs: 195000000
  frame_id: "world"
pose: 
  position: 
    x: -0.339501559734
    y: -0.958742856979
    z: -0.103349432349
  orientation: 
    x: -0.294146080798
    y: 0.206945322906
    z: -0.0339441958511
    w: 0.932469574864
---
header: 
  seq: 193
  stamp: 
    secs: 21763
    nsecs: 363000000
  frame_id: "world"
pose: 
  position: 
    x: -0.313697487116
    y: -1.00289738178
    z: -0.0979264378548
  orientation: 
    x: -0.313520557498
    y: 0.197344333337
    z: -0.0305206604232
    w: 0.928347221363
---
header: 
  seq: 194
  stamp: 
    secs: 21763
    nsecs: 523000000
  frame_id: "world"
pose: 
  position: 
    x: -0.28867444396
    y: -1.09459197521
    z: -0.0039042532444
  orientation: 
    x: -0.35446420326
    y: 0.189267814235
    z: -0.0310737062369
    w: 0.915187001592
---
header: 
  seq: 195
  stamp: 
    secs: 21763
    nsecs: 678000000
  frame_id: "world"
pose: 
  position: 
    x: -0.386070609093
    y: -1.08893251419
    z: 0.0339899361134
  orientation: 
    x: -0.354843448992
    y: 0.229044365874
    z: -0.029508008016
    w: 0.905954790612
---
header: 
  seq: 196
  stamp: 
    secs: 21763
    nsecs: 860000000
  frame_id: "world"
pose: 
  position: 
    x: -0.395869255066
    y: -0.98271548748
    z: -0.082185998559
  orientation: 
    x: -0.308063472868
    y: 0.223215234064
    z: -0.0389159316214
    w: 0.923989938383
---
header: 
  seq: 197
  stamp: 
    secs: 21764
    nsecs:  48000000
  frame_id: "world"
pose: 
  position: 
    x: -0.397610843182
    y: -0.951812505722
    z: -0.0988336056471
  orientation: 
    x: -0.296162986138
    y: 0.224452699206
    z: -0.036398119416
    w: 0.927676478285
---
header: 
  seq: 198
  stamp: 
    secs: 21764
    nsecs: 356000000
  frame_id: "world"
pose: 
  position: 
    x: -0.455545008183
    y: -0.951731920242
    z: -0.102027639747
  orientation: 
    x: -0.291912399793
    y: 0.242373222353
    z: -0.0307865265941
    w: 0.92471323215
---
header: 
  seq: 199
  stamp: 
    secs: 21764
    nsecs: 591000000
  frame_id: "world"
pose: 
  position: 
    x: -0.466843396425
    y: -0.965106606483
    z: -0.119320899248
  orientation: 
    x: -0.291428612561
    y: 0.242699761275
    z: -0.030731885252
    w: 0.924781996411
---
header: 
  seq: 200
  stamp: 
    secs: 21764
    nsecs: 968000000
  frame_id: "world"
pose: 
  position: 
    x: -0.493240714073
    y: -0.888995587826
    z: -0.181003794074
  orientation: 
    x: -0.259180210957
    y: 0.248737239056
    z: -0.0274448070687
    w: 0.932846282471
---
header: 
  seq: 201
  stamp: 
    secs: 21765
    nsecs: 437000000
  frame_id: "world"
pose: 
  position: 
    x: -0.800291180611
    y: -0.940726399422
    z: 0.132094502449
  orientation: 
    x: -0.317688484328
    y: 0.36713783709
    z: -0.0578066277601
    w: 0.872320026876
---
header: 
  seq: 202
  stamp: 
    secs: 21765
    nsecs: 629000000
  frame_id: "world"
pose: 
  position: 
    x: -0.82457780838
    y: -0.942972958088
    z: 0.121997326612
  orientation: 
    x: -0.314897017788
    y: 0.371343597571
    z: -0.0565969660217
    w: 0.871630990826
---
header: 
  seq: 203
  stamp: 
    secs: 21765
    nsecs: 844000000
  frame_id: "world"
pose: 
  position: 
    x: -0.821573853493
    y: -0.939905405045
    z: 0.125527411699
  orientation: 
    x: -0.31428482298
    y: 0.371674587442
    z: -0.0551695995355
    w: 0.871802366584
---
header: 
  seq: 204
  stamp: 
    secs: 21766
    nsecs:   5000000
  frame_id: "world"
pose: 
  position: 
    x: -0.789712905884
    y: -1.00915014744
    z: 0.21429720521
  orientation: 
    x: -0.362216041005
    y: 0.361070201359
    z: -0.0738333359834
    w: 0.856140460338
---
header: 
  seq: 205
  stamp: 
    secs: 21766
    nsecs: 162000000
  frame_id: "world"
pose: 
  position: 
    x: -0.84488517046
    y: -0.911643862724
    z: 0.12898850441
  orientation: 
    x: -0.317190880437
    y: 0.376141482496
    z: -0.0614810836847
    w: 0.86840520891
---
header: 
  seq: 206
  stamp: 
    secs: 21766
    nsecs: 355000000
  frame_id: "world"
pose: 
  position: 
    x: -0.95316439867
    y: -0.743919014931
    z: 0.0406816005707
  orientation: 
    x: -0.240097832348
    y: 0.409649311224
    z: -0.0435456377018
    w: 0.879001848777
---
header: 
  seq: 207
  stamp: 
    secs: 21766
    nsecs: 686000000
  frame_id: "world"
pose: 
  position: 
    x: -1.10885584354
    y: -0.688362181187
    z: -0.0605470538139
  orientation: 
    x: -0.192303495013
    y: 0.435830417455
    z: -0.0235001539653
    w: 0.878930575068
---
header: 
  seq: 208
  stamp: 
    secs: 21767
    nsecs: 178000000
  frame_id: "world"
pose: 
  position: 
    x: -1.15952765942
    y: -0.748753249645
    z: -0.303812026978
  orientation: 
    x: -0.185845050932
    y: 0.396541124518
    z: -0.0139198332084
    w: 0.89890099113
---
header: 
  seq: 209
  stamp: 
    secs: 21767
    nsecs: 698000000
  frame_id: "world"
pose: 
  position: 
    x: -1.19146704674
    y: -0.756085276604
    z: -0.319691896439
  orientation: 
    x: -0.18188026519
    y: 0.399518220993
    z: -0.00484362150718
    w: 0.89848834136
---
header: 
  seq: 210
  stamp: 
    secs: 21768
    nsecs:  87000000
  frame_id: "world"
pose: 
  position: 
    x: -1.19548630714
    y: -0.708266079426
    z: -0.495497941971
  orientation: 
    x: -0.158307978478
    y: 0.380345836783
    z: -0.00405624540067
    w: 0.911185587718
---
header: 
  seq: 211
  stamp: 
    secs: 21768
    nsecs: 532000000
