header: 
  seq: 59452
  stamp: 
    secs: 22162
    nsecs: 328000000
  frame_id: "map"
pose: 
  position: 
    x: 6.59153291219
    y: -2.3175697292
    z: 0.0399999991779
  orientation: 
    x: 1.07712412889e-11
    y: 4.53120417066e-12
    z: 0.996186790307
    w: 0.0872460819634
---
header: 
  seq: 59453
  stamp: 
    secs: 22162
    nsecs: 338000000
  frame_id: "map"
pose: 
  position: 
    x: 6.59153447012
    y: -2.31757000419
    z: 0.0399941540924
  orientation: 
    x: 1.96998007224e-05
    y: -1.7273273892e-06
    z: 0.99618679015
    w: 0.087246081517
---
header: 
  seq: 59454
  stamp: 
    secs: 22162
    nsecs: 348000000
  frame_id: "map"
pose: 
  position: 
    x: 6.59153135388
    y: -2.31756945352
    z: 0.0399960441827
  orientation: 
    x: -1.96997859659e-05
    y: 1.72734874523e-06
    z: 0.996186790193
    w: 0.0872460810262
---
header: 
  seq: 59455
  stamp: 
    secs: 22162
    nsecs: 358000000
  frame_id: "map"
pose: 
  position: 
    x: 6.5915329117
    y: -2.31756972834
    z: 0.0399999991779
  orientation: 
    x: 1.07712298201e-11
    y: 4.53121143905e-12
    z: 0.996186790544
    w: 0.0872460792547
---
header: 
  seq: 59456
  stamp: 
    secs: 22162
    nsecs: 368000000
  frame_id: "map"
pose: 
  position: 
    x: 6.59153446963
    y: -2.31757000332
    z: 0.0399941540924
  orientation: 
    x: 1.96998007271e-05
    y: -1.72732733567e-06
    z: 0.996186790387
    w: 0.0872460788084
---
header: 
  seq: 59457
  stamp: 
    secs: 22162
    nsecs: 378000000
  frame_id: "map"
pose: 
  position: 
    x: 6.59153135339
    y: -2.31756945265
    z: 0.0399960441827
  orientation: 
    x: -1.96997859706e-05
    y: 1.72734869172e-06
    z: 0.99618679043
    w: 0.0872460783175
---
header: 
  seq: 59458
  stamp: 
    secs: 22162
    nsecs: 388000000
  frame_id: "map"
pose: 
  position: 
    x: 6.59153291122
    y: -2.31756972747
    z: 0.0399999991779
  orientation: 
    x: 1.07712410958e-11
    y: 4.53119962548e-12
    z: 0.996186790781
    w: 0.0872460765461
---
header: 
  seq: 59459
  stamp: 
    secs: 22162
    nsecs: 398000000
  frame_id: "map"
pose: 
  position: 
    x: 6.59153446915
    y: -2.31757000245
    z: 0.0399941540924
  orientation: 
    x: 1.96998007318e-05
    y: -1.72732728217e-06
    z: 0.996186790624
    w: 0.0872460760997
---
header: 
  seq: 59460
  stamp: 
    secs: 22162
    nsecs: 408000000
  frame_id: "map"
pose: 
  position: 
    x: 6.59153135291
    y: -2.31756945179
    z: 0.0399960441827
  orientation: 
    x: -1.96997859753e-05
    y: 1.72734863821e-06
    z: 0.996186790667
    w: 0.0872460756089
---
header: 
  seq: 59461
  stamp: 
    secs: 22162
    nsecs: 418000000
  frame_id: "map"
pose: 
  position: 
    x: 6.59153291073
    y: -2.3175697266
    z: 0.0399999991779
  orientation: 
    x: 1.07712399811e-11
    y: 4.53121589995e-12
    z: 0.996186791019
    w: 0.0872460738374
---
header: 
  seq: 59462
  stamp: 
    secs: 22162
    nsecs: 428000000
  frame_id: "map"
pose: 
  position: 
    x: 6.59153446866
    y: -2.31757000158
    z: 0.0399941540924
  orientation: 
    x: 1.96998007364e-05
    y: -1.72732722864e-06
    z: 0.996186790861
    w: 0.0872460733911
---
header: 
  seq: 59463
  stamp: 
    secs: 22162
    nsecs: 438000000
  frame_id: "map"
pose: 
  position: 
    x: 6.59153135242
    y: -2.31756945092
    z: 0.0399960441827
  orientation: 
    x: -1.969978598e-05
    y: 1.7273485847e-06
    z: 0.996186790904
    w: 0.0872460729002
---
header: 
  seq: 59464
  stamp: 
    secs: 22162
    nsecs: 448000000
  frame_id: "map"
pose: 
  position: 
    x: 6.59153291025
    y: -2.31756972573
    z: 0.0399999991779
  orientation: 
    x: 1.07712311177e-11
    y: 4.53120661223e-12
    z: 0.996186791256
    w: 0.0872460711287
---
header: 
  seq: 59465
  stamp: 
    secs: 22162
    nsecs: 458000000
  frame_id: "map"
pose: 
  position: 
    x: 6.59153446818
    y: -2.31757000072
    z: 0.0399941540924
  orientation: 
    x: 1.96998007412e-05
    y: -1.72732717514e-06
    z: 0.996186791099
    w: 0.0872460706824
---
header: 
  seq: 59466
  stamp: 
    secs: 22162
    nsecs: 468000000
  frame_id: "map"
pose: 
  position: 
    x: 6.59153135194
    y: -2.31756945005
    z: 0.0399960441827
  orientation: 
    x: -1.96997859847e-05
    y: 1.72734853119e-06
    z: 0.996186791142
    w: 0.0872460701916
---
header: 
  seq: 59467
  stamp: 
    secs: 22162
    nsecs: 478000000
  frame_id: "map"
pose: 
  position: 
    x: 6.59153290976
    y: -2.31756972486
    z: 0.0399999991779
  orientation: 
    x: 1.07712424036e-11
    y: 4.53119274546e-12
    z: 0.996186791493
    w: 0.0872460684201
---
header: 
  seq: 59468
  stamp: 
    secs: 22162
    nsecs: 488000000
  frame_id: "map"
pose: 
  position: 
    x: 6.59153446769
    y: -2.31756999985
    z: 0.0399941540924
  orientation: 
    x: 1.96998007459e-05
    y: -1.72732712162e-06
    z: 0.996186791336
    w: 0.0872460679738
---
header: 
  seq: 59469
  stamp: 
    secs: 22162
    nsecs: 498000000
  frame_id: "map"
pose: 
  position: 
    x: 6.59153135145
    y: -2.31756944918
    z: 0.0399960441827
  orientation: 
    x: -1.96997859894e-05
    y: 1.72734847769e-06
    z: 0.996186791379
    w: 0.0872460674829
---
header: 
  seq: 59470
  stamp: 
    secs: 22162
    nsecs: 508000000
  frame_id: "map"
pose: 
  position: 
    x: 6.59153290928
    y: -2.317569724
    z: 0.0399999991779
  orientation: 
    x: 1.0771238348e-11
    y: 4.53120418675e-12
    z: 0.99618679173
    w: 0.0872460657114
---
header: 
  seq: 59471
  stamp: 
    secs: 22162
    nsecs: 518000000
  frame_id: "map"
pose: 
  position: 
    x: 6.59153446721
    y: -2.31756999898
    z: 0.0399941540924
  orientation: 
    x: 1.96998007505e-05
    y: -1.72732706812e-06
    z: 0.996186791573
    w: 0.0872460652651
---
header: 
  seq: 59472
  stamp: 
    secs: 22162
    nsecs: 528000000
  frame_id: "map"
pose: 
  position: 
    x: 6.59153135096
    y: -2.31756944832
    z: 0.0399960441827
  orientation: 
    x: -1.96997859941e-05
    y: 1.72734842417e-06
    z: 0.996186791616
    w: 0.0872460647742
---
header: 
  seq: 59473
  stamp: 
    secs: 22162
    nsecs: 538000000
  frame_id: "map"
pose: 
  position: 
    x: 6.59153290879
    y: -2.31756972313
    z: 0.0399999991779
  orientation: 
    x: 1.07712222137e-11
    y: 4.53121750592e-12
    z: 0.996186791968
    w: 0.0872460630028
---
header: 
  seq: 59474
  stamp: 
    secs: 22162
    nsecs: 548000000
  frame_id: "map"
pose: 
  position: 
    x: 6.59153446672
    y: -2.31756999811
    z: 0.0399941540924
  orientation: 
    x: 1.96998007552e-05
    y: -1.72732701458e-06
    z: 0.99618679181
    w: 0.0872460625564
---
header: 
  seq: 59475
  stamp: 
    secs: 22162
    nsecs: 558000000
  frame_id: "map"
pose: 
  position: 
    x: 6.59153135048
    y: -2.31756944745
    z: 0.0399960441827
  orientation: 
    x: -1.96997859988e-05
    y: 1.72734837065e-06
    z: 0.996186791853
    w: 0.0872460620656
---
header: 
  seq: 59476
  stamp: 
    secs: 22162
    nsecs: 568000000
  frame_id: "map"
pose: 
  position: 
    x: 6.59153290831
    y: -2.31756972226
    z: 0.0399999991779
  orientation: 
    x: 1.07712256222e-11
    y: 4.53121216538e-12
    z: 0.996186792205
    w: 0.0872460602941
---
header: 
  seq: 59477
  stamp: 
    secs: 22162
    nsecs: 578000000
  frame_id: "map"
pose: 
  position: 
    x: 6.59153446623
    y: -2.31756999724
    z: 0.0399941540924
  orientation: 
    x: 1.96998007599e-05
    y: -1.7273269611e-06
    z: 0.996186792048
    w: 0.0872460598478
---
header: 
  seq: 59478
  stamp: 
    secs: 22162
    nsecs: 588000000
  frame_id: "map"
pose: 
  position: 
    x: 6.59153134999
    y: -2.31756944658
    z: 0.0399960441827
  orientation: 
    x: -1.96997860035e-05
    y: 1.72734831714e-06
    z: 0.996186792091
    w: 0.0872460593569
---
header: 
  seq: 59479
  stamp: 
    secs: 22162
    nsecs: 598000000
  frame_id: "map"
pose: 
  position: 
    x: 6.59153290782
    y: -2.31756972139
    z: 0.0399999991779
  orientation: 
    x: 1.07712393475e-11
    y: 4.53120812588e-12
    z: 0.996186792442
    w: 0.0872460575855
---
header: 
  seq: 59480
  stamp: 
    secs: 22162
    nsecs: 608000000
  frame_id: "map"
pose: 
  position: 
    x: 6.59153446575
    y: -2.31756999638
    z: 0.0399941540924
  orientation: 
    x: 1.96998007646e-05
    y: -1.72732690757e-06
    z: 0.996186792285
    w: 0.0872460571391
---
header: 
  seq: 59481
  stamp: 
    secs: 22162
    nsecs: 618000000
  frame_id: "map"
pose: 
  position: 
    x: 6.59153134951
    y: -2.31756944571
    z: 0.0399960441827
  orientation: 
    x: -1.96997860082e-05
    y: 1.72734826363e-06
    z: 0.996186792328
    w: 0.0872460566483
---
header: 
  seq: 59482
  stamp: 
    secs: 22162
    nsecs: 628000000
  frame_id: "map"
pose: 
  position: 
    x: 6.59153290734
    y: -2.31756972053
    z: 0.0399999991779
  orientation: 
    x: 1.07712370131e-11
    y: 4.53120434261e-12
    z: 0.996186792679
    w: 0.0872460548768
---
header: 
  seq: 59483
  stamp: 
    secs: 22162
    nsecs: 638000000
  frame_id: "map"
pose: 
  position: 
    x: 6.59153446526
    y: -2.31756999551
    z: 0.0399941540924
  orientation: 
    x: 1.96998007693e-05
    y: -1.72732685408e-06
    z: 0.996186792522
    w: 0.0872460544305
---
header: 
  seq: 59484
  stamp: 
    secs: 22162
    nsecs: 648000000
  frame_id: "map"
pose: 
  position: 
    x: 6.59153134902
    y: -2.31756944484
    z: 0.0399960441827
  orientation: 
    x: -1.96997860129e-05
    y: 1.72734821012e-06
    z: 0.996186792565
    w: 0.0872460539396
---
header: 
  seq: 59485
  stamp: 
    secs: 22162
    nsecs: 658000000
  frame_id: "map"
pose: 
  position: 
    x: 6.59153290685
    y: -2.31756971966
    z: 0.0399999991779
  orientation: 
    x: 1.07712455173e-11
    y: 4.53119261459e-12
    z: 0.996186792916
    w: 0.0872460521682
---
header: 
  seq: 59486
  stamp: 
    secs: 22162
    nsecs: 668000000
  frame_id: "map"
pose: 
  position: 
    x: 6.59153446478
    y: -2.31756999464
    z: 0.0399941540924
  orientation: 
    x: 1.9699800774e-05
    y: -1.72732680056e-06
    z: 0.996186792759
    w: 0.0872460517218
---
header: 
  seq: 59487
  stamp: 
    secs: 22162
    nsecs: 678000000
  frame_id: "map"
pose: 
  position: 
    x: 6.59153134854
    y: -2.31756944398
    z: 0.0399960441827
  orientation: 
    x: -1.96997860175e-05
    y: 1.72734815661e-06
    z: 0.996186792802
    w: 0.087246051231
---
header: 
  seq: 59488
  stamp: 
    secs: 22162
    nsecs: 688000000
  frame_id: "map"
pose: 
  position: 
    x: 6.59153290636
    y: -2.31756971879
    z: 0.0399999991779
  orientation: 
    x: 1.07712351428e-11
    y: 4.53121067672e-12
    z: 0.996186793154
    w: 0.0872460494595
---
header: 
  seq: 59489
  stamp: 
    secs: 22162
    nsecs: 698000000
  frame_id: "map"
pose: 
  position: 
    x: 6.59153446429
    y: -2.31756999377
    z: 0.0399941540924
  orientation: 
    x: 1.96998007787e-05
    y: -1.72732674705e-06
    z: 0.996186792996
    w: 0.0872460490132
---
header: 
  seq: 59490
  stamp: 
    secs: 22162
    nsecs: 708000000
  frame_id: "map"
pose: 
  position: 
    x: 6.59153134805
    y: -2.31756944311
    z: 0.0399960441827
  orientation: 
    x: -1.96997860222e-05
    y: 1.72734810309e-06
    z: 0.996186793039
    w: 0.0872460485223
---
header: 
  seq: 59491
  stamp: 
    secs: 22162
    nsecs: 718000000
  frame_id: "map"
pose: 
  position: 
    x: 6.59153290588
    y: -2.31756971792
    z: 0.0399999991779
  orientation: 
    x: 1.0771232639e-11
    y: 4.5312023758e-12
    z: 0.996186793391
    w: 0.0872460467508
---
header: 
  seq: 59492
  stamp: 
    secs: 22162
    nsecs: 728000000
  frame_id: "map"
pose: 
  position: 
    x: 6.59153446381
    y: -2.31756999291
    z: 0.0399941540924
  orientation: 
    x: 1.96998007834e-05
    y: -1.72732669353e-06
    z: 0.996186793234
    w: 0.0872460463045
---
header: 
  seq: 59493
  stamp: 
    secs: 22162
    nsecs: 738000000
  frame_id: "map"
pose: 
  position: 
    x: 6.59153134757
    y: -2.31756944224
    z: 0.0399960441827
  orientation: 
    x: -1.96997860269e-05
    y: 1.72734804958e-06
    z: 0.996186793277
    w: 0.0872460458137
---
header: 
  seq: 59494
  stamp: 
    secs: 22162
    nsecs: 748000000
  frame_id: "map"
pose: 
  position: 
    x: 6.59153290539
    y: -2.31756971705
    z: 0.0399999991779
  orientation: 
    x: 1.07712487123e-11
    y: 4.53119477664e-12
    z: 0.996186793628
    w: 0.0872460440422
---
header: 
  seq: 59495
  stamp: 
    secs: 22162
    nsecs: 758000000
  frame_id: "map"
pose: 
  position: 
    x: 6.59153446332
    y: -2.31756999204
    z: 0.0399941540924
  orientation: 
    x: 1.96998007881e-05
    y: -1.72732664002e-06
    z: 0.996186793471
    w: 0.0872460435959
---
header: 
  seq: 59496
  stamp: 
    secs: 22162
    nsecs: 768000000
  frame_id: "map"
pose: 
  position: 
    x: 6.59153134708
    y: -2.31756944137
    z: 0.0399960441827
  orientation: 
    x: -1.96997860316e-05
    y: 1.72734799607e-06
    z: 0.996186793514
    w: 0.087246043105
---
header: 
  seq: 59497
  stamp: 
    secs: 22162
    nsecs: 778000000
  frame_id: "map"
pose: 
  position: 
    x: 6.59153290491
    y: -2.31756971619
    z: 0.0399999991779
  orientation: 
    x: 1.07712285834e-11
    y: 4.53120762232e-12
    z: 0.996186793865
    w: 0.0872460413335
---
header: 
  seq: 59498
  stamp: 
    secs: 22162
    nsecs: 788000000
  frame_id: "map"
pose: 
  position: 
    x: 6.59153446284
    y: -2.31756999117
    z: 0.0399941540924
  orientation: 
    x: 1.96998007927e-05
    y: -1.7273265865e-06
    z: 0.996186793708
    w: 0.0872460408872
---
header: 
  seq: 59499
  stamp: 
    secs: 22162
    nsecs: 798000000
  frame_id: "map"
pose: 
  position: 
    x: 6.5915313466
    y: -2.31756944051
    z: 0.0399960441827
  orientation: 
    x: -1.96997860363e-05
    y: 1.72734794257e-06
    z: 0.996186793751
    w: 0.0872460403963
---
header: 
  seq: 59500
  stamp: 
    secs: 22162
    nsecs: 808000000
  frame_id: "map"
pose: 
  position: 
    x: 6.59153290442
    y: -2.31756971532
    z: 0.0399999991779
  orientation: 
    x: 1.07712172298e-11
    y: 4.53121592197e-12
    z: 0.996186794103
    w: 0.0872460386249
---
header: 
  seq: 59501
  stamp: 
    secs: 22162
    nsecs: 818000000
  frame_id: "map"
pose: 
  position: 
    x: 6.59153446235
    y: -2.3175699903
    z: 0.0399941540924
  orientation: 
    x: 1.96998007975e-05
    y: -1.72732653303e-06
    z: 0.996186793945
    w: 0.0872460381785
---
header: 
  seq: 59502
  stamp: 
    secs: 22162
    nsecs: 828000000
  frame_id: "map"
pose: 
  position: 
    x: 6.59153134611
    y: -2.31756943964
    z: 0.0399960441827
  orientation: 
    x: -1.9699786041e-05
    y: 1.72734788904e-06
    z: 0.996186793988
    w: 0.0872460376877
---
header: 
  seq: 59503
  stamp: 
    secs: 22162
    nsecs: 838000000
  frame_id: "map"
pose: 
  position: 
    x: 6.59153290394
    y: -2.31756971445
    z: 0.0399999991779
  orientation: 
    x: 1.07712292983e-11
    y: 4.53122246488e-12
    z: 0.99618679434
    w: 0.0872460359162
---
header: 
  seq: 59504
  stamp: 
    secs: 22162
    nsecs: 848000000
  frame_id: "map"
pose: 
  position: 
    x: 6.59153446187
    y: -2.31756998943
    z: 0.0399941540924
  orientation: 
    x: 1.96998008021e-05
    y: -1.72732647948e-06
    z: 0.996186794183
    w: 0.0872460354699
---
header: 
  seq: 59505
  stamp: 
    secs: 22162
    nsecs: 858000000
  frame_id: "map"
pose: 
  position: 
    x: 6.59153134563
    y: -2.31756943877
    z: 0.0399960441827
  orientation: 
    x: -1.96997860457e-05
    y: 1.72734783555e-06
    z: 0.996186794226
    w: 0.087246034979
---
header: 
  seq: 59506
  stamp: 
    secs: 22162
    nsecs: 868000000
  frame_id: "map"
pose: 
  position: 
    x: 6.59153290345
    y: -2.31756971358
    z: 0.0399999991779
  orientation: 
    x: 1.07712519988e-11
    y: 4.53120027981e-12
    z: 0.996186794577
    w: 0.0872460332076
---
header: 
  seq: 59507
  stamp: 
    secs: 22162
    nsecs: 878000000
  frame_id: "map"
pose: 
  position: 
    x: 6.59153446138
    y: -2.31756998857
    z: 0.0399941540924
  orientation: 
    x: 1.96998008068e-05
    y: -1.72732642598e-06
    z: 0.99618679442
    w: 0.0872460327612
---
header: 
  seq: 59508
  stamp: 
    secs: 22162
    nsecs: 888000000
  frame_id: "map"
pose: 
  position: 
    x: 6.59153134514
    y: -2.3175694379
    z: 0.0399960441827
  orientation: 
    x: -1.96997860504e-05
    y: 1.72734778202e-06
    z: 0.996186794463
    w: 0.0872460322704
---
header: 
  seq: 59509
  stamp: 
    secs: 22162
    nsecs: 898000000
  frame_id: "map"
pose: 
  position: 
    x: 6.59153290297
    y: -2.31756971272
    z: 0.0399999991779
  orientation: 
    x: 1.07712286139e-11
    y: 4.53120817882e-12
    z: 0.996186794814
    w: 0.0872460304989
---
header: 
  seq: 59510
  stamp: 
    secs: 22162
    nsecs: 908000000
  frame_id: "map"
pose: 
  position: 
    x: 6.5915344609
    y: -2.3175699877
    z: 0.0399941540924
  orientation: 
    x: 1.96998008115e-05
    y: -1.72732637247e-06
    z: 0.996186794657
    w: 0.0872460300526
---
header: 
  seq: 59511
  stamp: 
    secs: 22162
    nsecs: 918000000
  frame_id: "map"
pose: 
  position: 
    x: 6.59153134466
    y: -2.31756943703
    z: 0.0399960441827
  orientation: 
    x: -1.9699786055e-05
    y: 1.72734772851e-06
    z: 0.9961867947
    w: 0.0872460295617
---
header: 
  seq: 59512
  stamp: 
    secs: 22162
    nsecs: 928000000
  frame_id: "map"
pose: 
  position: 
    x: 6.59153290248
    y: -2.31756971185
    z: 0.0399999991779
  orientation: 
    x: 1.07712404859e-11
    y: 4.53121301114e-12
    z: 0.996186795051
    w: 0.0872460277903
---
header: 
  seq: 59513
  stamp: 
    secs: 22162
    nsecs: 938000000
  frame_id: "map"
pose: 
  position: 
    x: 6.59153446041
    y: -2.31756998683
    z: 0.0399941540924
  orientation: 
    x: 1.96998008162e-05
    y: -1.72732631896e-06
    z: 0.996186794894
    w: 0.0872460273439
---
header: 
  seq: 59514
  stamp: 
    secs: 22162
    nsecs: 948000000
  frame_id: "map"
pose: 
  position: 
    x: 6.59153134417
    y: -2.31756943617
    z: 0.0399960441827
  orientation: 
    x: -1.96997860597e-05
    y: 1.72734767499e-06
    z: 0.996186794937
    w: 0.0872460268531
---
header: 
  seq: 59515
  stamp: 
    secs: 22162
    nsecs: 958000000
  frame_id: "map"
pose: 
  position: 
    x: 6.591532902
    y: -2.31756971098
    z: 0.0399999991779
  orientation: 
    x: 1.07712361898e-11
    y: 4.53119593538e-12
    z: 0.996186795289
    w: 0.0872460250816
---
header: 
  seq: 59516
  stamp: 
    secs: 22162
    nsecs: 968000000
  frame_id: "map"
pose: 
  position: 
    x: 6.59153445993
    y: -2.31756998596
    z: 0.0399941540924
  orientation: 
    x: 1.96998008209e-05
    y: -1.72732626545e-06
    z: 0.996186795131
    w: 0.0872460246353
---
header: 
  seq: 59517
  stamp: 
    secs: 22162
    nsecs: 978000000
  frame_id: "map"
pose: 
  position: 
    x: 6.59153134369
    y: -2.3175694353
    z: 0.0399960441827
  orientation: 
    x: -1.96997860644e-05
    y: 1.72734762149e-06
    z: 0.996186795174
    w: 0.0872460241444
---
header: 
  seq: 59518
  stamp: 
    secs: 22162
    nsecs: 988000000
  frame_id: "map"
pose: 
  position: 
    x: 6.59153290151
    y: -2.31756971011
    z: 0.0399999991779
  orientation: 
    x: 1.07712491629e-11
    y: 4.5311977294e-12
    z: 0.996186795526
    w: 0.087246022373
---
header: 
  seq: 59519
  stamp: 
    secs: 22162
    nsecs: 998000000
  frame_id: "map"
pose: 
  position: 
    x: 6.59153445944
    y: -2.3175699851
    z: 0.0399941540924
  orientation: 
    x: 1.96998008256e-05
    y: -1.72732621191e-06
    z: 0.996186795369
    w: 0.0872460219266
---
header: 
  seq: 59520
  stamp: 
    secs: 22163
    nsecs:   8000000
  frame_id: "map"
pose: 
  position: 
    x: 6.5915313432
    y: -2.31756943443
    z: 0.0399960441827
  orientation: 
    x: -1.96997860691e-05
    y: 1.72734756798e-06
    z: 0.996186795412
    w: 0.0872460214358
---
header: 
  seq: 59521
  stamp: 
    secs: 22163
    nsecs:  18000000
  frame_id: "map"
pose: 
  position: 
    x: 6.59153290103
    y: -2.31756970925
    z: 0.0399999991779
  orientation: 
    x: 1.07712267741e-11
    y: 4.53121636073e-12
    z: 0.996186795763
    w: 0.0872460196643
---
header: 
  seq: 59522
  stamp: 
    secs: 22163
    nsecs:  28000000
  frame_id: "map"
pose: 
  position: 
    x: 6.59153445896
    y: -2.31756998423
    z: 0.0399941540924
  orientation: 
    x: 1.96998008302e-05
    y: -1.72732615842e-06
    z: 0.996186795606
    w: 0.087246019218
---
header: 
  seq: 59523
  stamp: 
    secs: 22163
    nsecs:  38000000
  frame_id: "map"
pose: 
  position: 
    x: 6.59153134272
    y: -2.31756943356
    z: 0.0399960441827
  orientation: 
    x: -1.96997860738e-05
    y: 1.72734751446e-06
    z: 0.996186795649
    w: 0.0872460187271
---
header: 
  seq: 59524
  stamp: 
    secs: 22163
    nsecs:  48000000
  frame_id: "map"
pose: 
  position: 
    x: 6.59153290054
    y: -2.31756970838
    z: 0.0399999991779
  orientation: 
    x: 1.07712391002e-11
    y: 4.53121674867e-12
    z: 0.996186796
    w: 0.0872460169556
---
header: 
  seq: 59525
  stamp: 
    secs: 22163
    nsecs:  58000000
  frame_id: "map"
pose: 
  position: 
    x: 6.59153445847
    y: -2.31756998336
    z: 0.0399941540924
  orientation: 
    x: 1.96998008349e-05
    y: -1.72732610492e-06
    z: 0.996186795843
    w: 0.0872460165093
---
header: 
  seq: 59526
  stamp: 
    secs: 22163
    nsecs:  68000000
  frame_id: "map"
pose: 
  position: 
    x: 6.59153134223
    y: -2.3175694327
    z: 0.0399960441827
  orientation: 
    x: -1.96997860785e-05
    y: 1.72734746096e-06
    z: 0.996186795886
    w: 0.0872460160185
---
header: 
  seq: 59527
  stamp: 
    secs: 22163
    nsecs:  78000000
  frame_id: "map"
pose: 
  position: 
    x: 6.59153290006
    y: -2.31756970751
    z: 0.0399999991779
  orientation: 
    x: 1.07712402318e-11
    y: 4.53120314998e-12
    z: 0.996186796238
    w: 0.087246014247
---
header: 
  seq: 59528
  stamp: 
    secs: 22163
    nsecs:  88000000
  frame_id: "map"
pose: 
  position: 
    x: 6.59153445799
    y: -2.31756998249
    z: 0.0399941540924
  orientation: 
    x: 1.96998008396e-05
    y: -1.72732605142e-06
    z: 0.99618679608
    w: 0.0872460138007
---
header: 
  seq: 59529
  stamp: 
    secs: 22163
    nsecs:  98000000
  frame_id: "map"
pose: 
  position: 
    x: 6.59153134175
    y: -2.31756943183
    z: 0.0399960441827
  orientation: 
    x: -1.96997860832e-05
    y: 1.72734740744e-06
    z: 0.996186796123
    w: 0.0872460133098
---
header: 
  seq: 59530
  stamp: 
    secs: 22163
    nsecs: 108000000
  frame_id: "map"
pose: 
  position: 
    x: 6.59153289957
    y: -2.31756970664
    z: 0.0399999991779
  orientation: 
    x: 1.07712443179e-11
    y: 4.53121190576e-12
    z: 0.996186796475
    w: 0.0872460115383
---
header: 
  seq: 59531
  stamp: 
    secs: 22163
    nsecs: 118000000
  frame_id: "map"
pose: 
  position: 
    x: 6.5915344575
    y: -2.31756998162
    z: 0.0399941540924
  orientation: 
    x: 1.96998008443e-05
    y: -1.72732599787e-06
    z: 0.996186796318
    w: 0.087246011092
---
header: 
  seq: 59532
  stamp: 
    secs: 22163
    nsecs: 128000000
  frame_id: "map"
pose: 
  position: 
    x: 6.59153134126
    y: -2.31756943096
    z: 0.0399960441827
  orientation: 
    x: -1.96997860879e-05
    y: 1.72734735393e-06
    z: 0.996186796361
    w: 0.0872460106012
---
header: 
  seq: 59533
  stamp: 
    secs: 22163
    nsecs: 138000000
  frame_id: "map"
pose: 
  position: 
    x: 6.59153289909
    y: -2.31756970577
    z: 0.0399999991779
  orientation: 
    x: 1.07712382904e-11
    y: 4.53119853408e-12
    z: 0.996186796712
    w: 0.0872460088297
---
header: 
  seq: 59534
  stamp: 
    secs: 22163
    nsecs: 148000000
  frame_id: "map"
pose: 
  position: 
    x: 6.59153445702
    y: -2.31756998076
    z: 0.0399941540924
  orientation: 
    x: 1.9699800849e-05
    y: -1.72732594435e-06
    z: 0.996186796555
    w: 0.0872460083834
---
header: 
  seq: 59535
  stamp: 
    secs: 22163
    nsecs: 158000000
  frame_id: "map"
pose: 
  position: 
    x: 6.59153134078
    y: -2.31756943009
    z: 0.0399960441827
  orientation: 
    x: -1.96997860926e-05
    y: 1.72734730041e-06
    z: 0.996186796598
    w: 0.0872460078925
---
header: 
  seq: 59536
  stamp: 
    secs: 22163
    nsecs: 168000000
  frame_id: "map"
pose: 
  position: 
    x: 6.5915328986
    y: -2.31756970491
    z: 0.0399999991779
  orientation: 
    x: 1.0771216376e-11
    y: 4.53121779137e-12
    z: 0.996186796949
    w: 0.087246006121
---
header: 
  seq: 59537
  stamp: 
    secs: 22163
    nsecs: 178000000
  frame_id: "map"
pose: 
  position: 
    x: 6.59153445653
    y: -2.31756997989
    z: 0.0399941540924
  orientation: 
    x: 1.96998008537e-05
    y: -1.72732589087e-06
    z: 0.996186796792
    w: 0.0872460056747
---
header: 
  seq: 59538
  stamp: 
    secs: 22163
    nsecs: 188000000
  frame_id: "map"
pose: 
  position: 
    x: 6.59153134029
    y: -2.31756942922
    z: 0.0399960441827
  orientation: 
    x: -1.96997860972e-05
    y: 1.72734724691e-06
    z: 0.996186796835
    w: 0.0872460051839
---
header: 
  seq: 59539
  stamp: 
    secs: 22163
    nsecs: 198000000
  frame_id: "map"
pose: 
  position: 
    x: 6.59153289812
    y: -2.31756970404
    z: 0.0399999991779
  orientation: 
    x: 1.07712359763e-11
    y: 4.5312060515e-12
    z: 0.996186797186
    w: 0.0872460034124
---
header: 
  seq: 59540
  stamp: 
    secs: 22163
    nsecs: 208000000
  frame_id: "map"
pose: 
  position: 
    x: 6.59153445605
    y: -2.31756997902
    z: 0.0399941540924
  orientation: 
    x: 1.96998008584e-05
    y: -1.72732583735e-06
    z: 0.996186797029
    w: 0.0872460029661
---
header: 
  seq: 59541
  stamp: 
    secs: 22163
    nsecs: 218000000
  frame_id: "map"
pose: 
  position: 
    x: 6.59153133981
    y: -2.31756942836
    z: 0.0399960441827
  orientation: 
    x: -1.96997861019e-05
    y: 1.7273471934e-06
    z: 0.996186797072
    w: 0.0872460024752
---
header: 
  seq: 59542
  stamp: 
    secs: 22163
    nsecs: 228000000
  frame_id: "map"
pose: 
  position: 
    x: 6.59153289763
    y: -2.31756970317
    z: 0.0399999991779
  orientation: 
    x: 1.0771223613e-11
    y: 4.53120883061e-12
    z: 0.996186797424
    w: 0.0872460007037
---
header: 
  seq: 59543
  stamp: 
    secs: 22163
    nsecs: 238000000
  frame_id: "map"
pose: 
  position: 
    x: 6.59153445556
    y: -2.31756997815
    z: 0.0399941540924
  orientation: 
    x: 1.96998008631e-05
    y: -1.72732578384e-06
    z: 0.996186797266
    w: 0.0872460002574
---
header: 
  seq: 59544
  stamp: 
    secs: 22163
    nsecs: 248000000
  frame_id: "map"
pose: 
  position: 
    x: 6.59153133932
    y: -2.31756942749
    z: 0.0399960441827
  orientation: 
    x: -1.96997861066e-05
    y: 1.72734713989e-06
    z: 0.996186797309
    w: 0.0872459997665
---
header: 
  seq: 59545
  stamp: 
    secs: 22163
    nsecs: 258000000
  frame_id: "map"
pose: 
  position: 
    x: 6.59153289715
    y: -2.3175697023
    z: 0.0399999991779
  orientation: 
    x: 1.07712244465e-11
    y: 4.53120778664e-12
    z: 0.996186797661
    w: 0.0872459979951
---
header: 
  seq: 59546
  stamp: 
    secs: 22163
    nsecs: 268000000
  frame_id: "map"
pose: 
  position: 
    x: 6.59153445508
    y: -2.31756997729
    z: 0.0399941540924
  orientation: 
    x: 1.96998008678e-05
    y: -1.72732573032e-06
    z: 0.996186797504
    w: 0.0872459975488
---
header: 
  seq: 59547
  stamp: 
    secs: 22163
    nsecs: 278000000
  frame_id: "map"
pose: 
  position: 
    x: 6.59153133884
    y: -2.31756942662
    z: 0.0399960441827
  orientation: 
    x: -1.96997861113e-05
    y: 1.72734708639e-06
    z: 0.996186797547
    w: 0.0872459970579
---
header: 
  seq: 59548
  stamp: 
    secs: 22163
    nsecs: 288000000
  frame_id: "map"
pose: 
  position: 
    x: 6.59153289666
    y: -2.31756970144
    z: 0.0399999991779
  orientation: 
    x: 1.077124486e-11
    y: 4.53119435101e-12
    z: 0.996186797898
    w: 0.0872459952864
---
header: 
  seq: 59549
  stamp: 
    secs: 22163
    nsecs: 298000000
  frame_id: "map"
pose: 
  position: 
    x: 6.59153445459
    y: -2.31756997642
    z: 0.0399941540924
  orientation: 
    x: 1.96998008725e-05
    y: -1.72732567682e-06
    z: 0.996186797741
    w: 0.0872459948401
---
header: 
  seq: 59550
  stamp: 
    secs: 22163
    nsecs: 308000000
  frame_id: "map"
pose: 
  position: 
    x: 6.59153133835
    y: -2.31756942575
    z: 0.0399960441827
  orientation: 
    x: -1.9699786116e-05
    y: 1.72734703286e-06
    z: 0.996186797784
    w: 0.0872459943492
---
header: 
  seq: 59551
  stamp: 
    secs: 22163
    nsecs: 318000000
  frame_id: "map"
pose: 
  position: 
    x: 6.59153289618
    y: -2.31756970057
    z: 0.0399999991779
  orientation: 
    x: 1.07712353732e-11
    y: 4.53120908006e-12
    z: 0.996186798135
    w: 0.0872459925778
---
header: 
  seq: 59552
  stamp: 
    secs: 22163
    nsecs: 328000000
  frame_id: "map"
pose: 
  position: 
    x: 6.59153445411
    y: -2.31756997555
    z: 0.0399941540924
  orientation: 
    x: 1.96998008772e-05
    y: -1.72732562329e-06
    z: 0.996186797978
    w: 0.0872459921314
---
header: 
  seq: 59553
  stamp: 
    secs: 22163
    nsecs: 338000000
  frame_id: "map"
pose: 
  position: 
    x: 6.59153133787
    y: -2.31756942489
    z: 0.0399960441827
  orientation: 
    x: -1.96997861207e-05
    y: 1.72734697935e-06
    z: 0.996186798021
    w: 0.0872459916406
---
header: 
  seq: 59554
  stamp: 
    secs: 22163
    nsecs: 348000000
  frame_id: "map"
pose: 
  position: 
    x: 6.59153289569
    y: -2.3175696997
    z: 0.0399999991779
  orientation: 
    x: 1.07712456833e-11
    y: 4.53119363315e-12
    z: 0.996186798373
    w: 0.0872459898691
---
header: 
  seq: 59555
  stamp: 
    secs: 22163
    nsecs: 358000000
  frame_id: "map"
pose: 
  position: 
    x: 6.59153445362
    y: -2.31756997468
    z: 0.0399941540924
  orientation: 
    x: 1.96998008818e-05
    y: -1.72732556978e-06
    z: 0.996186798215
    w: 0.0872459894228
---
header: 
  seq: 59556
  stamp: 
    secs: 22163
    nsecs: 368000000
  frame_id: "map"
pose: 
  position: 
    x: 6.59153133738
    y: -2.31756942402
    z: 0.0399960441827
  orientation: 
    x: -1.96997861254e-05
    y: 1.72734692584e-06
    z: 0.996186798258
    w: 0.0872459889319
---
header: 
  seq: 59557
  stamp: 
    secs: 22163
    nsecs: 378000000
  frame_id: "map"
pose: 
  position: 
    x: 6.59153289521
    y: -2.31756969883
    z: 0.0399999991779
  orientation: 
    x: 1.07712328829e-11
    y: 4.53120570464e-12
    z: 0.99618679861
    w: 0.0872459871605
---
header: 
  seq: 59558
  stamp: 
    secs: 22163
    nsecs: 388000000
  frame_id: "map"
pose: 
  position: 
    x: 6.59153445314
    y: -2.31756997381
    z: 0.0399941540924
  orientation: 
    x: 1.96998008865e-05
    y: -1.72732551628e-06
    z: 0.996186798453
    w: 0.0872459867141
---
header: 
  seq: 59559
  stamp: 
    secs: 22163
    nsecs: 398000000
  frame_id: "map"
pose: 
  position: 
    x: 6.5915313369
    y: -2.31756942315
    z: 0.0399960441827
  orientation: 
    x: -1.96997861301e-05
    y: 1.72734687233e-06
    z: 0.996186798496
    w: 0.0872459862233
---
header: 
  seq: 59560
  stamp: 
    secs: 22163
    nsecs: 408000000
  frame_id: "map"
pose: 
  position: 
    x: 6.59153289472
    y: -2.31756969796
    z: 0.0399999991779
  orientation: 
    x: 1.07712374264e-11
    y: 4.53119911641e-12
    z: 0.996186798847
    w: 0.0872459844518
---
header: 
  seq: 59561
  stamp: 
    secs: 22163
    nsecs: 418000000
  frame_id: "map"
pose: 
  position: 
    x: 6.59153445265
    y: -2.31756997295
    z: 0.0399941540924
  orientation: 
    x: 1.96998008912e-05
    y: -1.72732546276e-06
    z: 0.99618679869
    w: 0.0872459840055
---
header: 
  seq: 59562
  stamp: 
    secs: 22163
    nsecs: 428000000
  frame_id: "map"
pose: 
  position: 
    x: 6.59153133641
    y: -2.31756942228
    z: 0.0399960441827
  orientation: 
    x: -1.96997861348e-05
    y: 1.72734681882e-06
    z: 0.996186798733
    w: 0.0872459835146
---
header: 
  seq: 59563
  stamp: 
    secs: 22163
    nsecs: 438000000
  frame_id: "map"
pose: 
  position: 
    x: 6.59153289424
    y: -2.3175696971
    z: 0.0399999991779
  orientation: 
    x: 1.0771245995e-11
    y: 4.53120694469e-12
    z: 0.996186799084
    w: 0.0872459817432
---
header: 
  seq: 59564
  stamp: 
    secs: 22163
    nsecs: 448000000
  frame_id: "map"
pose: 
  position: 
    x: 6.59153445217
    y: -2.31756997208
    z: 0.0399941540924
  orientation: 
    x: 1.96998008959e-05
    y: -1.72732540925e-06
    z: 0.996186798927
    w: 0.0872459812968
---
header: 
  seq: 59565
  stamp: 
    secs: 22163
    nsecs: 458000000
  frame_id: "map"
pose: 
  position: 
    x: 6.59153133593
    y: -2.31756942142
    z: 0.0399960441827
  orientation: 
    x: -1.96997861395e-05
    y: 1.7273467653e-06
    z: 0.99618679897
    w: 0.087245980806
---
header: 
  seq: 59566
  stamp: 
    secs: 22163
    nsecs: 468000000
  frame_id: "map"
pose: 
  position: 
    x: 6.59153289375
    y: -2.31756969623
    z: 0.0399999991779
  orientation: 
    x: 1.07712435793e-11
    y: 4.53120402285e-12
    z: 0.996186799321
    w: 0.0872459790345
---
header: 
  seq: 59567
  stamp: 
    secs: 22163
    nsecs: 478000000
  frame_id: "map"
pose: 
  position: 
    x: 6.59153445168
    y: -2.31756997121
    z: 0.0399941540924
  orientation: 
    x: 1.96998009006e-05
    y: -1.72732535575e-06
    z: 0.996186799164
    w: 0.0872459785882
---
header: 
  seq: 59568
  stamp: 
    secs: 22163
    nsecs: 488000000
  frame_id: "map"
pose: 
  position: 
    x: 6.59153133544
    y: -2.31756942055
    z: 0.0399960441827
  orientation: 
    x: -1.96997861441e-05
    y: 1.72734671179e-06
    z: 0.996186799207
    w: 0.0872459780973
---
header: 
  seq: 59569
  stamp: 
    secs: 22163
    nsecs: 498000000
  frame_id: "map"
pose: 
  position: 
    x: 6.59153289327
    y: -2.31756969536
    z: 0.0399999991779
  orientation: 
    x: 1.07712371757e-11
    y: 4.53121383488e-12
    z: 0.996186799559
    w: 0.0872459763259
---
header: 
  seq: 59570
  stamp: 
    secs: 22163
    nsecs: 508000000
  frame_id: "map"
pose: 
  position: 
    x: 6.5915344512
    y: -2.31756997034
    z: 0.0399941540924
  orientation: 
    x: 1.96998009053e-05
    y: -1.72732530223e-06
    z: 0.996186799401
    w: 0.0872459758795
---
header: 
  seq: 59571
  stamp: 
    secs: 22163
    nsecs: 518000000
  frame_id: "map"
pose: 
  position: 
    x: 6.59153133496
    y: -2.31756941968
    z: 0.0399960441827
  orientation: 
    x: -1.96997861488e-05
    y: 1.72734665828e-06
    z: 0.996186799444
    w: 0.0872459753887
---
header: 
  seq: 59572
  stamp: 
    secs: 22163
    nsecs: 528000000
  frame_id: "map"
pose: 
  position: 
    x: 6.59153289278
    y: -2.31756969449
    z: 0.0399999991779
  orientation: 
    x: 1.07712454766e-11
    y: 4.53119883054e-12
    z: 0.996186799796
    w: 0.0872459736172
---
header: 
  seq: 59573
  stamp: 
    secs: 22163
    nsecs: 538000000
  frame_id: "map"
pose: 
  position: 
    x: 6.59153445071
    y: -2.31756996948
    z: 0.0399941540924
  orientation: 
    x: 1.969980091e-05
    y: -1.72732524871e-06
    z: 0.996186799639
    w: 0.0872459731709
---
header: 
  seq: 59574
  stamp: 
    secs: 22163
    nsecs: 548000000
  frame_id: "map"
pose: 
  position: 
    x: 6.59153133447
    y: -2.31756941881
    z: 0.0399960441827
  orientation: 
    x: -1.96997861535e-05
    y: 1.72734660478e-06
    z: 0.996186799682
    w: 0.08724597268
---
header: 
  seq: 59575
  stamp: 
    secs: 22163
    nsecs: 558000000
  frame_id: "map"
pose: 
  position: 
    x: 6.5915328923
    y: -2.31756969363
    z: 0.0399999991779
  orientation: 
    x: 1.07712467811e-11
    y: 4.53120631704e-12
    z: 0.996186800033
    w: 0.0872459709086
---
header: 
  seq: 59576
  stamp: 
    secs: 22163
    nsecs: 568000000
  frame_id: "map"
pose: 
  position: 
    x: 6.59153445023
    y: -2.31756996861
    z: 0.0399941540924
  orientation: 
    x: 1.96998009147e-05
    y: -1.72732519519e-06
    z: 0.996186799876
    w: 0.0872459704622
---
header: 
  seq: 59577
  stamp: 
    secs: 22163
    nsecs: 578000000
  frame_id: "map"
pose: 
  position: 
    x: 6.59153133399
    y: -2.31756941794
    z: 0.0399960441827
  orientation: 
    x: -1.96997861582e-05
    y: 1.72734655126e-06
    z: 0.996186799919
    w: 0.0872459699714
---
header: 
  seq: 59578
  stamp: 
    secs: 22163
    nsecs: 588000000
  frame_id: "map"
pose: 
  position: 
    x: 6.59153289181
    y: -2.31756969276
    z: 0.0399999991779
  orientation: 
    x: 1.07712446974e-11
    y: 4.53119901858e-12
    z: 0.99618680027
    w: 0.0872459681999
---
header: 
  seq: 59579
  stamp: 
    secs: 22163
    nsecs: 598000000
  frame_id: "map"
pose: 
  position: 
    x: 6.59153444974
    y: -2.31756996774
    z: 0.0399941540924
  orientation: 
    x: 1.96998009193e-05
    y: -1.7273251417e-06
    z: 0.996186800113
    w: 0.0872459677536
---
header: 
  seq: 59580
  stamp: 
    secs: 22163
    nsecs: 608000000
  frame_id: "map"
pose: 
  position: 
    x: 6.5915313335
    y: -2.31756941708
    z: 0.0399960441827
  orientation: 
    x: -1.96997861629e-05
    y: 1.72734649774e-06
    z: 0.996186800156
    w: 0.0872459672627
---
header: 
  seq: 59581
  stamp: 
    secs: 22163
    nsecs: 618000000
  frame_id: "map"
pose: 
  position: 
    x: 6.59153289133
    y: -2.31756969189
    z: 0.0399999991779
  orientation: 
    x: 1.0771240286e-11
    y: 4.53121446719e-12
    z: 0.996186800508
    w: 0.0872459654913
---
header: 
  seq: 59582
  stamp: 
    secs: 22163
    nsecs: 628000000
  frame_id: "map"
pose: 
  position: 
    x: 6.59153444926
    y: -2.31756996687
    z: 0.0399941540924
  orientation: 
    x: 1.9699800924e-05
    y: -1.72732508817e-06
    z: 0.99618680035
    w: 0.0872459650449
---
header: 
  seq: 59583
  stamp: 
    secs: 22163
    nsecs: 638000000
  frame_id: "map"
pose: 
  position: 
    x: 6.59153133302
    y: -2.31756941621
    z: 0.0399960441827
  orientation: 
    x: -1.96997861676e-05
    y: 1.72734644424e-06
    z: 0.996186800393
    w: 0.0872459645541
---
header: 
  seq: 59584
  stamp: 
    secs: 22163
    nsecs: 648000000
  frame_id: "map"
pose: 
  position: 
    x: 6.59153289084
    y: -2.31756969102
    z: 0.0399999991779
  orientation: 
    x: 1.07712304536e-11
    y: 4.5312130933e-12
    z: 0.996186800745
    w: 0.0872459627826
---
header: 
  seq: 59585
  stamp: 
    secs: 22163
    nsecs: 658000000
  frame_id: "map"
pose: 
  position: 
    x: 6.59153444877
    y: -2.317569966
    z: 0.0399941540924
  orientation: 
    x: 1.96998009287e-05
    y: -1.72732503465e-06
    z: 0.996186800588
    w: 0.0872459623363
---
header: 
  seq: 59586
  stamp: 
    secs: 22163
    nsecs: 668000000
  frame_id: "map"
pose: 
  position: 
    x: 6.59153133253
    y: -2.31756941534
    z: 0.0399960441827
  orientation: 
    x: -1.96997861723e-05
    y: 1.72734639072e-06
    z: 0.996186800631
    w: 0.0872459618454
---
header: 
  seq: 59587
  stamp: 
    secs: 22163
    nsecs: 678000000
  frame_id: "map"
pose: 
  position: 
    x: 6.59153289036
    y: -2.31756969015
    z: 0.0399999991779
  orientation: 
    x: 1.07712409873e-11
    y: 4.5312133885e-12
    z: 0.996186800982
    w: 0.087245960074
---
header: 
  seq: 59588
  stamp: 
    secs: 22163
    nsecs: 688000000
  frame_id: "map"
pose: 
  position: 
    x: 6.59153444829
    y: -2.31756996514
    z: 0.0399941540924
  orientation: 
    x: 1.96998009334e-05
    y: -1.72732498117e-06
    z: 0.996186800825
    w: 0.0872459596276
---
header: 
  seq: 59589
  stamp: 
    secs: 22163
    nsecs: 698000000
  frame_id: "map"
pose: 
  position: 
    x: 6.59153133205
    y: -2.31756941447
    z: 0.0399960441827
  orientation: 
    x: -1.9699786177e-05
    y: 1.72734633722e-06
    z: 0.996186800868
    w: 0.0872459591368
---
header: 
  seq: 59590
  stamp: 
    secs: 22163
    nsecs: 708000000
  frame_id: "map"
pose: 
  position: 
    x: 6.59153288987
    y: -2.31756968929
    z: 0.0399999991779
  orientation: 
    x: 1.0771221387e-11
    y: 4.5312208229e-12
    z: 0.996186801219
    w: 0.0872459573653
---
header: 
  seq: 59591
  stamp: 
    secs: 22163
    nsecs: 718000000
  frame_id: "map"
pose: 
  position: 
    x: 6.5915344478
    y: -2.31756996427
    z: 0.0399941540924
  orientation: 
    x: 1.96998009381e-05
    y: -1.72732492765e-06
    z: 0.996186801062
    w: 0.087245956919
---
header: 
  seq: 59592
  stamp: 
    secs: 22163
    nsecs: 728000000
  frame_id: "map"
pose: 
  position: 
    x: 6.59153133156
    y: -2.31756941361
    z: 0.0399960441827
  orientation: 
    x: -1.96997861817e-05
    y: 1.72734628371e-06
    z: 0.996186801105
    w: 0.0872459564281
---
header: 
  seq: 59593
  stamp: 
    secs: 22163
    nsecs: 738000000
  frame_id: "map"
pose: 
  position: 
    x: 6.59153288939
    y: -2.31756968842
    z: 0.0399999991779
  orientation: 
    x: 1.07712436911e-11
    y: 4.53120418379e-12
    z: 0.996186801456
    w: 0.0872459546567
---
header: 
  seq: 59594
  stamp: 
    secs: 22163
    nsecs: 748000000
  frame_id: "map"
pose: 
  position: 
    x: 6.59153444732
    y: -2.3175699634
    z: 0.0399941540924
  orientation: 
    x: 1.96998009428e-05
    y: -1.72732487411e-06
    z: 0.996186801299
    w: 0.0872459542103
---
header: 
  seq: 59595
  stamp: 
    secs: 22163
    nsecs: 758000000
  frame_id: "map"
pose: 
  position: 
    x: 6.59153133108
    y: -2.31756941274
    z: 0.0399960441827
  orientation: 
    x: -1.96997861863e-05
    y: 1.72734623019e-06
    z: 0.996186801342
    w: 0.0872459537195
---
header: 
  seq: 59596
  stamp: 
    secs: 22163
    nsecs: 768000000
  frame_id: "map"
pose: 
  position: 
    x: 6.5915328889
    y: -2.31756968755
    z: 0.0399999991779
  orientation: 
    x: 1.07712252698e-11
    y: 4.53121946087e-12
    z: 0.996186801694
    w: 0.087245951948
---
header: 
  seq: 59597
  stamp: 
    secs: 22163
    nsecs: 778000000
  frame_id: "map"
pose: 
  position: 
    x: 6.59153444683
    y: -2.31756996253
    z: 0.0399941540924
  orientation: 
    x: 1.96998009475e-05
    y: -1.72732482064e-06
    z: 0.996186801536
    w: 0.0872459515017
---
header: 
  seq: 59598
  stamp: 
    secs: 22163
    nsecs: 788000000
  frame_id: "map"
pose: 
  position: 
    x: 6.59153133059
    y: -2.31756941187
    z: 0.0399960441827
  orientation: 
    x: -1.9699786191e-05
    y: 1.72734617669e-06
    z: 0.996186801579
    w: 0.0872459510108
---
header: 
  seq: 59599
  stamp: 
    secs: 22163
    nsecs: 798000000
  frame_id: "map"
pose: 
  position: 
    x: 6.59153288842
    y: -2.31756968668
    z: 0.0399999991779
  orientation: 
    x: 1.07712367623e-11
    y: 4.5311992998e-12
    z: 0.996186801931
    w: 0.0872459492394
---
header: 
  seq: 59600
  stamp: 
    secs: 22163
    nsecs: 808000000
  frame_id: "map"
pose: 
  position: 
    x: 6.59153444635
    y: -2.31756996167
    z: 0.0399941540924
  orientation: 
    x: 1.96998009522e-05
    y: -1.72732476712e-06
    z: 0.996186801774
    w: 0.087245948793
---
header: 
  seq: 59601
  stamp: 
    secs: 22163
    nsecs: 818000000
  frame_id: "map"
pose: 
  position: 
    x: 6.59153133011
    y: -2.317569411
    z: 0.0399960441827
  orientation: 
    x: -1.96997861957e-05
    y: 1.72734612317e-06
    z: 0.996186801817
    w: 0.0872459483022
---
header: 
  seq: 59602
  stamp: 
    secs: 22163
    nsecs: 828000000
  frame_id: "map"
pose: 
  position: 
    x: 6.59153288793
    y: -2.31756968582
    z: 0.0399999991779
  orientation: 
    x: 1.07712253172e-11
    y: 4.53121000587e-12
    z: 0.996186802168
    w: 0.0872459465307
---
header: 
  seq: 59603
  stamp: 
    secs: 22163
    nsecs: 838000000
  frame_id: "map"
pose: 
  position: 
    x: 6.59153444586
    y: -2.3175699608
    z: 0.0399941540924
  orientation: 
    x: 1.96998009569e-05
    y: -1.72732471363e-06
    z: 0.996186802011
    w: 0.0872459460844
---
header: 
  seq: 59604
  stamp: 
    secs: 22163
    nsecs: 848000000
  frame_id: "map"
pose: 
  position: 
    x: 6.59153132962
    y: -2.31756941013
    z: 0.0399960441827
  orientation: 
    x: -1.96997862004e-05
    y: 1.72734606966e-06
    z: 0.996186802054
    w: 0.0872459455935
---
header: 
  seq: 59605
  stamp: 
    secs: 22163
    nsecs: 858000000
  frame_id: "map"
pose: 
  position: 
    x: 6.59153288745
    y: -2.31756968495
    z: 0.0399999991779
  orientation: 
    x: 1.07712342619e-11
    y: 4.53120846512e-12
    z: 0.996186802405
    w: 0.0872459438221
---
header: 
  seq: 59606
  stamp: 
    secs: 22163
    nsecs: 868000000
  frame_id: "map"
pose: 
  position: 
    x: 6.59153444538
    y: -2.31756995993
    z: 0.0399941540924
  orientation: 
    x: 1.96998009616e-05
    y: -1.7273246601e-06
    z: 0.996186802248
    w: 0.0872459433757
---
header: 
  seq: 59607
  stamp: 
    secs: 22163
    nsecs: 878000000
  frame_id: "map"
pose: 
  position: 
    x: 6.59153132914
    y: -2.31756940927
    z: 0.0399960441827
  orientation: 
    x: -1.96997862051e-05
    y: 1.72734601615e-06
    z: 0.996186802291
    w: 0.0872459428849
---
header: 
  seq: 59608
  stamp: 
    secs: 22163
    nsecs: 888000000
  frame_id: "map"
pose: 
  position: 
    x: 6.59153288696
    y: -2.31756968408
    z: 0.0399999991779
  orientation: 
    x: 1.07712335606e-11
    y: 4.53121661866e-12
    z: 0.996186802643
    w: 0.0872459411134
---
header: 
  seq: 59609
  stamp: 
    secs: 22163
    nsecs: 898000000
  frame_id: "map"
pose: 
  position: 
    x: 6.59153444489
    y: -2.31756995906
    z: 0.0399941540924
  orientation: 
    x: 1.96998009662e-05
    y: -1.72732460659e-06
    z: 0.996186802485
    w: 0.0872459406671
---
header: 
  seq: 59610
  stamp: 
    secs: 22163
    nsecs: 908000000
  frame_id: "map"
pose: 
  position: 
    x: 6.59153132865
    y: -2.3175694084
    z: 0.0399960441827
  orientation: 
    x: -1.96997862098e-05
    y: 1.72734596264e-06
    z: 0.996186802528
    w: 0.0872459401762
---
header: 
  seq: 59611
  stamp: 
    secs: 22163
    nsecs: 918000000
  frame_id: "map"
pose: 
  position: 
    x: 6.59153288648
    y: -2.31756968321
    z: 0.0399999991779
  orientation: 
    x: 1.07712372943e-11
    y: 4.531214687e-12
    z: 0.99618680288
    w: 0.0872459384048
---
header: 
  seq: 59612
  stamp: 
    secs: 22163
    nsecs: 928000000
  frame_id: "map"
pose: 
  position: 
    x: 6.59153444441
    y: -2.31756995819
    z: 0.0399941540924
  orientation: 
    x: 1.96998009709e-05
    y: -1.72732455309e-06
    z: 0.996186802723
    w: 0.0872459379585
---
header: 
  seq: 59613
  stamp: 
    secs: 22163
    nsecs: 938000000
  frame_id: "map"
pose: 
  position: 
    x: 6.59153132817
    y: -2.31756940753
    z: 0.0399960441827
  orientation: 
    x: -1.96997862145e-05
    y: 1.72734590913e-06
    z: 0.996186802766
    w: 0.0872459374676
---
header: 
  seq: 59614
  stamp: 
    secs: 22163
    nsecs: 948000000
  frame_id: "map"
pose: 
  position: 
    x: 6.59153288599
    y: -2.31756968234
    z: 0.0399999991779
  orientation: 
    x: 1.07712249547e-11
    y: 4.53120893522e-12
    z: 0.996186803117
    w: 0.0872459356961
---
header: 
  seq: 59615
  stamp: 
    secs: 22163
    nsecs: 958000000
  frame_id: "map"
pose: 
  position: 
    x: 6.59153444392
    y: -2.31756995733
    z: 0.0399941540924
  orientation: 
    x: 1.96998009756e-05
    y: -1.72732449954e-06
    z: 0.99618680296
    w: 0.0872459352498
---
header: 
  seq: 59616
  stamp: 
    secs: 22163
    nsecs: 968000000
  frame_id: "map"
pose: 
  position: 
    x: 6.59153132768
    y: -2.31756940666
    z: 0.0399960441827
  orientation: 
    x: -1.96997862192e-05
    y: 1.72734585561e-06
    z: 0.996186803003
    w: 0.087245934759
---
header: 
  seq: 59617
  stamp: 
    secs: 22163
    nsecs: 978000000
  frame_id: "map"
pose: 
  position: 
    x: 6.59153288551
    y: -2.31756968148
    z: 0.0399999991779
  orientation: 
    x: 1.07712337571e-11
    y: 4.53120657454e-12
    z: 0.996186803354
    w: 0.0872459329875
---
header: 
  seq: 59618
  stamp: 
    secs: 22163
    nsecs: 988000000
  frame_id: "map"
pose: 
  position: 
    x: 6.59153444344
    y: -2.31756995646
    z: 0.0399941540924
  orientation: 
    x: 1.96998009803e-05
    y: -1.72732444604e-06
    z: 0.996186803197
    w: 0.0872459325412
---
header: 
  seq: 59619
  stamp: 
    secs: 22163
    nsecs: 998000000
  frame_id: "map"
pose: 
  position: 
    x: 6.5915313272
    y: -2.3175694058
    z: 0.0399960441827
  orientation: 
    x: -1.96997862239e-05
    y: 1.72734580209e-06
    z: 0.99618680324
    w: 0.0872459320503
---
header: 
  seq: 59620
  stamp: 
    secs: 22164
    nsecs:   8000000
  frame_id: "map"
pose: 
  position: 
    x: 6.59153288502
    y: -2.31756968061
    z: 0.0399999991779
  orientation: 
    x: 1.07712393577e-11
    y: 4.53119320201e-12
    z: 0.996186803591
    w: 0.0872459302788
---
header: 
  seq: 59621
  stamp: 
    secs: 22164
    nsecs:  18000000
  frame_id: "map"
pose: 
  position: 
    x: 6.59153444295
    y: -2.31756995559
    z: 0.0399941540924
  orientation: 
    x: 1.9699800985e-05
    y: -1.72732439253e-06
    z: 0.996186803434
    w: 0.0872459298325
---
header: 
  seq: 59622
  stamp: 
    secs: 22164
    nsecs:  28000000
  frame_id: "map"
pose: 
  position: 
    x: 6.59153132671
    y: -2.31756940493
    z: 0.0399960441827
  orientation: 
    x: -1.96997862286e-05
    y: 1.72734574858e-06
    z: 0.996186803477
    w: 0.0872459293417
---
header: 
  seq: 59623
  stamp: 
    secs: 22164
    nsecs:  38000000
  frame_id: "map"
pose: 
  position: 
    x: 6.59153288454
    y: -2.31756967974
    z: 0.0399999991779
  orientation: 
    x: 1.07712409501e-11
    y: 4.53120640217e-12
    z: 0.996186803829
    w: 0.0872459275702
---
header: 
  seq: 59624
  stamp: 
    secs: 22164
    nsecs:  48000000
  frame_id: "map"
pose: 
  position: 
    x: 6.59153444247
    y: -2.31756995472
    z: 0.0399941540924
  orientation: 
    x: 1.96998009897e-05
    y: -1.72732433903e-06
    z: 0.996186803671
    w: 0.0872459271239
---
header: 
  seq: 59625
  stamp: 
    secs: 22164
    nsecs:  58000000
  frame_id: "map"
pose: 
  position: 
    x: 6.59153132622
    y: -2.31756940406
    z: 0.0399960441827
  orientation: 
    x: -1.96997862333e-05
    y: 1.72734569508e-06
    z: 0.996186803714
    w: 0.087245926633
---
header: 
  seq: 59626
  stamp: 
    secs: 22164
    nsecs:  68000000
  frame_id: "map"
pose: 
  position: 
    x: 6.59153288405
    y: -2.31756967887
    z: 0.0399999991779
  orientation: 
    x: 1.07712409297e-11
    y: 4.53120488217e-12
    z: 0.996186804066
    w: 0.0872459248615
---
header: 
  seq: 59627
  stamp: 
    secs: 22164
    nsecs:  78000000
  frame_id: "map"
pose: 
  position: 
    x: 6.59153444198
    y: -2.31756995386
    z: 0.0399941540924
  orientation: 
    x: 1.96998009944e-05
    y: -1.72732428551e-06
    z: 0.996186803909
    w: 0.0872459244152
---
header: 
  seq: 59628
  stamp: 
    secs: 22164
    nsecs:  88000000
  frame_id: "map"
pose: 
  position: 
    x: 6.59153132574
    y: -2.31756940319
    z: 0.0399960441827
  orientation: 
    x: -1.96997862379e-05
    y: 1.72734564157e-06
    z: 0.996186803952
    w: 0.0872459239244
---
header: 
  seq: 59629
  stamp: 
    secs: 22164
    nsecs:  98000000
  frame_id: "map"
pose: 
  position: 
    x: 6.59153288357
    y: -2.31756967801
    z: 0.0399999991779
  orientation: 
    x: 1.07712348684e-11
    y: 4.53120156561e-12
    z: 0.996186804303
    w: 0.0872459221529
---
header: 
  seq: 59630
  stamp: 
    secs: 22164
    nsecs: 108000000
  frame_id: "map"
pose: 
  position: 
    x: 6.59153444149
    y: -2.31756995299
    z: 0.0399941540924
  orientation: 
    x: 1.96998009991e-05
    y: -1.72732423201e-06
    z: 0.996186804146
    w: 0.0872459217066
---
header: 
  seq: 59631
  stamp: 
    secs: 22164
    nsecs: 118000000
  frame_id: "map"
pose: 
  position: 
    x: 6.59153132525
    y: -2.31756940232
    z: 0.0399960441827
  orientation: 
    x: -1.96997862426e-05
    y: 1.72734558805e-06
    z: 0.996186804189
    w: 0.0872459212157
---
header: 
  seq: 59632
  stamp: 
    secs: 22164
    nsecs: 128000000
  frame_id: "map"
pose: 
  position: 
    x: 6.59153288308
    y: -2.31756967714
    z: 0.0399999991779
  orientation: 
    x: 1.07712412482e-11
    y: 4.53120903178e-12
    z: 0.99618680454
    w: 0.0872459194442
---
header: 
  seq: 59633
  stamp: 
    secs: 22164
    nsecs: 138000000
  frame_id: "map"
pose: 
  position: 
    x: 6.59153444101
    y: -2.31756995212
    z: 0.0399941540924
  orientation: 
    x: 1.96998010038e-05
    y: -1.72732417849e-06
    z: 0.996186804383
    w: 0.0872459189979
---
header: 
  seq: 59634
  stamp: 
    secs: 22164
    nsecs: 148000000
  frame_id: "map"
pose: 
  position: 
    x: 6.59153132477
    y: -2.31756940146
    z: 0.0399960441827
  orientation: 
    x: -1.96997862473e-05
    y: 1.72734553454e-06
    z: 0.996186804426
    w: 0.0872459185071
---
header: 
  seq: 59635
  stamp: 
    secs: 22164
    nsecs: 158000000
  frame_id: "map"
pose: 
  position: 
    x: 6.5915328826
    y: -2.31756967627
    z: 0.0399999991779
  orientation: 
    x: 1.07712412279e-11
    y: 4.53120968993e-12
    z: 0.996186804778
    w: 0.0872459167356
---
header: 
  seq: 59636
  stamp: 
    secs: 22164
    nsecs: 168000000
  frame_id: "map"
pose: 
  position: 
    x: 6.59153444052
    y: -2.31756995125
    z: 0.0399941540924
  orientation: 
    x: 1.96998010084e-05
    y: -1.72732412497e-06
    z: 0.99618680462
    w: 0.0872459162893
---
header: 
  seq: 59637
  stamp: 
    secs: 22164
    nsecs: 178000000
  frame_id: "map"
pose: 
  position: 
    x: 6.59153132428
    y: -2.31756940059
    z: 0.0399960441827
  orientation: 
    x: -1.9699786252e-05
    y: 1.72734548104e-06
    z: 0.996186804663
    w: 0.0872459157984
---
header: 
  seq: 59638
  stamp: 
    secs: 22164
    nsecs: 188000000
  frame_id: "map"
pose: 
  position: 
    x: 6.59153288211
    y: -2.3175696754
    z: 0.0399999991779
  orientation: 
    x: 1.07712375077e-11
    y: 4.53121396109e-12
    z: 0.996186805015
    w: 0.087245914027
---
header: 
  seq: 59639
  stamp: 
    secs: 22164
    nsecs: 198000000
  frame_id: "map"
pose: 
  position: 
    x: 6.59153444004
    y: -2.31756995038
    z: 0.0399941540924
  orientation: 
    x: 1.96998010131e-05
    y: -1.72732407146e-06
    z: 0.996186804858
    w: 0.0872459135806
---
header: 
  seq: 59640
  stamp: 
    secs: 22164
    nsecs: 208000000
  frame_id: "map"
pose: 
  position: 
    x: 6.5915313238
    y: -2.31756939972
    z: 0.0399960441827
  orientation: 
    x: -1.96997862567e-05
    y: 1.72734542752e-06
    z: 0.996186804901
    w: 0.0872459130898
---
header: 
  seq: 59641
  stamp: 
    secs: 22164
    nsecs: 218000000
  frame_id: "map"
pose: 
  position: 
    x: 6.59153288162
    y: -2.31756967453
    z: 0.0399999991779
  orientation: 
    x: 1.07712327745e-11
    y: 4.53120234149e-12
    z: 0.996186805252
    w: 0.0872459113183
---
header: 
  seq: 59642
  stamp: 
    secs: 22164
    nsecs: 228000000
  frame_id: "map"
pose: 
  position: 
    x: 6.59153443955
    y: -2.31756994952
    z: 0.0399941540924
  orientation: 
    x: 1.96998010178e-05
    y: -1.72732401795e-06
    z: 0.996186805095
    w: 0.087245910872
---
header: 
  seq: 59643
  stamp: 
    secs: 22164
    nsecs: 238000000
  frame_id: "map"
pose: 
  position: 
    x: 6.59153132331
    y: -2.31756939885
    z: 0.0399960441827
  orientation: 
    x: -1.96997862614e-05
    y: 1.727345374e-06
    z: 0.996186805138
    w: 0.0872459103811
---
header: 
  seq: 59644
  stamp: 
    secs: 22164
    nsecs: 248000000
  frame_id: "map"
pose: 
  position: 
    x: 6.59153288114
    y: -2.31756967367
    z: 0.0399999991779
  orientation: 
    x: 1.077123641e-11
    y: 4.5311997826e-12
    z: 0.996186805489
    w: 0.0872459086097
---
header: 
  seq: 59645
  stamp: 
    secs: 22164
    nsecs: 258000000
  frame_id: "map"
pose: 
  position: 
    x: 6.59153443907
    y: -2.31756994865
    z: 0.0399941540924
  orientation: 
    x: 1.96998010225e-05
    y: -1.72732396444e-06
    z: 0.996186805332
    w: 0.0872459081633
---
header: 
  seq: 59646
  stamp: 
    secs: 22164
    nsecs: 268000000
  frame_id: "map"
pose: 
  position: 
    x: 6.59153132283
    y: -2.31756939799
    z: 0.0399960441827
  orientation: 
    x: -1.96997862661e-05
    y: 1.7273453205e-06
    z: 0.996186805375
    w: 0.0872459076725
---
header: 
  seq: 59647
  stamp: 
    secs: 22164
    nsecs: 278000000
  frame_id: "map"
pose: 
  position: 
    x: 6.59153288065
    y: -2.3175696728
    z: 0.0399999991779
  orientation: 
    x: 1.07712363016e-11
    y: 4.53120243382e-12
    z: 0.996186805726
    w: 0.087245905901
---
header: 
  seq: 59648
  stamp: 
    secs: 22164
    nsecs: 288000000
  frame_id: "map"
pose: 
  position: 
    x: 6.59153443858
    y: -2.31756994778
    z: 0.0399941540924
  orientation: 
    x: 1.96998010272e-05
    y: -1.72732391092e-06
    z: 0.996186805569
    w: 0.0872459054547
---
header: 
  seq: 59649
  stamp: 
    secs: 22164
    nsecs: 298000000
  frame_id: "map"
pose: 
  position: 
    x: 6.59153132234
    y: -2.31756939712
    z: 0.0399960441827
  orientation: 
    x: -1.96997862708e-05
    y: 1.72734526698e-06
    z: 0.996186805612
    w: 0.0872459049638
---
header: 
  seq: 59650
  stamp: 
    secs: 22164
    nsecs: 308000000
  frame_id: "map"
pose: 
  position: 
    x: 6.59153288017
    y: -2.31756967193
    z: 0.0399999991779
  orientation: 
    x: 1.07712321714e-11
    y: 4.5312196379e-12
    z: 0.996186805964
    w: 0.0872459031924
---
header: 
  seq: 59651
  stamp: 
    secs: 22164
    nsecs: 318000000
  frame_id: "map"
pose: 
  position: 
    x: 6.5915344381
    y: -2.31756994691
    z: 0.0399941540924
  orientation: 
    x: 1.96998010319e-05
    y: -1.72732385743e-06
    z: 0.996186805807
    w: 0.087245902746
---
header: 
  seq: 59652
  stamp: 
    secs: 22164
    nsecs: 328000000
  frame_id: "map"
pose: 
  position: 
    x: 6.59153132186
    y: -2.31756939625
    z: 0.0399960441827
  orientation: 
    x: -1.96997862755e-05
    y: 1.72734521348e-06
    z: 0.996186805849
    w: 0.0872459022552
---
header: 
  seq: 59653
  stamp: 
    secs: 22164
    nsecs: 338000000
  frame_id: "map"
pose: 
  position: 
    x: 6.59153287968
    y: -2.31756967106
    z: 0.0399999991779
  orientation: 
    x: 1.0771232639e-11
    y: 4.53121196633e-12
    z: 0.996186806201
    w: 0.0872459004837
---
header: 
  seq: 59654
  stamp: 
    secs: 22164
    nsecs: 348000000
  frame_id: "map"
pose: 
  position: 
    x: 6.59153443761
    y: -2.31756994605
    z: 0.0399941540924
  orientation: 
    x: 1.96998010366e-05
    y: -1.72732380394e-06
    z: 0.996186806044
    w: 0.0872459000374
---
header: 
  seq: 59655
  stamp: 
    secs: 22164
    nsecs: 358000000
  frame_id: "map"
pose: 
  position: 
    x: 6.59153132137
    y: -2.31756939538
    z: 0.0399960441827
  orientation: 
    x: -1.96997862801e-05
    y: 1.72734515996e-06
    z: 0.996186806087
    w: 0.0872458995465
---
header: 
  seq: 59656
  stamp: 
    secs: 22164
    nsecs: 368000000
  frame_id: "map"
pose: 
  position: 
    x: 6.5915328792
    y: -2.3175696702
    z: 0.0399999991779
  orientation: 
    x: 1.07712414922e-11
    y: 4.5312116326e-12
    z: 0.996186806438
    w: 0.0872458977751
---
header: 
  seq: 59657
  stamp: 
    secs: 22164
    nsecs: 378000000
  frame_id: "map"
pose: 
  position: 
    x: 6.59153443713
    y: -2.31756994518
    z: 0.0399941540924
  orientation: 
    x: 1.96998010413e-05
    y: -1.7273237504e-06
    z: 0.996186806281
    w: 0.0872458973288
---
header: 
  seq: 59658
  stamp: 
    secs: 22164
    nsecs: 388000000
  frame_id: "map"
pose: 
  position: 
    x: 6.59153132089
    y: -2.31756939452
    z: 0.0399960441827
  orientation: 
    x: -1.96997862848e-05
    y: 1.72734510645e-06
    z: 0.996186806324
    w: 0.0872458968379
---
header: 
  seq: 59659
  stamp: 
    secs: 22164
    nsecs: 398000000
  frame_id: "map"
pose: 
  position: 
    x: 6.59153287871
    y: -2.31756966933
    z: 0.0399999991779
  orientation: 
    x: 1.07712289222e-11
    y: 4.53121753938e-12
    z: 0.996186806675
    w: 0.0872458950664
---
header: 
  seq: 59660
  stamp: 
    secs: 22164
    nsecs: 408000000
  frame_id: "map"
pose: 
