header: 
  seq: 132
  stamp: 
    secs: 21733
    nsecs: 905000000
  frame_id: "world"
pose: 
  position: 
    x: 6.00604607826e-06
    y: -2.21557129407e-05
    z: 8.12714497442e-05
  orientation: 
    x: 1.65966084695e-05
    y: -1.58287748438e-05
    z: 1.19027126817e-05
    w: 0.999999999666
---
header: 
  seq: 133
  stamp: 
    secs: 21734
    nsecs: 107000000
  frame_id: "world"
pose: 
  position: 
    x: 0.000131828375743
    y: -0.000109174092358
    z: 0.000207555538509
  orientation: 
    x: -1.6635194638e-05
    y: -7.67414091561e-05
    z: -3.10913454797e-05
    w: 0.999999996434
---
header: 
  seq: 134
  stamp: 
    secs: 21734
    nsecs: 361000000
  frame_id: "world"
pose: 
  position: 
    x: 4.49755680165e-06
    y: 1.43181350722e-05
    z: -3.43222891388e-05
  orientation: 
    x: 6.12831126983e-06
    y: 3.81139216177e-06
    z: 2.1739547264e-06
    w: 0.999999999972
---
header: 
  seq: 135
  stamp: 
    secs: 21734
    nsecs: 675000000
  frame_id: "world"
pose: 
  position: 
    x: 4.49755680165e-06
    y: 1.43181350722e-05
    z: -3.43222891388e-05
  orientation: 
    x: 6.12831126983e-06
    y: 3.81139216177e-06
    z: 2.1739547264e-06
    w: 0.999999999972
---
header: 
  seq: 136
  stamp: 
    secs: 21735
    nsecs:  87000000
  frame_id: "world"
pose: 
  position: 
    x: -3.07533446176e-05
    y: 5.50808836124e-05
    z: 1.59541086759e-05
  orientation: 
    x: 2.88222545169e-05
    y: 2.06669683263e-05
    z: 1.86717841071e-06
    w: 0.999999999369
---
header: 
  seq: 137
  stamp: 
    secs: 21735
    nsecs: 349000000
  frame_id: "world"
pose: 
  position: 
    x: 0.000115746814117
    y: -2.4363554985e-05
    z: 0.000220872563659
  orientation: 
    x: 2.14028604401e-05
    y: -7.24851631588e-05
    z: -3.08808629478e-05
    w: 0.999999996667
---
header: 
  seq: 138
  stamp: 
    secs: 21735
    nsecs: 555000000
  frame_id: "world"
pose: 
  position: 
    x: -3.04063269141e-05
    y: 4.99756897625e-05
    z: 1.48192921188e-05
  orientation: 
    x: 2.62971498012e-05
    y: 2.07320117508e-05
    z: 1.61942978048e-06
    w: 0.999999999438
---
header: 
  seq: 139
  stamp: 
    secs: 21736
    nsecs:  72000000
  frame_id: "world"
pose: 
  position: 
    x: 3.00226952277e-06
    y: -7.24698111298e-05
    z: 0.000150014835526
  orientation: 
    x: -6.92278945008e-06
    y: -2.70203763542e-05
    z: 2.9606851501e-06
    w: 0.999999999607
---
header: 
  seq: 140
  stamp: 
    secs: 21736
    nsecs: 314000000
  frame_id: "world"
pose: 
  position: 
    x: 2.94892397505e-05
    y: 4.76738641737e-05
    z: -1.90076279978e-05
  orientation: 
    x: 1.97509707462e-05
    y: -1.76205037367e-06
    z: -6.3730844872e-06
    w: 0.999999999783
---
header: 
  seq: 141
  stamp: 
    secs: 21736
    nsecs: 461000000
  frame_id: "world"
pose: 
  position: 
    x: -9.02399769984e-05
    y: 7.49436803744e-05
    z: 2.33746741287e-05
  orientation: 
    x: 3.85736129142e-05
    y: 4.47405144882e-05
    z: 8.30232146087e-06
    w: 0.999999998221
---
header: 
  seq: 142
  stamp: 
    secs: 21736
    nsecs: 626000000
  frame_id: "world"
pose: 
  position: 
    x: -2.8062153433e-05
    y: 2.16506687138e-05
    z: -1.15057500807e-05
  orientation: 
    x: 1.04185610302e-05
    y: 1.81119485165e-05
    z: 3.3178532696e-06
    w: 0.999999999776
---
header: 
  seq: 143
  stamp: 
    secs: 21736
    nsecs: 836000000
  frame_id: "world"
pose: 
  position: 
    x: -2.8062153433e-05
    y: 2.16506687138e-05
    z: -1.15057500807e-05
  orientation: 
    x: 1.04185610302e-05
    y: 1.81119485165e-05
    z: 3.3178532696e-06
    w: 0.999999999776
---
header: 
  seq: 144
  stamp: 
    secs: 21736
    nsecs: 996000000
  frame_id: "world"
pose: 
  position: 
    x: 6.77976859151e-05
    y: -4.08442319895e-05
    z: 0.000160059265909
  orientation: 
    x: 7.47392686086e-06
    y: -5.1605827977e-05
    z: -6.32201362388e-06
    w: 0.999999998621
---
header: 
  seq: 145
  stamp: 
    secs: 21737
    nsecs: 177000000
  frame_id: "world"
pose: 
  position: 
    x: -2.84774250758e-05
    y: -1.5644589439e-05
    z: 0.000130296059069
  orientation: 
    x: 2.12108225184e-05
    y: -3.5630346237e-06
    z: 9.18202749493e-06
    w: 0.999999999727
---
header: 
  seq: 146
  stamp: 
    secs: 21737
    nsecs: 321000000
  frame_id: "world"
pose: 
  position: 
    x: -2.85025053017e-05
    y: -1.56056739797e-05
    z: 0.000130262473249
  orientation: 
    x: 2.12335016782e-05
    y: -3.55080260209e-06
    z: 9.18667956033e-06
    w: 0.999999999726
---
header: 
  seq: 147
  stamp: 
    secs: 21737
    nsecs: 648000000
  frame_id: "world"
pose: 
  position: 
    x: 5.3179378483e-06
    y: 4.39762116002e-05
    z: 2.32262245845e-05
  orientation: 
    x: 2.15027976032e-05
    y: -1.45388105432e-06
    z: -2.73927776042e-06
    w: 0.999999999764
---
header: 
  seq: 148
  stamp: 
    secs: 21737
    nsecs: 895000000
  frame_id: "world"
pose: 
  position: 
    x: -5.10750669491e-06
    y: 4.05070568377e-05
    z: -3.48110120285e-07
  orientation: 
    x: 1.94431158839e-05
    y: 1.11262115724e-05
    z: -2.21922050458e-06
    w: 0.999999999747
---
header: 
  seq: 149
  stamp: 
    secs: 21738
    nsecs: 251000000
  frame_id: "world"
pose: 
  position: 
    x: -3.41599879903e-05
    y: 4.51915775557e-06
    z: 0.000143858400406
  orientation: 
    x: 3.15634824633e-05
    y: -6.84886856197e-07
    z: 8.20371769369e-06
    w: 0.999999999468
---
header: 
  seq: 150
  stamp: 
    secs: 21738
    nsecs: 440000000
  frame_id: "world"
pose: 
  position: 
    x: -3.4196767956e-05
    y: 4.56002135252e-06
    z: 0.000143883458804
  orientation: 
    x: 3.15830293234e-05
    y: -6.74285274367e-07
    z: 8.21020511939e-06
    w: 0.999999999467
---
header: 
  seq: 151
  stamp: 
    secs: 21738
    nsecs: 645000000
  frame_id: "world"
pose: 
  position: 
    x: -3.14691023959e-05
    y: 2.77433923657e-06
    z: -2.06219519896e-05
  orientation: 
    x: 1.81588052269e-06
    y: 2.53349990007e-05
    z: 1.24301072861e-06
    w: 0.999999999677
---
header: 
  seq: 152
  stamp: 
    secs: 21738
    nsecs: 800000000
  frame_id: "world"
pose: 
  position: 
    x: -2.86122321995e-05
    y: -7.47090507502e-06
    z: 0.00013868570386
  orientation: 
    x: 2.67570503524e-05
    y: -4.06742537788e-06
    z: 1.10110795457e-05
    w: 0.999999999573
---
header: 
  seq: 153
  stamp: 
    secs: 21738
    nsecs: 955000000
  frame_id: "world"
pose: 
  position: 
    x: -6.48909099255e-06
    y: -9.6573794508e-06
    z: 7.33515771572e-05
  orientation: 
    x: -2.71223211696e-06
    y: -9.59548401569e-07
    z: -1.03414995459e-05
    w: 0.999999999942
---
header: 
  seq: 154
  stamp: 
    secs: 21739
    nsecs: 343000000
  frame_id: "world"
pose: 
  position: 
    x: -3.54557778337e-05
    y: -1.39850744745e-05
    z: 0.00013500796922
  orientation: 
    x: 2.23025235689e-05
    y: -1.70916575775e-06
    z: 9.44731436624e-06
    w: 0.999999999705
---
header: 
  seq: 155
  stamp: 
    secs: 21739
    nsecs: 733000000
  frame_id: "world"
pose: 
  position: 
    x: -2.83428253169e-05
    y: 3.94925154978e-05
    z: 3.11782241624e-05
  orientation: 
    x: 2.10605103276e-05
    y: 1.54438875999e-05
    z: 6.05586762752e-07
    w: 0.999999999659
---
header: 
  seq: 156
  stamp: 
    secs: 21740
    nsecs: 126000000
  frame_id: "world"
pose: 
  position: 
    x: 1.09441652967e-05
    y: -7.89404439274e-05
    z: 3.52640540768e-06
  orientation: 
    x: -3.97908151715e-05
    y: -1.57414560673e-05
    z: 2.69773886182e-06
    w: 0.999999999081
---
header: 
  seq: 157
  stamp: 
    secs: 21740
    nsecs: 340000000
  frame_id: "world"
pose: 
  position: 
    x: -2.59084645222e-05
    y: 3.85085058952e-06
    z: -2.10892721952e-05
  orientation: 
    x: 6.43284181375e-07
    y: 1.79622656986e-05
    z: 5.20780815721e-07
    w: 0.999999999838
---
header: 
  seq: 158
  stamp: 
    secs: 21740
    nsecs: 521000000
  frame_id: "world"
pose: 
  position: 
    x: 2.32410220633e-05
    y: -5.41631088709e-05
    z: 0.00017033428594
  orientation: 
    x: 1.20162439938e-06
    y: -3.12776646596e-05
    z: -4.05324590045e-06
    w: 0.999999999502
---
header: 
  seq: 159
  stamp: 
    secs: 21740
    nsecs: 669000000
  frame_id: "world"
pose: 
  position: 
    x: 1.42069884532e-05
    y: 3.09885581373e-05
    z: 2.22417165787e-05
  orientation: 
    x: 1.62580290612e-05
    y: -3.70716338641e-06
    z: -2.45407431941e-06
    w: 0.999999999858
---
header: 
  seq: 160
  stamp: 
    secs: 21740
    nsecs: 780000000
  frame_id: "world"
pose: 
  position: 
    x: 1.41741484185e-05
    y: 3.33232273988e-05
    z: 2.24739978876e-05
  orientation: 
    x: 1.73960179354e-05
    y: -3.7086847436e-06
    z: -2.40291660664e-06
    w: 0.999999999839
---
header: 
  seq: 161
  stamp: 
    secs: 21741
    nsecs: 207000000
  frame_id: "world"
pose: 
  position: 
    x: -7.72485418565e-06
    y: 4.65770353912e-05
    z: -7.34431705496e-06
  orientation: 
    x: 2.20168385502e-05
    y: 1.03034417376e-05
    z: 3.98529010563e-07
    w: 0.999999999704
---
header: 
  seq: 162
  stamp: 
    secs: 21741
    nsecs: 636000000
  frame_id: "world"
pose: 
  position: 
    x: -2.53871403402e-05
    y: 5.09432175022e-05
    z: 2.4254735763e-05
  orientation: 
    x: 2.71296976115e-05
    y: 2.18803797774e-05
    z: 2.18851979961e-07
    w: 0.999999999393
---
header: 
  seq: 163
  stamp: 
    secs: 21741
    nsecs: 841000000
  frame_id: "world"
pose: 
  position: 
    x: 3.17233425449e-05
    y: -5.7730696426e-05
    z: 0.000157372080139
  orientation: 
    x: -3.15120291607e-06
    y: -3.63195540317e-05
    z: -9.40752499275e-07
    w: 0.999999999335
---
header: 
  seq: 164
  stamp: 
    secs: 21741
    nsecs: 983000000
  frame_id: "world"
pose: 
  position: 
    x: 2.32222919294e-05
    y: -3.26357803715e-05
    z: 9.20765523915e-05
  orientation: 
    x: 8.92533534779e-06
    y: -2.35307197648e-05
    z: 6.25504799035e-06
    w: 0.999999999664
---
header: 
  seq: 165
  stamp: 
    secs: 21742
    nsecs: 198000000
  frame_id: "world"
pose: 
  position: 
    x: 2.81858483504e-05
    y: -6.59506331431e-05
    z: 0.000137837749207
  orientation: 
    x: -6.2856956857e-06
    y: -3.69897170195e-05
    z: -3.64361880852e-06
    w: 0.999999999289
---
header: 
  seq: 166
  stamp: 
    secs: 21742
    nsecs: 407000000
  frame_id: "world"
pose: 
  position: 
    x: 6.53174811305e-06
    y: 6.863901217e-05
    z: -7.19195941201e-06
  orientation: 
    x: 3.09828501325e-05
    y: 8.02615340528e-06
    z: -3.76108073201e-06
    w: 0.999999999481
---
header: 
  seq: 167
  stamp: 
    secs: 21742
    nsecs: 612000000
  frame_id: "world"
pose: 
  position: 
    x: 2.31000249187e-05
    y: -6.19103520876e-05
    z: 0.000140683274367
  orientation: 
    x: -3.76786942743e-06
    y: -3.51400485449e-05
    z: -2.30407726886e-06
    w: 0.999999999373
---
header: 
  seq: 168
  stamp: 
    secs: 21742
    nsecs: 777000000
  frame_id: "world"
pose: 
  position: 
    x: 5.910055188e-05
    y: -5.71678392589e-05
    z: 0.000160386378411
  orientation: 
    x: -6.66960146848e-07
    y: -4.57555833661e-05
    z: -5.1251663481e-06
    w: 0.99999999894
---
header: 
  seq: 169
  stamp: 
    secs: 21743
    nsecs:  30000000
  frame_id: "world"
pose: 
  position: 
    x: 3.37370292982e-05
    y: 9.52989830694e-06
    z: 0.000114174370538
  orientation: 
    x: 2.99562070451e-05
    y: -3.0167679115e-05
    z: 2.0422451125e-06
    w: 0.999999999094
---
header: 
  seq: 170
  stamp: 
    secs: 21743
    nsecs: 237000000
  frame_id: "world"
pose: 
  position: 
    x: 1.95800148504e-05
    y: -3.97542389692e-05
    z: 0.000112761947094
  orientation: 
    x: 7.49604441513e-06
    y: -2.56319326481e-05
    z: 8.50285050213e-06
    w: 0.999999999607
---
header: 
  seq: 171
  stamp: 
    secs: 21743
    nsecs: 622000000
  frame_id: "world"
pose: 
  position: 
    x: -6.93676338415e-06
    y: -2.77139611171e-06
    z: -2.36273499468e-05
  orientation: 
    x: -2.35536094794e-06
    y: 9.47029820918e-06
    z: 1.29696013567e-06
    w: 0.999999999952
---
header: 
  seq: 172
  stamp: 
    secs: 21743
    nsecs: 916000000
  frame_id: "world"
pose: 
  position: 
    x: -3.85136536352e-06
    y: 5.93415097683e-05
    z: -4.41146858066e-06
  orientation: 
    x: 2.75724778354e-05
    y: 1.11007584515e-05
    z: -3.11081009703e-07
    w: 0.999999999558
---
header: 
  seq: 173
  stamp: 
    secs: 21744
    nsecs: 198000000
  frame_id: "world"
pose: 
  position: 
    x: -3.85573503081e-06
    y: 5.9349964431e-05
    z: -4.41938072981e-06
  orientation: 
    x: 2.75788079185e-05
    y: 1.11107246945e-05
    z: -3.1020257993e-07
    w: 0.999999999558
---
header: 
  seq: 174
  stamp: 
    secs: 21744
    nsecs: 537000000
  frame_id: "world"
pose: 
  position: 
    x: -1.241128939e-05
    y: 3.26333429257e-05
    z: -9.76547016762e-06
  orientation: 
    x: 1.55055149634e-05
    y: 1.11722929412e-05
    z: -1.43770012047e-06
    w: 0.999999999816
---
header: 
  seq: 175
  stamp: 
    secs: 21744
    nsecs: 858000000
  frame_id: "world"
pose: 
  position: 
    x: -4.94208361488e-05
    y: 1.30986800286e-05
    z: -2.35420538957e-05
  orientation: 
    x: 4.60419187049e-06
    y: 2.53361777046e-05
    z: 8.90155478952e-06
    w: 0.999999999629
---
header: 
  seq: 176
  stamp: 
    secs: 21745
    nsecs: 281000000
  frame_id: "world"
pose: 
  position: 
    x: 1.31558351768e-06
    y: 6.20742284809e-05
    z: -2.80062386082e-06
  orientation: 
    x: 2.99955317899e-05
    y: 7.28283793813e-06
    z: 2.02867482716e-07
    w: 0.999999999524
---
header: 
  seq: 177
  stamp: 
    secs: 21745
    nsecs: 623000000
  frame_id: "world"
pose: 
  position: 
    x: -3.35161130351e-05
    y: 4.66918245365e-05
    z: -5.99989562033e-06
  orientation: 
    x: 2.21732971007e-05
    y: 2.14981991928e-05
    z: 2.13023395088e-06
    w: 0.999999999521
---
header: 
  seq: 178
  stamp: 
    secs: 21745
    nsecs: 775000000
  frame_id: "world"
pose: 
  position: 
    x: 5.44028662262e-05
    y: -2.0829422283e-05
    z: 0.000123527468531
  orientation: 
    x: 1.8934973906e-05
    y: -3.79231241481e-05
    z: 2.19896423716e-06
    w: 0.999999999099
---
header: 
  seq: 179
  stamp: 
    secs: 21745
    nsecs: 909000000
  frame_id: "world"
pose: 
  position: 
    x: 2.12215418287e-05
    y: -7.82503775554e-05
    z: 0.000161075426149
  orientation: 
    x: -9.50704451824e-06
    y: -3.36606389986e-05
    z: -1.54394217494e-06
    w: 0.999999999387
---
header: 
  seq: 180
  stamp: 
    secs: 21746
    nsecs:  43000000
  frame_id: "world"
pose: 
  position: 
    x: -2.91658434435e-05
    y: 5.51096345589e-05
    z: -7.19118133929e-07
  orientation: 
    x: 2.52073168549e-05
    y: 1.73687385459e-05
    z: -6.25434438168e-07
    w: 0.999999999531
---
header: 
  seq: 181
  stamp: 
    secs: 21746
    nsecs: 272000000
  frame_id: "world"
pose: 
  position: 
    x: 8.30702617804e-07
    y: -5.07730692334e-05
    z: 0.000167246471392
  orientation: 
    x: 4.64805725439e-06
    y: -2.86066115098e-05
    z: 5.51868788294e-06
    w: 0.999999999565
---
header: 
  seq: 182
  stamp: 
    secs: 21746
    nsecs: 482000000
  frame_id: "world"
pose: 
  position: 
    x: 4.85031641517e-08
    y: -5.19427085237e-05
    z: 0.00016707033501
  orientation: 
    x: 4.05878472349e-06
    y: -2.82253204086e-05
    z: 5.49413925678e-06
    w: 0.999999999578
---
header: 
  seq: 183
  stamp: 
    secs: 21746
    nsecs: 817000000
  frame_id: "world"
pose: 
  position: 
    x: -5.1287595852e-05
    y: 4.60285045847e-05
    z: 1.00990537248e-05
  orientation: 
    x: 2.40314893585e-05
    y: 2.7027559536e-05
    z: 4.29620740476e-06
    w: 0.999999999337
---
header: 
  seq: 184
  stamp: 
    secs: 21747
    nsecs:  23000000
  frame_id: "world"
pose: 
  position: 
    x: -5.1287595852e-05
    y: 4.60285082227e-05
    z: 1.00990537248e-05
  orientation: 
    x: 2.40314893585e-05
    y: 2.7027559536e-05
    z: 4.29620740476e-06
    w: 0.999999999337
---
header: 
  seq: 185
  stamp: 
    secs: 21747
    nsecs: 290000000
  frame_id: "world"
pose: 
  position: 
    x: -5.1287595852e-05
    y: 4.60285118606e-05
    z: 1.00990537248e-05
  orientation: 
    x: 2.40314893585e-05
    y: 2.7027559536e-05
    z: 4.29620740476e-06
    w: 0.999999999337
---
header: 
  seq: 186
  stamp: 
    secs: 21747
    nsecs: 438000000
  frame_id: "world"
pose: 
  position: 
    x: -8.18429107312e-05
    y: 2.02528808586e-05
    z: 1.165262006e-06
  orientation: 
    x: 1.15754792102e-05
    y: 3.98459778452e-05
    z: 7.9614619537e-06
    w: 0.999999999107
---
header: 
  seq: 187
  stamp: 
    secs: 21747
    nsecs: 612000000
  frame_id: "world"
pose: 
  position: 
    x: -3.06613983412e-05
    y: 4.98163462908e-05
    z: 1.7153832232e-05
  orientation: 
    x: 2.76230912115e-05
    y: 1.97609551717e-05
    z: 4.80056678216e-06
    w: 0.999999999412
---
header: 
  seq: 188
  stamp: 
    secs: 21747
    nsecs: 787000000
  frame_id: "world"
pose: 
  position: 
    x: -3.15707120535e-06
    y: -9.44664352573e-05
    z: 0.000147461047163
  orientation: 
    x: -1.80664501306e-05
    y: -2.33835744335e-05
    z: 3.24919892448e-06
    w: 0.999999999558
---
header: 
  seq: 189
  stamp: 
    secs: 21747
    nsecs: 984000000
  frame_id: "world"
pose: 
  position: 
    x: -2.27629552683e-05
    y: 3.52396386916e-06
    z: -1.87367568287e-05
  orientation: 
    x: 2.91874130159e-06
    y: 1.41983055054e-05
    z: 7.85080919634e-06
    w: 0.999999999864
---
header: 
  seq: 190
  stamp: 
    secs: 21748
    nsecs: 245000000
  frame_id: "world"
pose: 
  position: 
    x: -1.29637192003e-05
    y: 7.16367731002e-06
    z: -1.33342045956e-05
  orientation: 
    x: 2.56571320252e-06
    y: 1.39945159375e-05
    z: -2.20606671041e-06
    w: 0.999999999896
---
header: 
  seq: 191
  stamp: 
    secs: 21748
    nsecs: 407000000
  frame_id: "world"
pose: 
  position: 
    x: -2.81069005723e-05
    y: 2.9505472412e-06
    z: -1.52788361447e-05
  orientation: 
    x: 2.27085417092e-09
    y: 1.89619804549e-05
    z: 6.18599551549e-06
    w: 0.999999999801
---
header: 
  seq: 192
  stamp: 
    secs: 21748
    nsecs: 824000000
  frame_id: "world"
pose: 
  position: 
    x: -2.81069005723e-05
    y: 2.9505472412e-06
    z: -1.52788361447e-05
  orientation: 
    x: 2.27085417092e-09
    y: 1.89619804549e-05
    z: 6.18599551549e-06
    w: 0.999999999801
---
header: 
  seq: 193
  stamp: 
    secs: 21749
    nsecs: 107000000
  frame_id: "world"
pose: 
  position: 
    x: 4.77468456666e-05
    y: -0.000105681538116
    z: 0.000121438832139
  orientation: 
    x: -2.64622539919e-05
    y: -4.42152303869e-05
    z: -3.00690271215e-06
    w: 0.999999998668
---
header: 
  seq: 194
  stamp: 
    secs: 21749
    nsecs: 407000000
  frame_id: "world"
pose: 
  position: 
    x: 9.02840038179e-05
    y: -0.000110869659693
    z: 0.000140703181387
  orientation: 
    x: -2.36680134042e-05
    y: -6.09469605994e-05
    z: -2.29605802324e-06
    w: 0.99999999786
---
header: 
  seq: 195
  stamp: 
    secs: 21749
    nsecs: 555000000
  frame_id: "world"
pose: 
  position: 
    x: 2.31679678109e-05
    y: -3.31956034643e-05
    z: 0.000109640946903
  orientation: 
    x: 1.35685495406e-05
    y: -2.75455913504e-05
    z: 1.15448119624e-05
    w: 0.999999999462
---
header: 
  seq: 196
  stamp: 
    secs: 21749
    nsecs: 745000000
  frame_id: "world"
pose: 
  position: 
    x: -2.80622425635e-05
    y: 3.39408397849e-05
    z: 4.88528121423e-06
  orientation: 
    x: 1.70199691583e-05
    y: 1.77179117542e-05
    z: 6.9641382629e-06
    w: 0.999999999674
---
header: 
  seq: 197
  stamp: 
    secs: 21749
    nsecs: 916000000
  frame_id: "world"
pose: 
  position: 
    x: -4.77030480397e-05
    y: 2.27470482059e-05
    z: 5.57553903491e-06
  orientation: 
    x: 1.46323181902e-05
    y: 2.78070019555e-05
    z: 9.08724904971e-06
    w: 0.999999999465
---
header: 
  seq: 198
  stamp: 
    secs: 21750
    nsecs: 144000000
  frame_id: "world"
pose: 
  position: 
    x: -2.33510436374e-05
    y: 5.68309314986e-06
    z: -2.53289290413e-05
  orientation: 
    x: 3.9665560502e-06
    y: 1.40670463206e-05
    z: 7.28584563961e-06
    w: 0.999999999867
---
header: 
  seq: 199
  stamp: 
    secs: 21750
    nsecs: 458000000
  frame_id: "world"
pose: 
  position: 
    x: 3.11844378302e-05
    y: -4.92851759191e-05
    z: 9.77355521172e-05
  orientation: 
    x: 4.15319436566e-06
    y: -3.22297819187e-05
    z: 7.5440116192e-06
    w: 0.999999999444
---
header: 
  seq: 200
  stamp: 
    secs: 21750
    nsecs: 765000000
  frame_id: "world"
pose: 
  position: 
    x: -5.82471693633e-05
    y: -3.39180360243e-06
    z: -3.01921372738e-05
  orientation: 
    x: -3.57312705858e-06
    y: 2.74207813963e-05
    z: 5.76402135036e-06
    w: 0.999999999601
---
header: 
  seq: 201
  stamp: 
    secs: 21750
    nsecs: 954000000
  frame_id: "world"
pose: 
  position: 
    x: -1.54431745614e-05
    y: 2.44490765908e-05
    z: -2.61911427515e-05
  orientation: 
    x: 1.1263056875e-05
    y: 1.11134095263e-05
    z: 2.32478123478e-06
    w: 0.999999999872
---
header: 
  seq: 202
  stamp: 
    secs: 21751
    nsecs: 242000000
  frame_id: "world"
pose: 
  position: 
    x: -1.54521294462e-05
    y: 2.44589627982e-05
    z: -2.61745517491e-05
  orientation: 
    x: 1.12661609805e-05
    y: 1.11146491676e-05
    z: 2.32722527441e-06
    w: 0.999999999872
---
header: 
  seq: 203
  stamp: 
    secs: 21751
    nsecs: 453000000
  frame_id: "world"
pose: 
  position: 
    x: -2.1430909328e-05
    y: 1.43133265738e-05
    z: 1.88242029253e-05
  orientation: 
    x: 1.38865643727e-05
    y: 8.54497466074e-06
    z: 6.72995520185e-06
    w: 0.999999999844
---
header: 
  seq: 204
  stamp: 
    secs: 21751
    nsecs: 662000000
  frame_id: "world"
pose: 
  position: 
    x: -2.29116358241e-06
    y: 5.69433723285e-06
    z: -1.68843598658e-05
  orientation: 
    x: 1.33810578966e-06
    y: 1.02265739764e-05
    z: 1.12531461121e-06
    w: 0.999999999946
---
header: 
  seq: 205
  stamp: 
    secs: 21751
    nsecs: 818000000
  frame_id: "world"
pose: 
  position: 
    x: -2.79863907053e-05
    y: -2.25088188017e-05
    z: -3.4212560422e-05
  orientation: 
    x: -1.10882101558e-05
    y: 1.62500582486e-05
    z: 4.44207807869e-06
    w: 0.999999999797
---
header: 
  seq: 206
  stamp: 
    secs: 21751
    nsecs: 967000000
  frame_id: "world"
pose: 
  position: 
    x: 5.46929231859e-06
    y: -6.11396462773e-05
    z: 9.37407676247e-05
  orientation: 
    x: -2.96460780122e-06
    y: -2.06894346726e-05
    z: 5.76591810251e-06
    w: 0.999999999765
---
header: 
  seq: 207
  stamp: 
    secs: 21752
    nsecs:  83000000
  frame_id: "world"
pose: 
  position: 
    x: -5.78691069677e-05
    y: -5.96181562287e-05
    z: 0.000201301940251
  orientation: 
    x: 7.14210159447e-07
    y: 2.45440560316e-06
    z: 4.94801497545e-06
    w: 0.999999999984
---
header: 
  seq: 208
  stamp: 
    secs: 21752
    nsecs: 308000000
  frame_id: "world"
pose: 
  position: 
    x: 0.000324276508763
    y: -7.19283343642e-05
    z: 0.000362412043614
  orientation: 
    x: -7.32014345644e-06
    y: -0.00019285102824
    z: 2.62634489011e-05
    w: 0.999999981033
---
header: 
  seq: 209
  stamp: 
    secs: 21752
    nsecs: 552000000
  frame_id: "world"
pose: 
  position: 
    x: -6.7078966822e-05
    y: -3.4275562939e-05
    z: 0.00010698717233
  orientation: 
    x: 8.53894380161e-06
    y: 1.07010946508e-05
    z: 8.3523545971e-06
    w: 0.999999999871
---
header: 
  seq: 210
  stamp: 
    secs: 21752
    nsecs: 844000000
  frame_id: "world"
pose: 
  position: 
    x: -4.04587299272e-05
    y: -1.09152313144e-06
    z: -2.01419588848e-05
  orientation: 
    x: 1.0511955677e-06
    y: 1.94754902581e-05
    z: 7.11475285999e-06
    w: 0.999999999784
---
header: 
  seq: 211
  stamp: 
    secs: 21753
    nsecs: 213000000
  frame_id: "world"
pose: 
  position: 
    x: -1.90785631276e-05
    y: -2.03317649721e-05
    z: -4.019869084e-05
  orientation: 
    x: -1.08726335359e-05
    y: 1.84087839401e-05
    z: -2.64088771412e-06
    w: 0.999999999768
---
header: 
  seq: 212
  stamp: 
    secs: 21753
    nsecs: 384000000
  frame_id: "world"
pose: 
  position: 
    x: 1.38068762681e-05
    y: -4.62826428702e-05
    z: -4.1707240598e-05
  orientation: 
    x: -2.08230994711e-05
    y: 3.32788499615e-06
    z: -2.84748511994e-06
    w: 0.999999999774
---
header: 
  seq: 213
  stamp: 
    secs: 21753
    nsecs: 564000000
  frame_id: "world"
pose: 
  position: 
    x: 1.38068762681e-05
    y: -4.62826428702e-05
    z: -4.1707240598e-05
  orientation: 
    x: -2.08230994711e-05
    y: 3.32788499615e-06
    z: -2.84748511994e-06
    w: 0.999999999774
---
header: 
  seq: 214
  stamp: 
    secs: 21753
    nsecs: 737000000
  frame_id: "world"
pose: 
  position: 
    x: -7.67378005548e-05
    y: -8.12240032246e-05
    z: 0.000100196877611
  orientation: 
    x: -9.80889944683e-06
    y: 1.66883910385e-05
    z: 9.63135607665e-06
    w: 0.999999999766
---
header: 
  seq: 215
  stamp: 
    secs: 21753
    nsecs: 900000000
  frame_id: "world"
pose: 
  position: 
    x: -5.62883178645e-05
    y: -2.64697018793e-06
    z: -3.45203761754e-06
  orientation: 
    x: 2.16233684013e-06
    y: 3.03202141227e-05
    z: 2.12436088888e-06
    w: 0.999999999536
---
header: 
  seq: 216
  stamp: 
    secs: 21754
    nsecs: 220000000
  frame_id: "world"
pose: 
  position: 
    x: -6.95529815857e-05
    y: -5.20393296028e-05
    z: 0.000125098405988
  orientation: 
    x: 5.50263030076e-06
    y: 1.4850431396e-05
    z: 8.1879343257e-06
    w: 0.999999999841
---
header: 
  seq: 217
  stamp: 
    secs: 21754
    nsecs: 627000000
  frame_id: "world"
pose: 
  position: 
    x: -1.39549574669e-05
    y: -0.000109100386908
    z: 0.000158309267135
  orientation: 
    x: -2.19823268629e-05
    y: -1.53854089093e-05
    z: 3.6118305489e-07
    w: 0.99999999964
---
header: 
  seq: 218
  stamp: 
    secs: 21754
    nsecs: 941000000
  frame_id: "world"
pose: 
  position: 
    x: -7.56790323067e-05
    y: -1.28570454763e-05
    z: -1.03574257082e-05
  orientation: 
    x: -1.88639989881e-06
    y: 3.9028589496e-05
    z: 5.76944921254e-06
    w: 0.99999999922
---
header: 
  seq: 219
  stamp: 
    secs: 21755
    nsecs: 250000000
  frame_id: "world"
pose: 
  position: 
    x: 1.53650089487e-05
    y: -2.80256899714e-05
    z: -2.38521552092e-05
  orientation: 
    x: -1.22013916541e-05
    y: 2.67600216804e-06
    z: -6.06235789688e-06
    w: 0.999999999904
---
header: 
  seq: 220
  stamp: 
    secs: 21755
    nsecs: 455000000
  frame_id: "world"
pose: 
  position: 
    x: 3.50695518136e-05
    y: -0.000114106034744
    z: 0.000151157277287
  orientation: 
    x: -2.51752280487e-05
    y: -3.73580405336e-05
    z: -5.76801630219e-06
    w: 0.999999998969
---
header: 
  seq: 221
  stamp: 
    secs: 21755
    nsecs: 652000000
  frame_id: "world"
pose: 
  position: 
    x: 2.93401990348e-05
    y: 3.40223527928e-06
    z: -2.58141317317e-05
  orientation: 
    x: -1.79622631432e-07
    y: -4.46212334272e-06
    z: -4.84274596591e-06
    w: 0.999999999978
---
header: 
  seq: 222
  stamp: 
    secs: 21755
    nsecs: 843000000
  frame_id: "world"
pose: 
  position: 
    x: 6.99021120454e-06
    y: -5.71581585973e-05
    z: 9.20904058148e-05
  orientation: 
    x: -1.32589536846e-06
    y: -1.49073839549e-05
    z: 7.31189800181e-07
    w: 0.999999999888
---
header: 
  seq: 223
  stamp: 
    secs: 21756
    nsecs: 102000000
  frame_id: "world"
pose: 
  position: 
    x: 2.92947661364e-05
    y: 3.41051622854e-06
    z: -2.58114250755e-05
  orientation: 
    x: -1.74529660054e-07
    y: -4.45019941243e-06
    z: -4.83998337575e-06
    w: 0.999999999978
---
header: 
  seq: 224
  stamp: 
    secs: 21756
    nsecs: 270000000
  frame_id: "world"
pose: 
  position: 
    x: 1.13592177513e-05
    y: -4.5259410399e-05
    z: -5.03071387357e-05
  orientation: 
    x: -2.3787562888e-05
    y: 5.85837278594e-06
    z: -4.88530258583e-06
    w: 0.999999999688
---
header: 
  seq: 225
  stamp: 
    secs: 21756
    nsecs: 586000000
  frame_id: "world"
pose: 
  position: 
    x: 0.000261323119048
    y: -7.84019575804e-05
    z: 0.000185007214895
  orientation: 
    x: -4.28025555261e-05
    y: -0.000139209192977
    z: 7.79626126025e-06
    w: 0.999999989364
---
header: 
  seq: 226
  stamp: 
    secs: 21756
    nsecs: 839000000
  frame_id: "world"
pose: 
  position: 
    x: -1.51929070853e-05
    y: -2.53350458479e-06
    z: 9.9547643913e-05
  orientation: 
    x: 2.51269902831e-05
    y: -1.26801123711e-05
    z: 1.14096919735e-05
    w: 0.999999999539
---
header: 
  seq: 227
  stamp: 
    secs: 21757
    nsecs: 295000000
  frame_id: "world"
pose: 
  position: 
    x: -1.22455785458e-05
    y: -2.6861049264e-05
    z: -1.1976726455e-05
  orientation: 
    x: -1.12222051018e-05
    y: 7.84904295789e-06
    z: -4.28192924984e-06
    w: 0.999999999897
---
header: 
  seq: 228
  stamp: 
    secs: 21757
    nsecs: 563000000
  frame_id: "world"
pose: 
  position: 
    x: -9.66360821621e-05
    y: -0.000146954058437
    z: -7.51024635974e-05
  orientation: 
    x: -7.33993580669e-05
    y: 5.37611047141e-05
    z: 1.40471956329e-06
    w: 0.99999999586
---
header: 
  seq: 229
  stamp: 
    secs: 21757
    nsecs: 845000000
  frame_id: "world"
pose: 
  position: 
    x: -9.11516035558e-05
    y: -0.00014492716582
    z: -6.79833392496e-05
  orientation: 
    x: -7.11829486132e-05
    y: 5.1038543265e-05
    z: 2.05487480464e-06
    w: 0.999999996162
---
header: 
  seq: 230
  stamp: 
    secs: 21758
    nsecs: 289000000
  frame_id: "world"
pose: 
  position: 
    x: 0.0022253273055
    y: -0.00552014587447
    z: 0.00135826633777
  orientation: 
    x: 0.00400129685948
    y: -0.000701536448091
    z: -0.00183975000646
    w: 0.999990056346
---
header: 
  seq: 231
  stamp: 
    secs: 21758
    nsecs: 891000000
  frame_id: "world"
pose: 
  position: 
    x: 0.017402742058
    y: -0.262741327286
    z: -0.000123928912217
  orientation: 
    x: -0.0532583025479
    y: -0.00600886519836
    z: -0.0323232368986
    w: 0.998039405587
---
header: 
  seq: 232
  stamp: 
    secs: 21759
    nsecs: 150000000
  frame_id: "world"
pose: 
  position: 
    x: 0.0173342008553
    y: -0.395667671368
    z: 0.0198680233489
  orientation: 
    x: -0.080950748869
    y: -0.0101796263801
    z: -0.0471685932658
    w: 0.99554933342
---
header: 
  seq: 233
  stamp: 
    secs: 21759
    nsecs: 403000000
  frame_id: "world"
pose: 
  position: 
    x: 0.0232740381968
    y: -0.474631579634
    z: 0.0356519529971
  orientation: 
    x: -0.0993737463001
    y: -0.0156103781932
    z: -0.0564760888538
    w: 0.993323525357
---
header: 
  seq: 234
  stamp: 
    secs: 21759
    nsecs: 614000000
  frame_id: "world"
pose: 
  position: 
    x: 0.023000579838
    y: -0.498064454944
    z: 0.0431944147929
  orientation: 
    x: -0.102498030985
    y: -0.0169049825132
    z: -0.0595030935826
    w: 0.992808016217
---
header: 
  seq: 235
  stamp: 
    secs: 21759
    nsecs: 840000000
  frame_id: "world"
pose: 
  position: 
    x: 0.0249119298405
    y: -0.52271644099
    z: 0.0525182543789
  orientation: 
    x: -0.10902676116
    y: -0.0194874648251
    z: -0.061697904831
    w: 0.991930830555
---
header: 
  seq: 236
  stamp: 
    secs: 21760
    nsecs: 104000000
  frame_id: "world"
pose: 
  position: 
    x: 0.0204808985847
    y: -0.533434929418
    z: 0.0541565750127
  orientation: 
    x: -0.110508962216
    y: -0.0184905807565
    z: -0.0634428659248
    w: 0.991675788984
---
header: 
  seq: 237
  stamp: 
    secs: 21760
    nsecs: 493000000
  frame_id: "world"
pose: 
  position: 
    x: 0.0229992749078
    y: -0.544898892942
    z: 0.0583596327169
  orientation: 
    x: -0.113782779475
    y: -0.0201477310174
    z: -0.0643218514727
    w: 0.991216549223
---
header: 
  seq: 238
  stamp: 
    secs: 21760
    nsecs: 826000000
  frame_id: "world"
pose: 
  position: 
    x: 0.0221000006682
    y: -0.545557130038
    z: 0.0592012748356
  orientation: 
    x: -0.113733674333
    y: -0.0200079064215
    z: -0.0642882550728
    w: 0.991227196592
---
header: 
  seq: 239
  stamp: 
    secs: 21761
    nsecs: 257000000
  frame_id: "world"
pose: 
  position: 
    x: 0.0155216431527
    y: -0.518105082814
    z: 0.0486849853318
  orientation: 
    x: -0.104356087197
    y: -0.0160579096552
    z: -0.059914537659
    w: 0.992603747111
---
header: 
  seq: 240
  stamp: 
    secs: 21761
    nsecs: 477000000
  frame_id: "world"
pose: 
  position: 
    x: 0.013988761733
    y: -0.518449094136
    z: 0.0471019463147
  orientation: 
    x: -0.104450163831
    y: -0.0151980753084
    z: -0.0599625885578
    w: 0.99260448808
---
header: 
  seq: 241
  stamp: 
    secs: 21761
    nsecs: 676000000
  frame_id: "world"
pose: 
  position: 
    x: 0.0146662360733
    y: -0.518277324088
    z: 0.0476762845414
  orientation: 
    x: -0.10438251564
    y: -0.0155456403678
    z: -0.0599326195405
    w: 0.992608031707
---
header: 
  seq: 242
  stamp: 
    secs: 21762
    nsecs:  61000000
  frame_id: "world"
pose: 
  position: 
    x: 0.0158004444911
    y: -0.518233111313
    z: 0.0489769200872
  orientation: 
    x: -0.104434469054
    y: -0.016192702769
    z: -0.0598303741846
    w: 0.992598390274
---
header: 
  seq: 243
  stamp: 
    secs: 21762
    nsecs: 443000000
  frame_id: "world"
pose: 
  position: 
    x: 0.0142933705742
    y: -0.518680279824
    z: 0.0471725513689
  orientation: 
    x: -0.104563541194
    y: -0.0153034701242
    z: -0.0599606694132
    w: 0.992591047602
---
header: 
  seq: 244
  stamp: 
    secs: 21762
    nsecs: 804000000
  frame_id: "world"
pose: 
  position: 
    x: 0.0173232867065
    y: -0.516572868958
    z: 0.0510089508294
  orientation: 
    x: -0.119224363134
    y: -0.0138339881358
    z: -0.0574409055305
    w: 0.991107821773
---
header: 
  seq: 245
  stamp: 
    secs: 21763
    nsecs: 182000000
  frame_id: "world"
pose: 
  position: 
    x: 0.0239485063013
    y: -0.525954134721
    z: 0.0627259859629
  orientation: 
    x: -0.111190046341
    y: -0.0157903918969
    z: -0.0564406121596
    w: 0.9920695008
---
header: 
  seq: 246
  stamp: 
    secs: 21763
    nsecs: 368000000
  frame_id: "world"
pose: 
  position: 
    x: 0.0229222400009
    y: -0.522957835472
    z: 0.0648787876007
  orientation: 
    x: -0.107886964196
    y: -0.0142226460163
    z: -0.0593314402334
    w: 0.992289221697
---
header: 
  seq: 247
  stamp: 
    secs: 21763
    nsecs: 566000000
  frame_id: "world"
pose: 
  position: 
    x: 0.0282781991923
    y: -0.5226544788
    z: 0.0695314570577
  orientation: 
    x: -0.111627103819
    y: -0.0194057351111
    z: -0.0637023119044
    w: 0.991516425782
---
header: 
  seq: 248
  stamp: 
    secs: 21763
    nsecs: 723000000
  frame_id: "world"
pose: 
  position: 
    x: 0.0344767883361
    y: -0.526074248315
    z: 0.0764241057017
  orientation: 
    x: -0.11002349673
    y: -0.0212537407357
    z: -0.0592858168065
    w: 0.991931600766
---
header: 
  seq: 249
  stamp: 
    secs: 21763
    nsecs: 945000000
  frame_id: "world"
pose: 
  position: 
    x: 0.0277046648151
    y: -0.519296561488
    z: 0.0802339380653
  orientation: 
    x: -0.110175546758
    y: -0.0215925812216
    z: -0.0611600427949
    w: 0.991793606804
---
header: 
  seq: 250
  stamp: 
    secs: 21764
    nsecs: 184000000
  frame_id: "world"
pose: 
  position: 
    x: 0.0295114673106
    y: -0.512662782732
    z: 0.081717974243
  orientation: 
    x: -0.108743932443
    y: -0.021801587802
    z: -0.0585002054413
    w: 0.992107440699
---
header: 
  seq: 251
  stamp: 
    secs: 21764
    nsecs: 371000000
  frame_id: "world"
pose: 
  position: 
    x: 0.0306878807714
    y: -0.511643335704
    z: 0.0910736284722
  orientation: 
    x: -0.109251646083
    y: -0.0267255481756
    z: -0.0592068104949
    w: 0.991889296491
---
header: 
  seq: 252
  stamp: 
    secs: 21764
    nsecs: 843000000
  frame_id: "world"
pose: 
  position: 
    x: 0.0325936502452
    y: -0.505541350261
    z: 0.100910833117
  orientation: 
    x: -0.102459498704
    y: -0.0337826696856
    z: -0.0532269635959
    w: 0.992737464137
---
header: 
  seq: 253
  stamp: 
    secs: 21765
    nsecs: 343000000
  frame_id: "world"
pose: 
  position: 
    x: 0.0326267223572
    y: -0.501037681086
    z: 0.116305547669
  orientation: 
    x: -0.101062990169
    y: -0.0374476020309
    z: -0.0524324026769
    w: 0.992791414281
---
header: 
  seq: 254
  stamp: 
    secs: 21765
    nsecs: 549000000
  frame_id: "world"
pose: 
  position: 
    x: 0.0351340864978
    y: -0.495809065051
    z: 0.119840336622
  orientation: 
    x: -0.104263240454
    y: -0.0399264190453
    z: -0.0544743198841
    w: 0.992253801316
---
header: 
  seq: 255
  stamp: 
    secs: 21765
    nsecs: 734000000
  frame_id: "world"
pose: 
  position: 
    x: 0.0408457961824
    y: -0.500746343801
    z: 0.127011359413
  orientation: 
    x: -0.103803805113
    y: -0.0431624464922
    z: -0.062128556223
    w: 0.991716600526
---
header: 
  seq: 256
  stamp: 
    secs: 21765
    nsecs: 924000000
  frame_id: "world"
pose: 
  position: 
    x: 0.0437133161704
    y: -0.493852970671
    z: 0.13423389491
  orientation: 
    x: -0.109134160472
    y: -0.0462823114547
    z: -0.0570431882527
    w: 0.99130911291
---
header: 
  seq: 257
  stamp: 
    secs: 21766
    nsecs: 262000000
  frame_id: "world"
pose: 
  position: 
    x: 0.0463750358337
    y: -0.495232066212
    z: 0.142560215852
  orientation: 
    x: -0.108263056538
    y: -0.0482966441115
    z: -0.0532432817543
    w: 0.991519892743
---
header: 
  seq: 258
  stamp: 
    secs: 21766
    nsecs: 749000000
  frame_id: "world"
pose: 
  position: 
    x: 0.0462131590986
    y: -0.492595237632
    z: 0.148332999287
  orientation: 
    x: -0.102008055583
    y: -0.0478062615276
    z: -0.0526270495914
    w: 0.99223954346
---
header: 
  seq: 259
  stamp: 
    secs: 21767
    nsecs: 308000000
  frame_id: "world"
pose: 
  position: 
    x: 0.0568128914421
    y: -0.488584268042
    z: 0.167539338316
  orientation: 
    x: -0.107507824924
    y: -0.0503607744091
    z: -0.0568525965883
    w: 0.991298967135
---
header: 
  seq: 260
  stamp: 
    secs: 21767
    nsecs: 514000000
  frame_id: "world"
pose: 
  position: 
    x: 0.0552824655609
    y: -0.487077264988
    z: 0.171821707831
  orientation: 
    x: -0.106863571491
    y: -0.0501195413896
    z: -0.051231619742
    w: 0.991687213691
---
header: 
  seq: 261
  stamp: 
    secs: 21767
    nsecs: 737000000
  frame_id: "world"
pose: 
  position: 
    x: 0.0559962474027
    y: -0.48538867836
    z: 0.176779055194
  orientation: 
    x: -0.101341410039
    y: -0.0527681314103
    z: -0.0527892526993
    w: 0.992047749717
---
header: 
  seq: 262
  stamp: 
    secs: 21767
    nsecs: 913000000
  frame_id: "world"
pose: 
  position: 
    x: 0.0631461335539
    y: -0.482887726088
    z: 0.184778549885
  orientation: 
    x: -0.0961238895238
    y: -0.0554999777441
    z: -0.0539828389253
    w: 0.992353668525
---
header: 
  seq: 263
  stamp: 
    secs: 21768
    nsecs: 210000000
  frame_id: "world"
pose: 
  position: 
    x: 0.0663179045264
    y: -0.478713277667
    z: 0.187780163043
  orientation: 
    x: -0.101804266451
    y: -0.0511085275987
    z: -0.0567687766727
    w: 0.991867488999
---
header: 
  seq: 264
  stamp: 
    secs: 21768
    nsecs: 806000000
  frame_id: "world"
pose: 
  position: 
    x: 0.0652654036926
    y: -0.47137474659
    z: 0.19800711775
  orientation: 
    x: -0.0985798621842
    y: -0.0528330428208
    z: -0.0510476384514
    w: 0.992413633001
---
header: 
  seq: 265
  stamp: 
    secs: 21769
    nsecs: 206000000
  frame_id: "world"
pose: 
  position: 
    x: 0.0559059394323
    y: -0.463812442282
    z: 0.194135675986
  orientation: 
    x: -0.0964552307766
    y: -0.0506322402629
    z: -0.051588353053
    w: 0.992709124835
---
header: 
  seq: 266
  stamp: 
    secs: 21769
    nsecs: 474000000
  frame_id: "world"
pose: 
  position: 
    x: 0.0558956319175
    y: -0.463844142106
    z: 0.197569685581
  orientation: 
    x: -0.0970785363738
    y: -0.0535514748695
    z: -0.0514360022572
    w: 0.99250306548
---
header: 
  seq: 267
  stamp: 
    secs: 21769
    nsecs: 775000000
  frame_id: "world"
pose: 
  position: 
    x: 0.0552228457464
    y: -0.463042222514
    z: 0.200363685609
  orientation: 
    x: -0.0970736483309
    y: -0.0561539708559
    z: -0.0510095846602
    w: 0.992381711152
---
header: 
  seq: 268
  stamp: 
    secs: 21769
    nsecs: 979000000
  frame_id: "world"
pose: 
  position: 
    x: 0.0564724618422
    y: -0.462398364175
    z: 0.202011849228
  orientation: 
    x: -0.0969594118691
    y: -0.0581141776079
    z: -0.0509114050863
    w: 0.992285061685
---
header: 
  seq: 269
  stamp: 
    secs: 21770
    nsecs: 381000000
  frame_id: "world"
pose: 
  position: 
    x: 0.0583356782235
    y: -0.461524198094
    z: 0.208287245092
  orientation: 
    x: -0.0972156725886
    y: -0.0630329891893
    z: -0.0503758351516
    w: 0.991987011261
---
header: 
  seq: 270
  stamp: 
    secs: 21770
    nsecs: 836000000
  frame_id: "world"
pose: 
  position: 
    x: 0.062252881696
    y: -0.460309752452
    z: 0.21428610181
  orientation: 
    x: -0.0825580712331
    y: -0.0688463184913
    z: -0.0622295724007
    w: 0.992255929498
---
header: 
  seq: 271
  stamp: 
    secs: 21771
    nsecs: 378000000
  frame_id: "world"
pose: 
  position: 
    x: 0.052650804895
    y: -0.457239784698
    z: 0.207330979141
  orientation: 
    x: -0.0965299409244
    y: -0.0574501705111
    z: -0.0522475313056
    w: 0.992296147269
---
header: 
  seq: 272
  stamp: 
    secs: 21771
    nsecs: 607000000
  frame_id: "world"
pose: 
  position: 
    x: 0.0461017733948
    y: -0.454453166956
    z: 0.206127260762
  orientation: 
    x: -0.100010049278
    y: -0.0550394114204
    z: -0.0497362044301
    w: 0.992217195579
---
header: 
  seq: 273
  stamp: 
    secs: 21771
    nsecs: 779000000
  frame_id: "world"
pose: 
  position: 
    x: 0.0375625389021
    y: -0.455941510251
    z: 0.202097041186
  orientation: 
    x: -0.0951996291879
    y: -0.0499810394241
    z: -0.0506221326495
    w: 0.992913050567
---
header: 
  seq: 274
  stamp: 
    secs: 21771
    nsecs: 976000000
  frame_id: "world"
pose: 
  position: 
    x: 0.0344037529942
    y: -0.452346727128
    z: 0.20113268585
  orientation: 
    x: -0.0959662713416
    y: -0.0506483030336
    z: -0.0550301639462
    w: 0.992570856524
---
header: 
  seq: 275
  stamp: 
    secs: 21772
    nsecs: 193000000
  frame_id: "world"
pose: 
  position: 
    x: 0.0277198156302
    y: -0.450170318405
    z: 0.199026837731
  orientation: 
    x: -0.0957689753346
    y: -0.0453506544342
    z: -0.0524673182819
    w: 0.992984794455
---
header: 
  seq: 276
  stamp: 
    secs: 21772
    nsecs: 489000000
  frame_id: "world"
pose: 
  position: 
    x: 0.0196603394561
    y: -0.444177104952
    z: 0.194722557834
  orientation: 
    x: -0.0886849935075
    y: -0.0373980631812
    z: -0.052351368099
    w: 0.993979723664
---
header: 
  seq: 277
  stamp: 
    secs: 21772
    nsecs: 911000000
  frame_id: "world"
pose: 
  position: 
    x: 0.00398355906507
    y: -0.436772026671
    z: 0.187340368804
  orientation: 
    x: -0.0955544686368
    y: -0.0316343612826
    z: -0.0439179660129
    w: 0.993951620035
---
header: 
  seq: 278
  stamp: 
    secs: 21773
    nsecs: 214000000
  frame_id: "world"
pose: 
  position: 
    x: -0.00668862359816
    y: -0.434381334403
    z: 0.181326884862
  orientation: 
    x: -0.0908293199867
    y: -0.0352402464125
    z: -0.0480056697736
    w: 0.994084309972
---
header: 
  seq: 279
  stamp: 
    secs: 21773
    nsecs: 755000000
  frame_id: "world"
pose: 
  position: 
    x: -0.021007008811
    y: -0.429111979612
    z: 0.175749607427
  orientation: 
    x: -0.0879531329232
    y: -0.0326380281935
    z: -0.0479535209922
    w: 0.994434243854
---
header: 
  seq: 280
  stamp: 
    secs: 21773
    nsecs: 960000000
  frame_id: "world"
pose: 
  position: 
    x: -0.0274929924451
    y: -0.424879840794
    z: 0.175473482332
  orientation: 
    x: -0.0890463567875
    y: -0.0347110654941
    z: -0.0533722611751
    w: 0.993990588493
---
header: 
  seq: 281
  stamp: 
    secs: 21774
    nsecs: 141000000
  frame_id: "world"
pose: 
  position: 
    x: -0.0306917925126
    y: -0.425883578667
    z: 0.175198256227
  orientation: 
    x: -0.0906322895653
    y: -0.0364982856538
    z: -0.0532606987822
    w: 0.99378919354
---
header: 
  seq: 282
  stamp: 
    secs: 21774
    nsecs: 289000000
  frame_id: "world"
pose: 
  position: 
    x: -0.0356691801777
    y: -0.422360758144
    z: 0.173009395714
  orientation: 
    x: -0.0882120812959
    y: -0.036093816529
    z: -0.0462318070195
    w: 0.994373413332
---
header: 
  seq: 283
  stamp: 
    secs: 21774
    nsecs: 601000000
  frame_id: "world"
pose: 
  position: 
    x: -0.0493051960174
    y: -0.418004442381
    z: 0.168838211868
  orientation: 
    x: -0.079664891589
    y: -0.0354489911542
    z: -0.0520044917981
    w: 0.994832853753
---
header: 
  seq: 284
  stamp: 
    secs: 21774
    nsecs: 963000000
  frame_id: "world"
pose: 
  position: 
    x: -0.0535977504011
    y: -0.418597208933
    z: 0.167346382066
  orientation: 
    x: -0.0881228676351
    y: -0.0386998799517
    z: -0.0458625397598
    w: 0.994300410811
---
header: 
  seq: 285
  stamp: 
    secs: 21775
    nsecs: 209000000
  frame_id: "world"
pose: 
  position: 
    x: -0.0632753205794
    y: -0.418679308839
    z: 0.163849056027
  orientation: 
    x: -0.0904096248181
    y: -0.0392980406594
    z: -0.0475415759928
    w: 0.993992737545
---
header: 
  seq: 286
  stamp: 
    secs: 21775
    nsecs: 704000000
  frame_id: "world"
pose: 
  position: 
    x: -0.0771679310819
    y: -0.412863783159
    z: 0.15804972019
  orientation: 
    x: -0.0888812115165
    y: -0.0414332195454
    z: -0.0479532131126
    w: 0.994024098254
---
header: 
  seq: 287
  stamp: 
    secs: 21776
    nsecs:   9000000
  frame_id: "world"
pose: 
  position: 
    x: -0.0825726636975
    y: -0.412313161705
    z: 0.156531803791
  orientation: 
    x: -0.0882406718468
    y: -0.0450576503332
    z: -0.0474721944814
    w: 0.993946569353
---
header: 
  seq: 288
  stamp: 
    secs: 21776
    nsecs: 418000000
  frame_id: "world"
pose: 
  position: 
    x: -0.0908792726929
    y: -0.411557275609
    z: 0.156793199871
  orientation: 
    x: -0.0846349649154
    y: -0.0493877075906
    z: -0.0482635028611
    w: 0.994016303359
---
header: 
  seq: 289
  stamp: 
    secs: 21776
    nsecs: 875000000
  frame_id: "world"
pose: 
  position: 
    x: -0.0988323868869
    y: -0.416812281298
    z: 0.157417759158
  orientation: 
    x: -0.0866623188738
    y: -0.05464837007
    z: -0.0483250898268
    w: 0.993563225884
---
header: 
  seq: 290
  stamp: 
    secs: 21777
    nsecs: 297000000
  frame_id: "world"
pose: 
  position: 
    x: -0.104133947438
    y: -0.420053424883
    z: 0.158277933753
  orientation: 
    x: -0.0773508366991
    y: -0.0585443493537
    z: -0.0403005366265
    w: 0.994467331775
---
header: 
  seq: 291
  stamp: 
    secs: 21777
    nsecs: 617000000
  frame_id: "world"
pose: 
  position: 
    x: -0.109486825878
    y: -0.423792463681
    z: 0.155672100076
  orientation: 
    x: -0.0824351344491
    y: -0.0622776061609
    z: -0.0411086048056
    w: 0.99379878798
---
header: 
  seq: 292
  stamp: 
    secs: 21778
    nsecs:  31000000
  frame_id: "world"
pose: 
  position: 
    x: -0.10682181238
    y: -0.427892547421
    z: 0.144999930354
  orientation: 
    x: -0.0909756100247
    y: -0.0614429351887
    z: -0.0475972737855
    w: 0.992815543605
---
header: 
  seq: 293
  stamp: 
    secs: 21778
    nsecs: 203000000
  frame_id: "world"
pose: 
  position: 
    x: -0.111118480625
    y: -0.424283939048
    z: 0.139595082867
  orientation: 
    x: -0.0872165246028
    y: -0.0590325980337
    z: -0.0533823457782
    w: 0.993004912055
---
header: 
  seq: 294
  stamp: 
    secs: 21778
    nsecs: 434000000
  frame_id: "world"
pose: 
  position: 
    x: -0.113839097923
    y: -0.427637424586
    z: 0.133943639092
  orientation: 
    x: -0.0865958212719
    y: -0.0574607280075
    z: -0.050824521858
    w: 0.993285606688
---
header: 
  seq: 295
  stamp: 
    secs: 21778
    nsecs: 695000000
  frame_id: "world"
pose: 
  position: 
    x: -0.116686111691
    y: -0.424666128715
    z: 0.124947702421
  orientation: 
    x: -0.0839299254429
    y: -0.0530817498389
    z: -0.0505692750383
    w: 0.993771021851
---
header: 
  seq: 296
  stamp: 
    secs: 21779
    nsecs: 200000000
  frame_id: "world"
pose: 
  position: 
    x: -0.124283415173
    y: -0.420822204533
    z: 0.11006118237
  orientation: 
    x: -0.0848284614952
    y: -0.0491256215822
    z: -0.0468353677839
    w: 0.994081110247
---
header: 
  seq: 297
  stamp: 
    secs: 21779
    nsecs: 861000000
  frame_id: "world"
pose: 
  position: 
    x: -0.137425183807
    y: -0.417724832075
    z: 0.0875378461799
  orientation: 
    x: -0.0896866716516
    y: -0.0461031514311
    z: -0.0466658532493
    w: 0.993807374946
---
header: 
  seq: 298
  stamp: 
    secs: 21780
    nsecs:  93000000
  frame_id: "world"
pose: 
  position: 
    x: -0.145349269537
    y: -0.416501252056
    z: 0.0797624702852
  orientation: 
    x: -0.0829658426975
    y: -0.0416927508677
    z: -0.0464162816346
    w: 0.994597361886
---
header: 
  seq: 299
  stamp: 
    secs: 21780
    nsecs: 252000000
  frame_id: "world"
pose: 
  position: 
    x: -0.145088994554
    y: -0.41746327355
    z: 0.0759017402421
  orientation: 
    x: -0.0838405258938
    y: -0.0435621352029
    z: -0.0467345507137
    w: 0.994428976028
---
header: 
  seq: 300
  stamp: 
    secs: 21780
    nsecs: 478000000
  frame_id: "world"
pose: 
  position: 
    x: -0.149798808759
    y: -0.415315437978
    z: 0.0687337941595
  orientation: 
    x: -0.0824102197759
    y: -0.0441406189519
    z: -0.0459553436388
    w: 0.994559333487
---
header: 
  seq: 301
  stamp: 
    secs: 21780
    nsecs: 714000000
  frame_id: "world"
pose: 
  position: 
    x: -0.155038992477
    y: -0.411453781262
    z: 0.0613215110379
  orientation: 
    x: -0.0807408119961
    y: -0.04110621288
    z: -0.0535275938748
    w: 0.994447583955
---
header: 
  seq: 302
  stamp: 
    secs: 21781
    nsecs: 192000000
  frame_id: "world"
pose: 
  position: 
    x: -0.160477598026
    y: -0.407618928573
    z: 0.0462601919767
  orientation: 
    x: -0.0808588855546
    y: -0.0375234077432
    z: -0.0475779239334
    w: 0.994881990817
---
header: 
  seq: 303
  stamp: 
    secs: 21781
    nsecs: 510000000
  frame_id: "world"
pose: 
  position: 
    x: -0.167380911051
    y: -0.410133998181
    z: 0.0358425832828
  orientation: 
    x: -0.0835843678672
    y: -0.0307655542503
    z: -0.0480261265852
    w: 0.994867139514
---
header: 
  seq: 304
  stamp: 
    secs: 21781
    nsecs: 857000000
  frame_id: "world"
pose: 
  position: 
    x: -0.171626537105
    y: -0.406065133265
    z: 0.0257760001658
  orientation: 
    x: -0.0878931117078
    y: -0.0266012762841
    z: -0.0499342777466
    w: 0.994521865481
---
header: 
  seq: 305
  stamp: 
    secs: 21782
    nsecs:  19000000
  frame_id: "world"
pose: 
  position: 
    x: -0.173131934132
    y: -0.403789770251
    z: 0.0225841515889
  orientation: 
    x: -0.0804227942927
    y: -0.0255887929857
    z: -0.0454593242821
    w: 0.995394814969
---
header: 
  seq: 306
  stamp: 
    secs: 21782
    nsecs: 199000000
  frame_id: "world"
pose: 
  position: 
    x: -0.175650913163
    y: -0.403133702378
    z: 0.0191446523137
  orientation: 
    x: -0.0780521215547
    y: -0.0250297598369
    z: -0.0440284436084
    w: 0.995662027797
---
header: 
  seq: 307
  stamp: 
    secs: 21782
    nsecs: 374000000
  frame_id: "world"
pose: 
  position: 
    x: -0.182220359344
    y: -0.402084461843
    z: 0.01120007087
  orientation: 
    x: -0.0760864674191
    y: -0.0212298200608
    z: -0.0433964835599
    w: 0.995930162928
---
header: 
  seq: 308
  stamp: 
    secs: 21782
    nsecs: 562000000
  frame_id: "world"
pose: 
  position: 
    x: -0.180000342044
    y: -0.401264202778
    z: 0.00828737721833
  orientation: 
    x: -0.0812130873037
    y: -0.0214805365503
    z: -0.0466635851711
    w: 0.995372056479
---
header: 
  seq: 309
  stamp: 
    secs: 21782
    nsecs: 840000000
  frame_id: "world"
pose: 
  position: 
    x: -0.186563364464
    y: -0.401383101767
    z: -0.00049845184789
  orientation: 
    x: -0.0860325936304
    y: -0.0211292580064
    z: -0.0464914338511
    w: 0.994982660084
---
header: 
  seq: 310
  stamp: 
    secs: 21783
    nsecs: 156000000
  frame_id: "world"
pose: 
  position: 
    x: -0.190921666124
    y: -0.396797205389
    z: -0.00837279708012
  orientation: 
    x: -0.080641344945
    y: -0.0197306526505
    z: -0.0402736639809
    w: 0.995733752979
---
header: 
  seq: 311
  stamp: 
    secs: 21783
    nsecs: 626000000
  frame_id: "world"
pose: 
  position: 
    x: -0.193900384989
    y: -0.395304984063
    z: -0.0191349648325
  orientation: 
    x: -0.0844793175924
    y: -0.0253487594007
    z: -0.0435849726855
    w: 0.995148750415
---
header: 
  seq: 312
  stamp: 
    secs: 21784
    nsecs:  88000000
  frame_id: "world"
pose: 
  position: 
    x: -0.193243459439
    y: -0.388075524259
    z: -0.0238783492268
  orientation: 
    x: -0.0797826095782
    y: -0.0313816899594
    z: -0.0426362916479
    w: 0.995405480886
---
header: 
  seq: 313
  stamp: 
    secs: 21784
    nsecs: 525000000
  frame_id: "world"
pose: 
  position: 
    x: -0.186728150488
    y: -0.380612606446
    z: -0.0293473254601
  orientation: 
    x: -0.0788897497378
    y: -0.0388188201038
    z: -0.0411091632347
    w: 0.995278625959
---
header: 
  seq: 314
  stamp: 
    secs: 21784
    nsecs: 775000000
  frame_id: "world"
pose: 
  position: 
    x: -0.177511191453
    y: -0.371699505591
    z: -0.0287832674612
  orientation: 
    x: -0.0863428803544
    y: -0.0429083701733
    z: -0.0356530137049
    w: 0.99470228782
---
header: 
  seq: 315
  stamp: 
    secs: 21785
    nsecs:  41000000
  frame_id: "world"
pose: 
  position: 
    x: -0.171244059402
    y: -0.366928792275
    z: -0.0287855573908
  orientation: 
    x: -0.0815215250314
    y: -0.0449870312588
    z: -0.0346268727684
    w: 0.995053459698
---
header: 
  seq: 316
  stamp: 
    secs: 21785
    nsecs: 527000000
  frame_id: "world"
pose: 
  position: 
    x: -0.151926467453
    y: -0.362086309772
    z: -0.0260271904233
  orientation: 
    x: -0.0738945612119
    y: -0.0432428633892
    z: -0.0368114363262
    w: 0.995647812605
---
header: 
  seq: 317
  stamp: 
    secs: 21785
    nsecs: 993000000
  frame_id: "world"
pose: 
  position: 
    x: -0.129032565201
    y: -0.359106298342
    z: -0.0226531160265
  orientation: 
    x: -0.0698264252664
    y: -0.0494129799052
    z: -0.0399215385013
    w: 0.995534478818
---
header: 
  seq: 318
  stamp: 
    secs: 21786
    nsecs: 175000000
  frame_id: "world"
pose: 
  position: 
    x: -0.12511321491
    y: -0.354644065669
    z: -0.019704271351
  orientation: 
    x: -0.0768532046407
    y: -0.0513435903361
    z: -0.0384244269812
    w: 0.994977881201
---
header: 
  seq: 319
  stamp: 
    secs: 21786
    nsecs: 363000000
  frame_id: "world"
pose: 
  position: 
    x: -0.115438191379
    y: -0.353611025381
    z: -0.0196229732713
  orientation: 
    x: -0.0774465670139
    y: -0.0494853454432
    z: -0.0351816889953
    w: 0.995145958442
---
header: 
  seq: 320
  stamp: 
    secs: 21786
    nsecs: 516000000
  frame_id: "world"
pose: 
  position: 
    x: -0.111076396192
    y: -0.352071398416
    z: -0.0176289004589
  orientation: 
    x: -0.0756769654282
    y: -0.0489278895455
    z: -0.0333837504525
    w: 0.995371580735
---
header: 
  seq: 321
  stamp: 
    secs: 21786
    nsecs: 664000000
  frame_id: "world"
pose: 
  position: 
    x: -0.106087905598
    y: -0.351913841096
    z: -0.0167567028839
  orientation: 
    x: -0.0706544587385
    y: -0.0497999631295
    z: -0.0375004993994
    w: 0.995550914659
---
header: 
  seq: 322
  stamp: 
    secs: 21787
    nsecs: 216000000
  frame_id: "world"
pose: 
  position: 
    x: -0.0790560392502
    y: -0.347417744703
    z: -0.00677790425349
  orientation: 
    x: -0.0688500523263
    y: -0.0602873911129
    z: -0.0397926581375
    w: 0.99500836435
---
header: 
  seq: 323
  stamp: 
    secs: 21787
    nsecs: 681000000
  frame_id: "world"
pose: 
  position: 
    x: -0.0658731907739
    y: -0.350210079662
    z: -0.00833676005681
  orientation: 
    x: -0.07104008336
    y: -0.061829634634
    z: -0.0390085344321
    w: 0.99479080066
---
header: 
  seq: 324
  stamp: 
    secs: 21788
    nsecs: 161000000
  frame_id: "world"
pose: 
  position: 
    x: -0.0493333221834
    y: -0.35502505605
    z: -0.00742303002333
  orientation: 
    x: -0.0747923433203
    y: -0.0620040317837
    z: -0.036764655922
    w: 0.994590350596
---
header: 
  seq: 325
  stamp: 
    secs: 21788
    nsecs: 632000000
  frame_id: "world"
pose: 
  position: 
    x: -0.0429455247895
    y: -0.359312992964
    z: -0.00536937159723
  orientation: 
    x: -0.0746584778944
    y: -0.0596808848749
    z: -0.0350549122276
    w: 0.994804230383
---
header: 
  seq: 326
  stamp: 
    secs: 21788
    nsecs: 902000000
  frame_id: "world"
pose: 
  position: 
    x: -0.0335494398611
    y: -0.361149665668
    z: -0.00236338637418
  orientation: 
    x: -0.0725556472211
    y: -0.0615284676195
    z: -0.0373317779081
    w: 0.994764426428
---
header: 
  seq: 327
  stamp: 
    secs: 21789
    nsecs: 165000000
  frame_id: "world"
pose: 
  position: 
    x: -0.0275337588947
    y: -0.361206434722
    z: -0.00352796187302
  orientation: 
    x: -0.0727168564516
    y: -0.0618742585098
    z: -0.0372492225468
    w: 0.99473430138
---
header: 
  seq: 328
  stamp: 
    secs: 21789
    nsecs: 618000000
  frame_id: "world"
pose: 
  position: 
    x: -0.0169955516336
    y: -0.361068489803
    z: -0.00261792991196
  orientation: 
    x: -0.0761097860403
    y: -0.0642581835797
    z: -0.0379696583943
    w: 0.994302012144
---
header: 
  seq: 329
  stamp: 
    secs: 21789
    nsecs: 824000000
  frame_id: "world"
pose: 
  position: 
    x: -0.01499724481
    y: -0.358620696554
    z: -0.0017497931694
  orientation: 
    x: -0.0798476332796
    y: -0.0652591207312
    z: -0.0392817338491
    w: 0.993892623983
---
header: 
  seq: 330
  stamp: 
    secs: 21790
    nsecs:  18000000
  frame_id: "world"
pose: 
  position: 
    x: -0.0133651806043
    y: -0.358635623624
    z: 0.000685964269818
  orientation: 
    x: -0.0692003295942
    y: -0.0642422151765
    z: -0.0397328260686
    w: 0.994738937966
---
header: 
  seq: 331
  stamp: 
    secs: 21790
    nsecs: 403000000
  frame_id: "world"
pose: 
  position: 
    x: 0.000372745368382
    y: -0.356187526278
    z: 0.0012009500129
  orientation: 
    x: -0.0715231954591
    y: -0.0662255944988
    z: -0.0366667066357
    w: 0.994562293559
---
header: 
  seq: 332
  stamp: 
    secs: 21790
    nsecs: 674000000
  frame_id: "world"
pose: 
  position: 
    x: 0.00335391670838
    y: -0.354019434486
    z: -0.000262116993491
  orientation: 
    x: -0.0738254589159
    y: -0.0656206382188
    z: -0.0359233898287
    w: 0.994461283067
---
header: 
  seq: 333
  stamp: 
    secs: 21790
    nsecs: 932000000
  frame_id: "world"
pose: 
  position: 
    x: 0.00668764557863
    y: -0.351756269144
    z: -0.000934463201848
  orientation: 
    x: -0.0739711424335
    y: -0.0656587445332
    z: -0.0353685307801
    w: 0.994467830744
---
header: 
  seq: 334
  stamp: 
    secs: 21791
    nsecs: 215000000
  frame_id: "world"
pose: 
  position: 
    x: 0.0147802675294
    y: -0.349942471985
    z: -0.00558765421101
  orientation: 
    x: -0.0731704859626
    y: -0.0663264593358
    z: -0.0355512473673
    w: 0.994476238825
---
header: 
  seq: 335
  stamp: 
    secs: 21791
    nsecs: 686000000
  frame_id: "world"
pose: 
  position: 
    x: 0.019197450105
