header: 
  seq: 68
  stamp: 
    secs: 22283
    nsecs:  42000000
  frame_id: "world"
pose: 
  position: 
    x: -3.02795706375e-05
    y: -8.28054817248e-06
    z: 6.92621188136e-06
  orientation: 
    x: -5.54969210481e-06
    y: 5.54544840253e-06
    z: -4.27164962944e-07
    w: 0.999999999969
---
header: 
  seq: 69
  stamp: 
    secs: 22283
    nsecs: 462000000
  frame_id: "world"
pose: 
  position: 
    x: 2.10938378586e-05
    y: 4.66141391371e-05
    z: -3.87980435335e-06
  orientation: 
    x: 2.02622941228e-05
    y: -1.27022567502e-05
    z: 4.4562275421e-06
    w: 0.999999999704
---
header: 
  seq: 70
  stamp: 
    secs: 22283
    nsecs: 716000000
  frame_id: "world"
pose: 
  position: 
    x: -0.000280698324786
    y: 0.000406046106946
    z: -0.000147107261
  orientation: 
    x: 0.000137473948427
    y: 0.000113939682122
    z: 0.000101483926889
    w: 0.99999997891
---
header: 
  seq: 71
  stamp: 
    secs: 22283
    nsecs: 881000000
  frame_id: "world"
pose: 
  position: 
    x: -0.000334193668095
    y: 0.000409180735005
    z: -0.000125885839225
  orientation: 
    x: 0.000138301326365
    y: 0.00013149493011
    z: 9.96810462855e-05
    w: 0.999999976823
---
header: 
  seq: 72
  stamp: 
    secs: 22284
    nsecs: 167000000
  frame_id: "world"
pose: 
  position: 
    x: -2.84198740701e-05
    y: 2.76187365671e-05
    z: 2.18906143346e-06
  orientation: 
    x: 1.22502833607e-05
    y: 6.8240365174e-06
    z: 1.83839642868e-06
    w: 0.9999999999
---
header: 
  seq: 73
  stamp: 
    secs: 22284
    nsecs: 388000000
  frame_id: "world"
pose: 
  position: 
    x: -0.000360307778465
    y: 0.000384467071854
    z: -0.000129145351821
  orientation: 
    x: 0.0001292399508
    y: 0.000135043865637
    z: 0.000108743440436
    w: 0.999999976618
---
header: 
  seq: 74
  stamp: 
    secs: 22284
    nsecs: 725000000
  frame_id: "world"
pose: 
  position: 
    x: 8.30369317555e-05
    y: 2.8874788768e-05
    z: -4.20307878812e-06
  orientation: 
    x: 9.14678275425e-06
    y: -2.98815375425e-05
    z: -3.25235100557e-06
    w: 0.999999999506
---
header: 
  seq: 75
  stamp: 
    secs: 22285
    nsecs:   6000000
  frame_id: "world"
pose: 
  position: 
    x: -0.000238188280491
    y: 0.000388696527807
    z: -0.000149815314217
  orientation: 
    x: 0.000129158271605
    y: 9.4745277358e-05
    z: 0.000101020295923
    w: 0.999999982068
---
header: 
  seq: 76
  stamp: 
    secs: 22285
    nsecs: 248000000
  frame_id: "world"
pose: 
  position: 
    x: -0.000433607870946
    y: 0.000563953246456
    z: -0.000136350630783
  orientation: 
    x: 0.000195403357243
    y: 0.000154205635417
    z: 0.000134675452563
    w: 0.99999995995
---
header: 
  seq: 77
  stamp: 
    secs: 22285
    nsecs: 612000000
  frame_id: "world"
pose: 
  position: 
    x: -0.000360667938367
    y: 0.000364475592505
    z: -0.000130477987113
  orientation: 
    x: 0.000119478097158
    y: 0.000135955761551
    z: 0.000107456178178
    w: 0.999999977847
---
header: 
  seq: 78
  stamp: 
    secs: 22285
    nsecs: 851000000
  frame_id: "world"
pose: 
  position: 
    x: -0.00039389586891
    y: 0.000563442474231
    z: -0.000151437780005
  orientation: 
    x: 0.000196041007915
    y: 0.000145077918092
    z: 0.000131578572514
    w: 0.999999961604
---
header: 
  seq: 79
  stamp: 
    secs: 22286
    nsecs:         0
  frame_id: "world"
pose: 
  position: 
    x: -0.000309455557726
    y: 0.000397986121243
    z: -0.000122337674838
  orientation: 
    x: 0.000131882869851
    y: 0.000113602732503
    z: 0.000111259590439
    w: 0.999999978661
---
header: 
  seq: 80
  stamp: 
    secs: 22286
    nsecs: 188000000
  frame_id: "world"
pose: 
  position: 
    x: -0.000268664793111
    y: 0.000397250900278
    z: -0.000156331181643
  orientation: 
    x: 0.000134412560335
    y: 0.000110081933189
    z: 0.000101535979174
    w: 0.999999979753
---
header: 
  seq: 81
  stamp: 
    secs: 22286
    nsecs: 347000000
  frame_id: "world"
pose: 
  position: 
    x: 3.96177129005e-05
    y: 0.000175245702849
    z: -8.41090695758e-06
  orientation: 
    x: 6.8006323837e-05
    y: -8.42809274929e-06
    z: 9.51773561151e-06
    w: 0.999999997607
---
header: 
  seq: 82
  stamp: 
    secs: 22286
    nsecs: 660000000
  frame_id: "world"
pose: 
  position: 
    x: 4.83841031382e-05
    y: 0.000129400970764
    z: 4.41740558017e-05
  orientation: 
    x: 6.83333926729e-05
    y: -2.00906269528e-05
    z: -2.32943875153e-06
    w: 0.999999997461
---
header: 
  seq: 83
  stamp: 
    secs: 22286
    nsecs: 994000000
  frame_id: "world"
pose: 
  position: 
    x: -4.7244833695e-05
    y: 8.49040006869e-05
    z: -1.42741816944e-06
  orientation: 
    x: 3.14297903796e-05
    y: 1.01360137649e-05
    z: 3.626450505e-06
    w: 0.999999999448
---
header: 
  seq: 84
  stamp: 
    secs: 22287
    nsecs: 378000000
  frame_id: "world"
pose: 
  position: 
    x: -4.63953438157e-05
    y: 9.34413619689e-05
    z: -4.32884553447e-06
  orientation: 
    x: 3.9082839031e-05
    y: 1.64844495736e-05
    z: -3.12893029958e-06
    w: 0.999999999096
---
header: 
  seq: 85
  stamp: 
    secs: 22287
    nsecs: 581000000
  frame_id: "world"
pose: 
  position: 
    x: 7.22179465811e-05
    y: 6.55296535115e-05
    z: -6.62644333715e-06
  orientation: 
    x: 2.83568224199e-05
    y: -2.53292928208e-05
    z: -1.45700960169e-06
    w: 0.999999999276
---
header: 
  seq: 86
  stamp: 
    secs: 22287
    nsecs: 735000000
  frame_id: "world"
pose: 
  position: 
    x: -0.000384722312447
    y: 0.000557566352654
    z: -0.000145433543366
  orientation: 
    x: 0.000195395354212
    y: 0.000140592785303
    z: 0.000129676433671
    w: 0.999999962619
---
header: 
  seq: 87
  stamp: 
    secs: 22287
    nsecs: 887000000
  frame_id: "world"
pose: 
  position: 
    x: 6.47756824037e-05
    y: 6.58865901642e-05
    z: -4.06582194046e-06
  orientation: 
    x: 2.77432136294e-05
    y: -2.65964135709e-05
    z: 2.59282569267e-06
    w: 0.999999999258
---
header: 
  seq: 88
  stamp: 
    secs: 22288
    nsecs:  87000000
  frame_id: "world"
pose: 
  position: 
    x: 6.05617606197e-05
    y: 0.000166209516465
    z: -3.95917923015e-05
  orientation: 
    x: 5.93578441796e-05
    y: -1.63313997888e-05
    z: 5.97115785007e-06
    w: 0.999999998087
---
header: 
  seq: 89
  stamp: 
    secs: 22288
    nsecs: 431000000
  frame_id: "world"
pose: 
  position: 
    x: -0.000356460106559
    y: 0.000533529440872
    z: -0.000141790151247
  orientation: 
    x: 0.000187243867011
    y: 0.000132258380346
    z: 0.00012396958061
    w: 0.999999966039
---
header: 
  seq: 90
  stamp: 
    secs: 22288
    nsecs: 701000000
  frame_id: "world"
pose: 
  position: 
    x: -0.000411027082009
    y: 0.000564466812648
    z: -0.000138485047501
  orientation: 
    x: 0.000198488858029
    y: 0.000147697757339
    z: 0.000133100455264
    w: 0.999999960536
---
header: 
  seq: 91
  stamp: 
    secs: 22289
    nsecs: 114000000
  frame_id: "world"
pose: 
  position: 
    x: -0.000291549251415
    y: 0.000414547132095
    z: -0.000114587448479
  orientation: 
    x: 0.000137105712171
    y: 0.000106990575183
    z: 0.000112494822449
    w: 0.99999997855
---
header: 
  seq: 92
  stamp: 
    secs: 22289
    nsecs: 509000000
  frame_id: "world"
pose: 
  position: 
    x: -0.000254274142208
    y: 0.000410591630498
    z: -0.000198424502742
  orientation: 
    x: 0.000124818351799
    y: 0.000104845557522
    z: 0.000121566064296
    w: 0.999999979325
---
header: 
  seq: 93
  stamp: 
    secs: 22289
    nsecs: 663000000
  frame_id: "world"
pose: 
  position: 
    x: -0.000295268138871
    y: 0.000446929188911
    z: -0.000120696611702
  orientation: 
    x: 0.000150543910411
    y: 0.000110047917648
    z: 0.000117075248345
    w: 0.99999997576
---
header: 
  seq: 94
  stamp: 
    secs: 22289
    nsecs: 836000000
  frame_id: "world"
pose: 
  position: 
    x: 8.59965657583e-05
    y: 0.00106608425267
    z: 0.000305237976136
  orientation: 
    x: 0.00136552864419
    y: 0.00016788097479
    z: 0.00140237677028
    w: 0.999998070242
---
header: 
  seq: 95
  stamp: 
    secs: 22290
    nsecs:  53000000
  frame_id: "world"
pose: 
  position: 
    x: 0.0113524748012
    y: -0.044795371592
    z: 0.000311202835292
  orientation: 
    x: 0.00177930598293
    y: -0.0008631903336
    z: -0.00115435570573
    w: 0.999997378214
---
header: 
  seq: 96
  stamp: 
    secs: 22290
    nsecs: 339000000
  frame_id: "world"
pose: 
  position: 
    x: 0.0112403361127
    y: -0.0619952082634
    z: -0.0137007478625
  orientation: 
    x: 0.00765244273365
    y: 0.00582644703063
    z: 0.00237561640681
    w: 0.999950923337
---
header: 
  seq: 97
  stamp: 
    secs: 22290
    nsecs: 783000000
  frame_id: "world"
pose: 
  position: 
    x: 0.0381732732058
    y: -0.139444991946
    z: -0.012631286867
  orientation: 
    x: -0.000858183113237
    y: 0.00493399972462
    z: -0.00256139568925
    w: 0.999984179085
---
header: 
  seq: 98
  stamp: 
    secs: 22291
    nsecs: 133000000
  frame_id: "world"
pose: 
  position: 
    x: 0.0510464632156
    y: -0.152704397763
    z: -0.0227266685306
  orientation: 
    x: 0.00247541222248
    y: 0.011347551719
    z: -0.00796368152332
    w: 0.999900837674
---
header: 
  seq: 99
  stamp: 
    secs: 22291
    nsecs: 618000000
  frame_id: "world"
pose: 
  position: 
    x: 0.0698162068018
    y: -0.162823081605
    z: -0.0330045503216
  orientation: 
    x: 0.001277498241
    y: 0.01883674147
    z: -0.0100711122344
    w: 0.999771032721
---
header: 
  seq: 100
  stamp: 
    secs: 22291
    nsecs: 756000000
  frame_id: "world"
pose: 
  position: 
    x: 0.0768330812408
    y: -0.164212440119
    z: -0.0357498980629
  orientation: 
    x: 0.00119872209918
    y: 0.0208201951446
    z: -0.0112828153824
    w: 0.999718850786
---
header: 
  seq: 101
  stamp: 
    secs: 22291
    nsecs: 909000000
  frame_id: "world"
pose: 
  position: 
    x: 0.0822699469152
    y: -0.165110384213
    z: -0.0362632956215
  orientation: 
    x: 0.000967243184211
    y: 0.0230195521201
    z: -0.0112621599541
    w: 0.999671110123
---
header: 
  seq: 102
  stamp: 
    secs: 22292
    nsecs:  78000000
  frame_id: "world"
pose: 
  position: 
    x: 0.090344394977
    y: -0.165190729061
    z: -0.0339203345435
  orientation: 
    x: 0.000350420685478
    y: 0.0242946064524
    z: -0.0102788578841
    w: 0.999651936618
---
header: 
  seq: 103
  stamp: 
    secs: 22292
    nsecs: 299000000
  frame_id: "world"
pose: 
  position: 
    x: 0.100989464986
    y: -0.165750525009
    z: -0.0364349455567
  orientation: 
    x: 0.000384263617917
    y: 0.0273405619382
    z: -0.0112637870184
    w: 0.999562640917
---
header: 
  seq: 104
  stamp: 
    secs: 22292
    nsecs: 823000000
  frame_id: "world"
pose: 
  position: 
    x: 0.123498041644
    y: -0.162645630516
    z: -0.0309525434251
  orientation: 
    x: 0.000554673096506
    y: 0.0326549298833
    z: -0.0105037770117
    w: 0.999411336018
---
header: 
  seq: 105
  stamp: 
    secs: 22293
    nsecs:  95000000
  frame_id: "world"
pose: 
  position: 
    x: 0.18430435917
    y: -0.0655651891469
    z: -0.0410264150941
  orientation: 
    x: 0.104325075429
    y: 0.0346570315591
    z: -0.0346613058266
    w: 0.993334668014
---
header: 
  seq: 106
  stamp: 
    secs: 22293
    nsecs: 635000000
  frame_id: "world"
pose: 
  position: 
    x: 0.208519021504
    y: -0.065594899751
    z: -0.0402509800358
  orientation: 
    x: 0.10313136816
    y: 0.0425498763039
    z: -0.0322477723422
    w: 0.99323386476
---
header: 
  seq: 107
  stamp: 
    secs: 22293
    nsecs: 922000000
  frame_id: "world"
pose: 
  position: 
    x: 0.222568668815
    y: -0.0652304077689
    z: -0.0390769285507
  orientation: 
    x: 0.103396224318
    y: 0.0468541661537
    z: -0.0329119995501
    w: 0.992990789583
---
header: 
  seq: 108
  stamp: 
    secs: 22294
    nsecs:  95000000
  frame_id: "world"
pose: 
  position: 
    x: 0.233090883508
    y: -0.0633468755139
    z: -0.0324722162584
  orientation: 
    x: 0.104312076562
    y: 0.0478317401803
    z: -0.0318642560145
    w: 0.992882563299
---
header: 
  seq: 109
  stamp: 
    secs: 22294
    nsecs: 291000000
  frame_id: "world"
pose: 
  position: 
    x: 0.241872621682
    y: -0.0627235166183
    z: -0.0301644220876
  orientation: 
    x: 0.0836820394663
    y: 0.0527665086809
    z: -0.0690639373939
    w: 0.992694910022
---
header: 
  seq: 110
  stamp: 
    secs: 22294
    nsecs: 445000000
  frame_id: "world"
pose: 
  position: 
    x: 0.245002796479
    y: -0.0633830781873
    z: -0.0287927578176
  orientation: 
    x: 0.0821135844376
    y: 0.053943989898
    z: -0.0714971482658
    w: 0.992590329892
---
header: 
  seq: 111
  stamp: 
    secs: 22294
    nsecs: 585000000
  frame_id: "world"
pose: 
  position: 
    x: 0.244029321701
    y: -0.0642646713431
    z: -0.0269052367483
  orientation: 
    x: 0.0911148755981
    y: 0.0508963682347
    z: -0.0590668495831
    w: 0.992783333072
---
header: 
  seq: 112
  stamp: 
    secs: 22294
    nsecs: 777000000
  frame_id: "world"
pose: 
  position: 
    x: 0.242173389845
    y: -0.0654914405754
    z: -0.0233560445989
  orientation: 
    x: 0.0994181284365
    y: 0.0474414134043
    z: -0.0401554114568
    w: 0.993102658824
---
header: 
  seq: 113
  stamp: 
    secs: 22295
    nsecs:  27000000
  frame_id: "world"
pose: 
  position: 
    x: 0.232585229706
    y: -0.0658790881449
    z: -0.0151442804439
  orientation: 
    x: 0.100306538553
    y: 0.0481737584108
    z: -0.0383765832667
    w: 0.993048400221
---
header: 
  seq: 114
  stamp: 
    secs: 22295
    nsecs: 326000000
  frame_id: "world"
pose: 
  position: 
    x: 0.21877842865
    y: -0.0665794773317
    z: -0.00737406060837
  orientation: 
    x: 0.106631933794
    y: 0.0474209532404
    z: -0.0293539242615
    w: 0.992733212409
---
header: 
  seq: 115
  stamp: 
    secs: 22295
    nsecs: 788000000
  frame_id: "world"
pose: 
  position: 
    x: 0.19988246299
    y: -0.0670641976864
    z: 0.00752321077821
  orientation: 
    x: 0.103545315579
    y: 0.0486720425103
    z: -0.0321051410896
    w: 0.99291422581
---
header: 
  seq: 116
  stamp: 
    secs: 22295
    nsecs: 991000000
  frame_id: "world"
pose: 
  position: 
    x: 0.188026742527
    y: -0.0668918547681
    z: 0.0134944321858
  orientation: 
    x: 0.0996409980781
    y: 0.0487166081755
    z: -0.0305934643321
    w: 0.993359151329
---
header: 
  seq: 117
  stamp: 
    secs: 22296
    nsecs: 158000000
  frame_id: "world"
pose: 
  position: 
    x: 0.181047627896
    y: -0.0678071862752
    z: 0.0198472938649
  orientation: 
    x: 0.105557116904
    y: 0.0462016260714
    z: -0.0276565670854
    w: 0.992954288533
---
header: 
  seq: 118
  stamp: 
    secs: 22296
    nsecs: 331000000
  frame_id: "world"
pose: 
  position: 
    x: 0.173339463287
    y: -0.0670247217635
    z: 0.0280127110768
  orientation: 
    x: 0.099509279187
    y: 0.0467351122983
    z: -0.0330807661896
    w: 0.993387837424
---
header: 
  seq: 119
  stamp: 
    secs: 22296
    nsecs: 496000000
  frame_id: "world"
pose: 
  position: 
    x: 0.166712582377
    y: -0.0684228049495
    z: 0.0321078280205
  orientation: 
    x: 0.101801661105
    y: 0.049837934399
    z: -0.0395383844163
    w: 0.992768511914
---
header: 
  seq: 120
  stamp: 
    secs: 22296
    nsecs: 611000000
  frame_id: "world"
pose: 
  position: 
    x: 0.163083979474
    y: -0.0690108623876
    z: 0.0366716724501
  orientation: 
    x: 0.0987527479803
    y: 0.0470956998366
    z: -0.037911822885
    w: 0.993273669997
---
header: 
  seq: 121
  stamp: 
    secs: 22296
    nsecs: 917000000
  frame_id: "world"
pose: 
  position: 
    x: 0.147023744496
    y: -0.069079344828
    z: 0.0484155731921
  orientation: 
    x: 0.108880219558
    y: 0.0448802295825
    z: -0.0313934700937
    w: 0.992544866904
---
header: 
  seq: 122
  stamp: 
    secs: 22297
    nsecs: 424000000
  frame_id: "world"
pose: 
  position: 
    x: 0.121756500277
    y: -0.0693111940419
    z: 0.0669165116958
  orientation: 
    x: 0.101543986127
    y: 0.0476818645026
    z: -0.0345665079456
    w: 0.993086308035
---
header: 
  seq: 123
  stamp: 
    secs: 22297
    nsecs: 756000000
  frame_id: "world"
pose: 
  position: 
    x: 0.103910113236
    y: -0.0742405262811
    z: 0.072783789898
  orientation: 
    x: 0.100792582932
    y: 0.0465492729425
    z: -0.0295059996179
    w: 0.993379794641
---
header: 
  seq: 124
  stamp: 
    secs: 22298
    nsecs:  13000000
  frame_id: "world"
pose: 
  position: 
    x: 0.0896511343916
    y: -0.0739820143486
    z: 0.0850821770214
  orientation: 
    x: 0.0947910848506
    y: 0.0492085031542
    z: -0.0292167030855
    w: 0.993850872974
---
header: 
  seq: 125
  stamp: 
    secs: 22298
    nsecs: 223000000
  frame_id: "world"
pose: 
  position: 
    x: 0.0789985103098
    y: -0.0726109169254
    z: 0.094366550513
  orientation: 
    x: 0.0989423680077
    y: 0.0505604447253
    z: -0.024244106099
    w: 0.993512089791
---
header: 
  seq: 126
  stamp: 
    secs: 22298
    nsecs: 385000000
  frame_id: "world"
pose: 
  position: 
    x: 0.0682928999732
    y: -0.0738432949168
    z: 0.0993625384965
  orientation: 
    x: 0.0972945125563
    y: 0.0521760199497
    z: -0.027907737235
    w: 0.993495142903
---
header: 
  seq: 127
  stamp: 
    secs: 22298
    nsecs: 554000000
  frame_id: "world"
pose: 
  position: 
    x: 0.0583647593602
    y: -0.0745664607057
    z: 0.104168172014
  orientation: 
    x: 0.104601868929
    y: 0.0536791390282
    z: -0.0273320751298
    w: 0.992688247497
---
header: 
  seq: 128
  stamp: 
    secs: 22298
    nsecs: 802000000
  frame_id: "world"
pose: 
  position: 
    x: 0.0468116687392
    y: -0.0748769559548
    z: 0.114619678648
  orientation: 
    x: 0.100147651014
    y: 0.058754716743
    z: -0.0242239584235
    w: 0.992940849746
---
header: 
  seq: 129
  stamp: 
    secs: 22299
    nsecs: 229000000
  frame_id: "world"
pose: 
  position: 
    x: 0.0224178968968
    y: -0.0763644407112
    z: 0.130131004448
  orientation: 
    x: 0.0949990789422
    y: 0.0620520197494
    z: -0.0228208131753
    w: 0.993279382818
---
header: 
  seq: 130
  stamp: 
    secs: 22299
    nsecs: 749000000
  frame_id: "world"
pose: 
  position: 
    x: -0.00793946706752
    y: -0.0819761247154
    z: 0.148401664779
  orientation: 
    x: 0.105256434559
    y: 0.0657654018197
    z: -0.0244565054586
    w: 0.991966669928
---
header: 
  seq: 131
  stamp: 
    secs: 22299
    nsecs: 950000000
  frame_id: "world"
pose: 
  position: 
    x: -0.0188615870502
    y: -0.0841130716176
    z: 0.15511879843
  orientation: 
    x: 0.0951712924345
    y: 0.0667591592003
    z: -0.0284476395995
    w: 0.992812354657
---
header: 
  seq: 132
  stamp: 
    secs: 22300
    nsecs:  78000000
  frame_id: "world"
pose: 
  position: 
    x: -0.0269325363198
    y: -0.0863890675223
    z: 0.161643478986
  orientation: 
    x: 0.0967720205939
    y: 0.0666129781909
    z: -0.0243353564683
    w: 0.992776751134
---
header: 
  seq: 133
  stamp: 
    secs: 22300
    nsecs: 202000000
  frame_id: "world"
pose: 
  position: 
    x: -0.0327685733789
    y: -0.0870552694341
    z: 0.168717017024
  orientation: 
    x: 0.0993036703729
    y: 0.0662881037478
    z: -0.027355077485
    w: 0.992469832331
---
header: 
  seq: 134
  stamp: 
    secs: 22300
    nsecs: 356000000
  frame_id: "world"
pose: 
  position: 
    x: -0.0415937590195
    y: -0.0877702110617
    z: 0.180584069463
  orientation: 
    x: 0.0992476886217
    y: 0.0686422276296
    z: -0.024849199721
    w: 0.992381306839
---
header: 
  seq: 135
  stamp: 
    secs: 22300
    nsecs: 474000000
  frame_id: "world"
pose: 
  position: 
    x: -0.0520937952459
    y: -0.0886948027559
    z: 0.185409538596
  orientation: 
    x: 0.101531316637
    y: 0.0701858436199
    z: -0.0256400091899
    w: 0.992022141399
---
header: 
  seq: 136
  stamp: 
    secs: 22300
    nsecs: 589000000
  frame_id: "world"
pose: 
  position: 
    x: -0.0586771659216
    y: -0.0884367762398
    z: 0.190123986632
  orientation: 
    x: 0.101275063898
    y: 0.0716489185685
    z: -0.0267644610533
    w: 0.991914037367
---
header: 
  seq: 137
  stamp: 
    secs: 22300
    nsecs: 744000000
  frame_id: "world"
pose: 
  position: 
    x: -0.068612397066
    y: -0.0896747723875
    z: 0.197882631504
  orientation: 
    x: 0.101636213689
    y: 0.070752257393
    z: -0.028826626445
    w: 0.991883674504
---
header: 
  seq: 138
  stamp: 
    secs: 22301
    nsecs:  30000000
  frame_id: "world"
pose: 
  position: 
    x: -0.0881049498512
    y: -0.0925328013227
    z: 0.210928855712
  orientation: 
    x: 0.10218308318
    y: 0.0723733993385
    z: -0.0257624210116
    w: 0.991794840803
---
header: 
  seq: 139
  stamp: 
    secs: 22301
    nsecs: 324000000
  frame_id: "world"
pose: 
  position: 
    x: -0.110222222815
    y: -0.0959313152602
    z: 0.223162982682
  orientation: 
    x: 0.0996708572232
    y: 0.0759351015558
    z: -0.0228958589955
    w: 0.991854505567
---
header: 
  seq: 140
  stamp: 
    secs: 22301
    nsecs: 524000000
  frame_id: "world"
pose: 
  position: 
    x: -0.124385566381
    y: -0.0968374705029
    z: 0.231032644449
  orientation: 
    x: 0.0970848688784
    y: 0.0787023100073
    z: -0.0227644042395
    w: 0.991898309573
---
header: 
  seq: 141
  stamp: 
    secs: 22301
    nsecs: 677000000
  frame_id: "world"
pose: 
  position: 
    x: -0.133566302058
    y: -0.0993732911388
    z: 0.236804908102
  orientation: 
    x: 0.101186619787
    y: 0.0783715577018
    z: -0.0243439555154
    w: 0.991476948168
---
header: 
  seq: 142
  stamp: 
    secs: 22302
    nsecs:  16000000
  frame_id: "world"
pose: 
  position: 
    x: -0.158436096622
    y: -0.105791695199
    z: 0.254551859546
  orientation: 
    x: 0.0997024661617
    y: 0.0777642541903
    z: -0.0233479779112
    w: 0.991699052606
---
header: 
  seq: 143
  stamp: 
    secs: 22302
    nsecs: 178000000
  frame_id: "world"
pose: 
  position: 
    x: -0.166887037002
    y: -0.106725314506
    z: 0.258112128024
  orientation: 
    x: 0.0986918229813
    y: 0.0768559970581
    z: -0.0219059693717
    w: 0.991903830166
---
header: 
  seq: 144
  stamp: 
    secs: 22302
    nsecs: 341000000
  frame_id: "world"
pose: 
  position: 
    x: -0.181316843544
    y: -0.107917772279
    z: 0.265154389197
  orientation: 
    x: 0.098611893102
    y: 0.0818612156382
    z: -0.0185040057761
    w: 0.991580575487
---
header: 
  seq: 145
  stamp: 
    secs: 22302
    nsecs: 496000000
  frame_id: "world"
pose: 
  position: 
    x: -0.192134462422
    y: -0.108213535778
    z: 0.270483057634
  orientation: 
    x: 0.102461546363
    y: 0.0838893280113
    z: -0.0225950617682
    w: 0.990935757426
---
header: 
  seq: 146
  stamp: 
    secs: 22302
    nsecs: 691000000
  frame_id: "world"
pose: 
  position: 
    x: -0.204902379169
    y: -0.109880585922
    z: 0.280221747367
  orientation: 
    x: 0.0958325558321
    y: 0.0844760180742
    z: -0.0222561066758
    w: 0.991556649581
---
header: 
  seq: 147
  stamp: 
    secs: 22302
    nsecs: 862000000
  frame_id: "world"
pose: 
  position: 
    x: -0.220216071895
    y: -0.110357239578
    z: 0.288762189139
  orientation: 
    x: 0.0929485548687
    y: 0.0870572350234
    z: -0.0157728222885
    w: 0.991732233042
---
header: 
  seq: 148
  stamp: 
    secs: 22303
    nsecs: 211000000
  frame_id: "world"
pose: 
  position: 
    x: -0.244035776994
    y: -0.115034082691
    z: 0.304275206887
  orientation: 
    x: 0.0960230262782
    y: 0.0872913426995
    z: -0.0206210590379
    w: 0.991329698858
---
header: 
  seq: 149
  stamp: 
    secs: 22303
    nsecs: 504000000
  frame_id: "world"
pose: 
  position: 
    x: -0.259133908976
    y: -0.120482859312
    z: 0.319588814604
  orientation: 
    x: 0.102479119096
    y: 0.0882922781524
    z: -0.0236422773528
    w: 0.990526903466
---
header: 
  seq: 150
  stamp: 
    secs: 22303
    nsecs: 860000000
  frame_id: "world"
pose: 
  position: 
    x: -0.27928454319
    y: -0.123282534631
    z: 0.338297178025
  orientation: 
    x: 0.0941495561081
    y: 0.0868159763647
    z: -0.022884477818
    w: 0.991501461425
---
header: 
  seq: 151
  stamp: 
    secs: 22304
    nsecs:  62000000
  frame_id: "world"
pose: 
  position: 
    x: -0.290141244419
    y: -0.123077517137
    z: 0.348108578716
  orientation: 
    x: 0.095654529122
    y: 0.0846032277967
    z: -0.0158135170871
    w: 0.991686663005
---
header: 
  seq: 152
  stamp: 
    secs: 22304
    nsecs: 313000000
  frame_id: "world"
pose: 
  position: 
    x: -0.307346522308
    y: -0.125788719044
    z: 0.360916846298
  orientation: 
    x: 0.101532597357
    y: 0.0894115599409
    z: -0.0206660954788
    w: 0.990590539588
---
header: 
  seq: 153
  stamp: 
    secs: 22304
    nsecs: 463000000
  frame_id: "world"
pose: 
  position: 
    x: -0.317587635613
    y: -0.126018828894
    z: 0.369213140927
  orientation: 
    x: 0.104674060957
    y: 0.0894710349466
    z: -0.015985454886
    w: 0.990344758203
---
header: 
  seq: 154
  stamp: 
    secs: 22304
    nsecs: 690000000
  frame_id: "world"
pose: 
  position: 
    x: -0.327024212389
    y: -0.127218815742
    z: 0.377589905052
  orientation: 
    x: 0.0942756249895
    y: 0.0906607610576
    z: -0.0163068613636
    w: 0.991275349845
---
header: 
  seq: 155
  stamp: 
    secs: 22305
    nsecs: 176000000
  frame_id: "world"
pose: 
  position: 
    x: -0.351950077879
    y: -0.129941612687
    z: 0.398646227883
  orientation: 
    x: 0.0954281488258
    y: 0.0979644519779
    z: -0.0207078144028
    w: 0.990387611485
---
header: 
  seq: 156
  stamp: 
    secs: 22305
    nsecs: 583000000
  frame_id: "world"
pose: 
  position: 
    x: -0.379344116909
    y: -0.131490224758
    z: 0.420915343276
  orientation: 
    x: 0.0956150693438
    y: 0.103847464077
    z: -0.0134621022447
    w: 0.989895062379
---
header: 
  seq: 157
  stamp: 
    secs: 22305
    nsecs: 812000000
  frame_id: "world"
pose: 
  position: 
    x: -0.391714700175
    y: -0.133155588063
    z: 0.433518351916
  orientation: 
    x: 0.096266261184
    y: 0.104760341001
    z: -0.0137986192869
    w: 0.989731112988
---
header: 
  seq: 158
  stamp: 
    secs: 22306
    nsecs:  34000000
  frame_id: "world"
pose: 
  position: 
    x: -0.406025104802
    y: -0.137901742987
    z: 0.44873410378
  orientation: 
    x: 0.108330225721
    y: 0.106040973898
    z: -0.0127775697363
    w: 0.988360565665
---
header: 
  seq: 159
  stamp: 
    secs: 22306
    nsecs: 343000000
  frame_id: "world"
pose: 
  position: 
    x: -0.421568310741
    y: -0.13656837955
    z: 0.464153677953
  orientation: 
    x: 0.102589764055
    y: 0.107875757658
    z: -0.014770025905
    w: 0.988746685231
---
header: 
  seq: 160
  stamp: 
    secs: 22306
    nsecs: 816000000
  frame_id: "world"
pose: 
  position: 
    x: -0.442141159196
    y: -0.13508765477
    z: 0.485550999517
  orientation: 
    x: 0.098849240081
    y: 0.108952474243
    z: -0.0154596406485
    w: 0.988999082711
---
header: 
  seq: 161
  stamp: 
    secs: 22307
    nsecs: 182000000
  frame_id: "world"
pose: 
  position: 
    x: -0.459028372065
    y: -0.132468489805
    z: 0.501759403613
  orientation: 
    x: 0.0994013361684
    y: 0.110646346706
    z: -0.0153104177903
    w: 0.988757984259
---
header: 
  seq: 162
  stamp: 
    secs: 22307
    nsecs: 536000000
  frame_id: "world"
pose: 
  position: 
    x: -0.474512051788
    y: -0.13041417331
    z: 0.517866631177
  orientation: 
    x: 0.0999136701142
    y: 0.111936611073
    z: -0.0150209851058
    w: 0.98856553836
---
header: 
  seq: 163
  stamp: 
    secs: 22308
    nsecs:  22000000
  frame_id: "world"
pose: 
  position: 
    x: -0.494423521759
    y: -0.132898287648
    z: 0.535583856274
  orientation: 
    x: 0.11528262229
    y: 0.112609439141
    z: -0.00109762887544
    w: 0.986928480907
---
header: 
  seq: 164
  stamp: 
    secs: 22308
    nsecs: 261000000
  frame_id: "world"
pose: 
  position: 
    x: -0.49983935773
    y: -0.139314132212
    z: 0.537664936581
  orientation: 
    x: 0.106417459754
    y: 0.11105190544
    z: -0.00850898147606
    w: 0.988063963411
---
header: 
  seq: 165
  stamp: 
    secs: 22308
    nsecs: 461000000
  frame_id: "world"
pose: 
  position: 
    x: -0.502168021712
    y: -0.147220025543
    z: 0.536609320589
  orientation: 
    x: 0.105035553708
    y: 0.110365729635
    z: -0.0145130103513
    w: 0.988218756506
---
header: 
  seq: 166
  stamp: 
    secs: 22308
    nsecs: 644000000
  frame_id: "world"
pose: 
  position: 
    x: -0.504695310598
    y: -0.155945511555
    z: 0.534914402368
  orientation: 
    x: 0.101301019119
    y: 0.111518114702
    z: -0.0158386571694
    w: 0.988458876513
---
header: 
  seq: 167
  stamp: 
    secs: 22308
    nsecs: 792000000
  frame_id: "world"
pose: 
  position: 
    x: -0.50595938796
    y: -0.163464267168
    z: 0.533698652236
  orientation: 
    x: 0.0985671163519
    y: 0.111047550331
    z: -0.0161291394646
    w: 0.988783503099
---
header: 
  seq: 168
  stamp: 
    secs: 22309
    nsecs: 149000000
  frame_id: "world"
pose: 
  position: 
    x: -0.51023170738
    y: -0.182006849351
    z: 0.530203640009
  orientation: 
    x: 0.0959155720773
    y: 0.107608290538
    z: -0.0142912395607
    w: 0.989452585682
---
header: 
  seq: 169
  stamp: 
    secs: 22309
    nsecs: 591000000
  frame_id: "world"
pose: 
  position: 
    x: -0.514641627257
    y: -0.206170119261
    z: 0.525578493436
  orientation: 
    x: 0.0922649151876
    y: 0.105243618134
    z: -0.0203220853131
    w: 0.98994847296
---
header: 
  seq: 170
  stamp: 
    secs: 22310
    nsecs:  23000000
  frame_id: "world"
pose: 
  position: 
    x: -0.517262534123
    y: -0.228420166928
    z: 0.523083155452
  orientation: 
    x: 0.085523914571
    y: 0.100029760986
    z: -0.0170701237154
    w: 0.991155042276
---
header: 
  seq: 171
  stamp: 
    secs: 22310
    nsecs: 184000000
  frame_id: "world"
pose: 
  position: 
    x: -0.519731228125
    y: -0.240005526593
    z: 0.52118031811
  orientation: 
    x: 0.0899096588171
    y: 0.100391701657
    z: -0.0176795614962
    w: 0.990719532761
---
header: 
  seq: 172
  stamp: 
    secs: 22310
    nsecs: 352000000
  frame_id: "world"
pose: 
  position: 
    x: -0.518922567228
    y: -0.247841122046
    z: 0.520494588988
  orientation: 
    x: 0.0863598310448
    y: 0.0990850753431
    z: -0.0167675900437
    w: 0.991182614532
---
header: 
  seq: 173
  stamp: 
    secs: 22310
    nsecs: 533000000
  frame_id: "world"
pose: 
  position: 
    x: -0.521151800271
    y: -0.257466542741
    z: 0.519703112546
  orientation: 
    x: 0.0896637692175
    y: 0.0963003405958
    z: -0.0195112480606
    w: 0.991113497078
---
header: 
  seq: 174
  stamp: 
    secs: 22310
    nsecs: 881000000
  frame_id: "world"
pose: 
  position: 
    x: -0.524659230935
    y: -0.275160514171
    z: 0.516959745707
  orientation: 
    x: 0.0839222277504
    y: 0.0973056559518
    z: -0.0181169934992
    w: 0.991544473816
---
header: 
  seq: 175
  stamp: 
    secs: 22311
    nsecs: 346000000
  frame_id: "world"
pose: 
  position: 
    x: -0.527379609335
    y: -0.298058647699
    z: 0.513848989685
  orientation: 
    x: 0.0856979096676
    y: 0.092139130658
    z: -0.0200705257152
    w: 0.991848487864
---
header: 
  seq: 176
  stamp: 
    secs: 22311
    nsecs: 703000000
  frame_id: "world"
pose: 
  position: 
    x: -0.527193597106
    y: -0.313587997728
    z: 0.506743543961
  orientation: 
    x: 0.0811691659127
    y: 0.0817125401
    z: -0.0128688455764
    w: 0.993261808442
---
header: 
  seq: 177
  stamp: 
    secs: 22312
    nsecs: 217000000
  frame_id: "world"
pose: 
  position: 
    x: -0.530978607847
    y: -0.339928321721
    z: 0.502054833857
  orientation: 
    x: 0.0737375052889
    y: 0.0745514910781
    z: -0.0228204336639
    w: 0.994225368465
---
header: 
  seq: 178
  stamp: 
    secs: 22312
    nsecs: 472000000
  frame_id: "world"
pose: 
  position: 
    x: -0.534623000833
    y: -0.354215746861
    z: 0.49947028483
  orientation: 
    x: 0.078205202638
    y: 0.0714865338914
    z: -0.0170618955736
    w: 0.994224578992
---
header: 
  seq: 179
  stamp: 
    secs: 22312
    nsecs: 695000000
  frame_id: "world"
pose: 
  position: 
    x: -0.537402751651
    y: -0.364284209762
    z: 0.497581751857
  orientation: 
    x: 0.0745151225698
    y: 0.0662737087494
    z: -0.0204312117747
    w: 0.994805437069
---
header: 
  seq: 180
  stamp: 
    secs: 22312
    nsecs: 838000000
  frame_id: "world"
pose: 
  position: 
    x: -0.537871308699
    y: -0.371467980056
    z: 0.496618386507
  orientation: 
    x: 0.0779725058977
    y: 0.065448938657
    z: -0.0207935607422
    w: 0.99458752887
---
header: 
  seq: 181
  stamp: 
    secs: 22313
    nsecs: 246000000
  frame_id: "world"
pose: 
  position: 
    x: -0.542347998345
    y: -0.389844613555
    z: 0.493490426859
  orientation: 
    x: 0.0711711565715
    y: 0.0638432995837
    z: -0.0224760644008
    w: 0.995165074799
---
header: 
  seq: 182
  stamp: 
    secs: 22313
    nsecs: 766000000
  frame_id: "world"
pose: 
  position: 
    x: -0.546883617597
    y: -0.416164051558
    z: 0.490188871045
  orientation: 
    x: 0.0655950480537
    y: 0.0667130180372
    z: -0.0241869340281
    w: 0.995319875777
---
header: 
  seq: 183
  stamp: 
    secs: 22314
    nsecs: 317000000
  frame_id: "world"
pose: 
  position: 
    x: -0.555617511559
    y: -0.443188269156
    z: 0.488974356045
  orientation: 
    x: 0.0683660569438
    y: 0.0641631635326
    z: -0.0207482594654
    w: 0.995378661833
---
header: 
  seq: 184
  stamp: 
    secs: 22314
    nsecs: 726000000
  frame_id: "world"
pose: 
  position: 
    x: -0.557071015053
    y: -0.467220791548
    z: 0.486691136506
  orientation: 
    x: 0.0658285924914
    y: 0.0605645796758
    z: -0.0196739966114
    w: 0.995796897945
---
header: 
  seq: 185
  stamp: 
    secs: 22315
    nsecs: 286000000
  frame_id: "world"
pose: 
  position: 
    x: -0.566547679914
    y: -0.49468170774
    z: 0.486633748781
  orientation: 
    x: 0.063482020508
    y: 0.0580874732941
    z: -0.0197893561817
    w: 0.996094503499
---
header: 
  seq: 186
  stamp: 
    secs: 22315
    nsecs: 920000000
  frame_id: "world"
pose: 
  position: 
    x: -0.576983691456
    y: -0.527228511519
    z: 0.488099698108
  orientation: 
    x: 0.0601957805293
    y: 0.0552233161281
    z: -0.0195789463008
    w: 0.996465512812
---
header: 
  seq: 187
  stamp: 
    secs: 22316
    nsecs: 415000000
  frame_id: "world"
pose: 
  position: 
    x: -0.578079399103
    y: -0.545139632829
    z: 0.492868559691
  orientation: 
    x: 0.045806086936
    y: 0.0570353689136
    z: 0.000631414969892
    w: 0.9973205956
---
header: 
  seq: 188
  stamp: 
    secs: 22316
    nsecs: 755000000
  frame_id: "world"
pose: 
  position: 
    x: -0.568510168613
    y: -0.552848813786
    z: 0.498110156735
  orientation: 
    x: 0.0571309920871
    y: 0.0546739822556
    z: -0.0144664872504
    w: 0.996763525694
---
header: 
  seq: 189
  stamp: 
    secs: 22317
    nsecs:  89000000
  frame_id: "world"
pose: 
  position: 
    x: -0.555465414947
    y: -0.555516091723
    z: 0.504429575351
  orientation: 
    x: 0.0566106412359
    y: 0.0482268541863
    z: -0.0166487425619
    w: 0.997091884033
---
header: 
  seq: 190
  stamp: 
    secs: 22317
    nsecs: 291000000
  frame_id: "world"
pose: 
  position: 
    x: -0.546039669633
    y: -0.556691933757
    z: 0.509594745915
  orientation: 
    x: 0.0574788689385
    y: 0.0478718517693
    z: -0.0173609487562
    w: 0.997047171849
---
header: 
  seq: 191
  stamp: 
    secs: 22317
    nsecs: 587000000
  frame_id: "world"
pose: 
  position: 
    x: -0.53270288074
    y: -0.559631034434
    z: 0.516576372796
  orientation: 
    x: 0.0572878663886
    y: 0.0428750124699
    z: -0.022880252608
    w: 0.997174171201
---
header: 
  seq: 192
  stamp: 
    secs: 22318
    nsecs:  88000000
  frame_id: "world"
pose: 
  position: 
    x: -0.507166445141
    y: -0.564630433901
    z: 0.53165030995
  orientation: 
    x: 0.0550559273902
    y: 0.0373135723892
    z: -0.02383808153
    w: 0.997501021575
---
header: 
  seq: 193
  stamp: 
    secs: 22318
    nsecs: 779000000
  frame_id: "world"
pose: 
  position: 
    x: -0.470968033356
    y: -0.571168872229
    z: 0.554458927172
  orientation: 
    x: 0.0564233281611
    y: 0.028333848666
    z: -0.0226032786683
    w: 0.997748812504
---
header: 
  seq: 194
  stamp: 
    secs: 22319
    nsecs: 149000000
  frame_id: "world"
pose: 
  position: 
    x: -0.452919017911
    y: -0.574544248914
    z: 0.56624719423
  orientation: 
    x: 0.0574776080487
    y: 0.0259849607767
    z: -0.0197706667972
    w: 0.997812721467
---
header: 
  seq: 195
  stamp: 
    secs: 22319
    nsecs: 465000000
  frame_id: "world"
pose: 
  position: 
    x: -0.437150465687
    y: -0.577946643399
    z: 0.576929195835
  orientation: 
    x: 0.052160741076
    y: 0.0226323289565
    z: -0.0183638273995
    w: 0.998213306172
---
header: 
  seq: 196
  stamp: 
    secs: 22319
    nsecs: 783000000
  frame_id: "world"
pose: 
  position: 
    x: -0.420441914063
    y: -0.582708644487
    z: 0.587259414512
  orientation: 
    x: 0.0580399448527
    y: 0.0226266958261
    z: -0.0189740757557
    w: 0.997877438309
---
header: 
  seq: 197
  stamp: 
    secs: 22320
    nsecs: 142000000
  frame_id: "world"
pose: 
  position: 
    x: -0.401429873913
    y: -0.586184647987
    z: 0.599636361769
  orientation: 
    x: 0.0560880750299
    y: 0.0257865843252
    z: -0.0217934719487
    w: 0.997854811327
---
header: 
  seq: 198
  stamp: 
    secs: 22320
    nsecs: 647000000
  frame_id: "world"
pose: 
  position: 
    x: -0.374817229101
    y: -0.589993222687
    z: 0.616728757737
  orientation: 
    x: 0.0552665418017
    y: 0.0227169300995
    z: -0.0177132126234
    w: 0.998056006716
---
header: 
  seq: 199
  stamp: 
    secs: 22320
    nsecs: 747000000
  frame_id: "world"
pose: 
  position: 
    x: -0.368663706598
    y: -0.590738885746
    z: 0.619778534607
  orientation: 
    x: 0.0569237856996
    y: 0.0201098893055
    z: -0.0238813199263
    w: 0.99789025325
---
header: 
  seq: 200
  stamp: 
    secs: 22321
    nsecs:  48000000
  frame_id: "world"
pose: 
  position: 
    x: -0.353733490407
    y: -0.592802753356
    z: 0.629482092653
  orientation: 
    x: 0.0500129284835
    y: 0.0170951185061
    z: -0.0189538316692
    w: 0.998422363618
---
header: 
  seq: 201
  stamp: 
    secs: 22321
    nsecs: 528000000
  frame_id: "world"
pose: 
  position: 
    x: -0.328410200518
    y: -0.595717288825
    z: 0.645699179659
  orientation: 
    x: 0.0617767717271
    y: 0.0164192427852
    z: -0.0177506514331
    w: 0.997797050164
---
header: 
  seq: 202
  stamp: 
    secs: 22321
    nsecs: 799000000
  frame_id: "world"
pose: 
  position: 
    x: -0.297309908239
    y: -0.588453666927
    z: 0.659455718196
  orientation: 
    x: 0.0609893246914
    y: 0.00637324192375
    z: -0.0285501203659
    w: 0.997709664526
---
header: 
  seq: 203
  stamp: 
    secs: 22322
    nsecs: 198000000
  frame_id: "world"
pose: 
  position: 
    x: -0.276976757496
    y: -0.588769540398
    z: 0.672246788121
  orientation: 
    x: 0.0619118396914
    y: 0.00381750405289
    z: -0.0272400876253
    w: 0.997702525002
---
header: 
  seq: 204
  stamp: 
    secs: 22322
    nsecs: 627000000
  frame_id: "world"
pose: 
  position: 
    x: -0.254212312638
    y: -0.589798296118
    z: 0.685528608462
  orientation: 
    x: 0.0618062958633
    y: 0.00195442025213
    z: -0.0343878271545
    w: 0.997493678866
---
header: 
  seq: 205
  stamp: 
    secs: 22322
    nsecs: 876000000
  frame_id: "world"
pose: 
  position: 
    x: -0.241182168039
    y: -0.589445703391
    z: 0.693134101146
  orientation: 
    x: 0.0606786278165
    y: 0.00385006748203
    z: -0.0322077287172
    w: 0.997630163596
---
header: 
  seq: 206
  stamp: 
    secs: 22323
    nsecs:  19000000
  frame_id: "world"
pose: 
  position: 
    x: -0.234299975938
    y: -0.58988783991
    z: 0.697076144156
  orientation: 
    x: 0.06212540708
    y: 0.00376045125109
    z: -0.0326567637189
    w: 0.997526856072
---
header: 
  seq: 207
  stamp: 
    secs: 22323
    nsecs: 461000000
  frame_id: "world"
pose: 
  position: 
    x: -0.206893157587
    y: -0.590685330217
    z: 0.71492649479
  orientation: 
    x: 0.0554505037615
    y: -0.00155695114592
    z: -0.0279609176716
    w: 0.998068637228
---
header: 
  seq: 208
  stamp: 
    secs: 22323
    nsecs: 809000000
  frame_id: "world"
pose: 
  position: 
    x: -0.166940831922
    y: -0.585707203827
    z: 0.7233300412
  orientation: 
    x: 0.0726216644598
    y: -0.0218139747554
    z: -0.0335171687158
    w: 0.996557496464
---
header: 
  seq: 209
  stamp: 
    secs: 22324
    nsecs: 209000000
  frame_id: "world"
pose: 
  position: 
    x: -0.143236805406
    y: -0.586070098274
    z: 0.735524018538
  orientation: 
    x: 0.0661452790123
    y: -0.0224862451244
    z: -0.0368137325251
    w: 0.996877083668
---
header: 
  seq: 210
  stamp: 
    secs: 22324
    nsecs: 532000000
  frame_id: "world"
pose: 
  position: 
    x: -0.126135504698
    y: -0.588182890804
    z: 0.747680668887
  orientation: 
    x: 0.066235387653
    y: -0.0260251002751
    z: -0.0365309331967
    w: 0.996795394501
---
header: 
  seq: 211
  stamp: 
    secs: 22324
    nsecs: 871000000
  frame_id: "world"
pose: 
  position: 
    x: -0.108378737112
    y: -0.593308779536
    z: 0.76086940785
  orientation: 
    x: 0.070298972897
    y: -0.0276306246683
    z: -0.0319570465299
    w: 0.996631000003
---
header: 
  seq: 212
  stamp: 
    secs: 22325
    nsecs: 216000000
  frame_id: "world"
pose: 
  position: 
    x: -0.0890513334716
    y: -0.596188303009
    z: 0.773816430823
  orientation: 
    x: 0.0691560837662
    y: -0.0212001128811
    z: -0.0385446314815
    w: 0.996635491379
---
header: 
  seq: 213
  stamp: 
    secs: 22325
    nsecs: 676000000
  frame_id: "world"
pose: 
  position: 
    x: -0.0715212637474
    y: -0.596994113635
    z: 0.787580200427
  orientation: 
    x: 0.0695099745002
    y: 0.010185832171
    z: -0.02428050877
    w: 0.997233708396
---
header: 
  seq: 214
  stamp: 
    secs: 22325
    nsecs: 999000000
  frame_id: "world"
pose: 
  position: 
    x: -0.0429003417271
    y: -0.599489308647
    z: 0.805179584378
  orientation: 
    x: 0.0717790879694
    y: -0.0367692812041
    z: -0.0363061308224
    w: 0.996081144965
---
header: 
  seq: 215
  stamp: 
    secs: 22326
    nsecs: 339000000
  frame_id: "world"
pose: 
  position: 
    x: -0.0257101987121
    y: -0.6088296088
    z: 0.817285065549
  orientation: 
    x: 0.0445820972173
    y: -0.0253894001785
    z: -0.0489963766544
    w: 0.997480410856
---
header: 
  seq: 216
  stamp: 
    secs: 22326
    nsecs: 588000000
  frame_id: "world"
pose: 
  position: 
    x: -0.0181354073978
    y: -0.622297391044
    z: 0.832513308371
  orientation: 
    x: 0.043019331105
    y: 0.00826523065595
    z: -0.0441043614189
    w: 0.998066044116
---
header: 
  seq: 217
  stamp: 
    secs: 22326
    nsecs: 844000000
  frame_id: "world"
pose: 
  position: 
    x: -0.00801758633492
    y: -0.615948959564
    z: 0.858563245743
  orientation: 
    x: 0.0755780939291
    y: -0.00905945773052
    z: -0.0296165496356
    w: 0.996658787114
---
header: 
  seq: 218
  stamp: 
    secs: 22327
    nsecs:  97000000
  frame_id: "world"
pose: 
  position: 
    x: -0.009981173751
    y: -0.617271030084
    z: 0.860055096403
  orientation: 
    x: 0.0667155670692
    y: -0.00808920416642
    z: -0.0396591321762
    w: 0.996950726526
---
header: 
  seq: 219
  stamp: 
    secs: 22327
    nsecs: 527000000
  frame_id: "world"
pose: 
  position: 
    x: -0.00712310197941
    y: -0.617405799788
    z: 0.86829905634
  orientation: 
    x: 0.0641030369359
    y: 0.00275982638155
    z: -0.0475425362677
    w: 0.996806345916
---
header: 
  seq: 220
  stamp: 
    secs: 22327
    nsecs: 822000000
  frame_id: "world"
pose: 
  position: 
    x: -0.00887922251817
    y: -0.618835719321
    z: 0.865093919115
  orientation: 
    x: 0.0572997242005
    y: 0.00565283240776
    z: -0.0573105415082
    w: 0.996694681898
---
header: 
  seq: 221
  stamp: 
    secs: 22328
    nsecs: 128000000
  frame_id: "world"
pose: 
  position: 
    x: -0.00942433601365
    y: -0.619729488728
    z: 0.86775801369
  orientation: 
    x: 0.0517285873829
    y: 0.00909420525693
    z: -0.0702182457292
    w: 0.996148004387
---
header: 
  seq: 222
  stamp: 
    secs: 22328
    nsecs: 237000000
  frame_id: "world"
pose: 
  position: 
    x: -0.00956991808449
    y: -0.619903480499
    z: 0.868262941723
  orientation: 
    x: 0.0506736360895
    y: 0.00961979677901
    z: -0.0737141359754
    w: 0.995944711454
---
header: 
  seq: 223
  stamp: 
    secs: 22357
    nsecs: 309000000
  frame_id: "world"
pose: 
  position: 
    x: -0.425118429568
    y: -0.101325891503
    z: 0.574551223888
  orientation: 
    x: 0.114151795356
    y: 0.0717769737244
    z: -0.0206443784295
    w: 0.990651928429
---
header: 
  seq: 224
  stamp: 
    secs: 22357
    nsecs: 808000000
  frame_id: "world"
pose: 
  position: 
    x: -0.429026613147
    y: -0.0963703220824
    z: 0.556394728035
  orientation: 
    x: 0.108680952383
    y: 0.0741812050785
    z: -0.0187775479618
    w: 0.991127137705
---
header: 
  seq: 225
  stamp: 
    secs: 22358
    nsecs: 213000000
  frame_id: "world"
pose: 
  position: 
    x: -0.430524980968
    y: -0.0934886003368
    z: 0.541709061184
  orientation: 
    x: 0.111477139886
    y: 0.0730240387
    z: -0.0200861127644
    w: 0.990876826416
---
header: 
  seq: 226
  stamp: 
    secs: 22358
    nsecs: 435000000
  frame_id: "world"
pose: 
  position: 
    x: -0.431445464052
    y: -0.0915899106336
    z: 0.533922225475
  orientation: 
    x: 0.10693821681
    y: 0.0738257542777
    z: -0.0245493045972
    w: 0.99121708391
---
header: 
  seq: 227
  stamp: 
    secs: 22358
    nsecs: 681000000
  frame_id: "world"
pose: 
  position: 
    x: -0.432776534612
    y: -0.0891855801345
    z: 0.525679755034
  orientation: 
    x: 0.112460536077
    y: 0.0711598495842
    z: -0.0244283869295
    w: 0.990803793667
---
header: 
  seq: 228
  stamp: 
    secs: 22359
    nsecs:  10000000
  frame_id: "world"
pose: 
  position: 
    x: -0.433726297573
    y: -0.0864557700366
    z: 0.514748056694
  orientation: 
    x: 0.115075001754
    y: 0.0705071573379
    z: -0.0233653926469
    w: 0.990575864415
---
header: 
  seq: 229
  stamp: 
    secs: 22359
    nsecs: 519000000
  frame_id: "world"
pose: 
  position: 
    x: -0.43539148056
    y: -0.0798093293879
    z: 0.49716661621
  orientation: 
    x: 0.114627254011
    y: 0.0668599398212
    z: -0.0246030134726
    w: 0.990850661206
---
header: 
  seq: 230
  stamp: 
    secs: 22359
    nsecs: 991000000
  frame_id: "world"
pose: 
  position: 
    x: -0.436417180382
    y: -0.0720563815726
    z: 0.480603349349
  orientation: 
    x: 0.11285689397
    y: 0.0640855326013
    z: -0.0235640751749
    w: 0.991262377151
---
header: 
  seq: 231
  stamp: 
    secs: 22360
    nsecs: 308000000
  frame_id: "world"
pose: 
  position: 
    x: -0.433818292813
    y: -0.0671082537978
    z: 0.46801726192
  orientation: 
    x: 0.111673219185
    y: 0.063643613384
    z: -0.0206065478325
    w: 0.991490772917
---
header: 
  seq: 232
  stamp: 
    secs: 22361
    nsecs:  25000000
  frame_id: "world"
pose: 
  position: 
    x: -0.430929237941
    y: -0.0586979066946
    z: 0.439527493681
  orientation: 
    x: 0.11175803341
    y: 0.0589016648744
    z: -0.0260324369023
    w: 0.99164663468
---
header: 
  seq: 233
  stamp: 
    secs: 22361
    nsecs: 289000000
  frame_id: "world"
pose: 
  position: 
    x: -0.429864020299
    y: -0.0566274910296
    z: 0.429043825753
  orientation: 
    x: 0.109902022094
    y: 0.0572299804148
    z: -0.0231437219328
    w: 0.992023509306
---
header: 
  seq: 234
  stamp: 
    secs: 22361
    nsecs: 664000000
  frame_id: "world"
pose: 
  position: 
    x: -0.426261076698
    y: -0.0549143696596
    z: 0.413307574503
  orientation: 
    x: 0.114658551499
    y: 0.0559639246932
    z: -0.0253294693658
    w: 0.991503844512
---
header: 
  seq: 235
  stamp: 
    secs: 22361
    nsecs: 907000000
  frame_id: "world"
pose: 
  position: 
    x: -0.428778482695
    y: -0.0498339024681
    z: 0.40704771411
  orientation: 
    x: 0.113790940849
    y: 0.0622720662252
    z: -0.0301142024341
    w: 0.991093813098
---
header: 
  seq: 236
  stamp: 
    secs: 22362
    nsecs: 429000000
  frame_id: "world"
pose: 
  position: 
    x: -0.43176213281
    y: -0.0398738576007
    z: 0.388252419602
  orientation: 
    x: 0.11609797083
    y: 0.0651428271257
    z: -0.0263983874442
    w: 0.990747595699
---
header: 
  seq: 237
  stamp: 
    secs: 22362
    nsecs: 913000000
  frame_id: "world"
pose: 
  position: 
    x: -0.433851561112
    y: -0.0367245413525
    z: 0.366399179373
  orientation: 
    x: 0.107665266472
    y: 0.0591593945825
    z: -0.0237790027622
    w: 0.992140572427
---
header: 
  seq: 238
  stamp: 
    secs: 22363
    nsecs: 220000000
  frame_id: "world"
pose: 
  position: 
    x: -0.442627420782
    y: -0.0333724853785
    z: 0.355547864433
  orientation: 
    x: 0.111806253845
    y: 0.0575842642736
    z: -0.0203551968146
    w: 0.991851339704
---
header: 
  seq: 239
  stamp: 
    secs: 22363
    nsecs: 589000000
  frame_id: "world"
pose: 
  position: 
    x: -0.447242540156
    y: -0.0271295353939
    z: 0.341984505543
  orientation: 
    x: 0.109574303917
    y: 0.0543345611909
    z: -0.0283748938375
    w: 0.992086736521
---
header: 
  seq: 240
  stamp: 
    secs: 22364
    nsecs: 267000000
  frame_id: "world"
pose: 
  position: 
    x: -0.460556408334
    y: -0.0220089681346
    z: 0.318502704674
  orientation: 
    x: 0.110378175412
    y: 0.0434032145657
    z: -0.0270002196307
    w: 0.992574333487
---
header: 
  seq: 241
  stamp: 
    secs: 22364
    nsecs: 972000000
  frame_id: "world"
pose: 
  position: 
    x: -0.47069783002
    y: -0.0131716364462
    z: 0.296348598411
  orientation: 
    x: 0.11008047074
    y: 0.0304121654181
    z: -0.0284275643171
    w: 0.993050483985
---
header: 
  seq: 242
  stamp: 
    secs: 22365
    nsecs: 716000000
  frame_id: "world"
pose: 
  position: 
    x: -0.482395492527
    y: -0.00447266919105
    z: 0.272915710419
  orientation: 
    x: 0.109362822917
    y: 0.0172554087768
    z: -0.0296039986557
    w: 0.993411106791
---
header: 
  seq: 243
  stamp: 
    secs: 22366
    nsecs: 200000000
  frame_id: "world"
pose: 
  position: 
    x: -0.483117005551
    y: 0.00244628908265
    z: 0.25891978717
  orientation: 
    x: 0.0968527071171
    y: 0.0189825993336
    z: -0.0107128285123
    w: 0.99506002299
---
header: 
  seq: 244
  stamp: 
    secs: 22366
    nsecs: 477000000
  frame_id: "world"
pose: 
  position: 
    x: -0.473622312012
    y: 0.00388379020842
    z: 0.25631462398
  orientation: 
    x: 0.0998372504647
    y: 0.0194401084707
    z: -0.0243909669511
    w: 0.994514799454
---
header: 
  seq: 245
  stamp: 
    secs: 22366
    nsecs: 855000000
  frame_id: "world"
pose: 
  position: 
    x: -0.460136112345
    y: 0.00310039912891
    z: 0.255353178524
  orientation: 
    x: 0.113654267685
    y: 0.02380909099
    z: -0.032025419333
    w: 0.992718594134
---
header: 
  seq: 246
  stamp: 
    secs: 22367
    nsecs:  93000000
  frame_id: "world"
pose: 
  position: 
    x: -0.449377386165
    y: 0.00443473995671
    z: 0.255540861862
  orientation: 
    x: 0.106032074943
    y: 0.0278390926969
    z: -0.0234816411194
    w: 0.993695525064
---
header: 
  seq: 247
  stamp: 
    secs: 22367
    nsecs: 410000000
  frame_id: "world"
pose: 
  position: 
    x: -0.43389711154
    y: 0.00330822260306
    z: 0.255048368038
  orientation: 
    x: 0.109603883877
    y: 0.0282331683545
    z: -0.0239806403444
    w: 0.993284856289
---
header: 
  seq: 248
  stamp: 
    secs: 22367
    nsecs: 903000000
  frame_id: "world"
pose: 
  position: 
    x: -0.406986888049
    y: 0.00210292870225
    z: 0.255296840409
  orientation: 
    x: 0.111061105071
    y: 0.0423235645517
    z: -0.0320899911703
    w: 0.992393258386
---
header: 
  seq: 249
  stamp: 
    secs: 22368
    nsecs: 513000000
  frame_id: "world"
pose: 
  position: 
    x: -0.373253943467
    y: 4.68029818984e-06
    z: 0.255477180668
  orientation: 
    x: 0.108473294051
    y: 0.0450815007698
    z: -0.0239019978083
    w: 0.992788949005
---
header: 
  seq: 250
  stamp: 
    secs: 22369
    nsecs: 101000000
  frame_id: "world"
pose: 
  position: 
    x: -0.34138184904
    y: 0.000952982690028
    z: 0.253659287344
  orientation: 
    x: 0.112762275596
    y: 0.0460578813375
    z: -0.0289796141
    w: 0.992130799207
---
header: 
  seq: 251
  stamp: 
    secs: 22369
    nsecs: 709000000
  frame_id: "world"
pose: 
  position: 
    x: -0.300940798669
    y: -0.0017929094163
    z: 0.250212408878
  orientation: 
    x: 0.114517582673
    y: 0.0509152323744
    z: -0.0235588261557
    w: 0.99183584533
---
header: 
  seq: 252
  stamp: 
    secs: 22370
    nsecs: 220000000
  frame_id: "world"
pose: 
  position: 
    x: -0.258037963106
    y: -0.000363874404562
    z: 0.245141241942
  orientation: 
    x: 0.10618892605
    y: 0.047523140809
    z: -0.02780993027
    w: 0.9928202611
---
header: 
  seq: 253
  stamp: 
    secs: 22370
    nsecs: 877000000
  frame_id: "world"
pose: 
  position: 
    x: -0.21602618476
    y: -0.00304418904495
    z: 0.247798173938
  orientation: 
    x: 0.109886824906
    y: 0.0506177549431
    z: -0.0250845658584
    w: 0.992337388771
---
header: 
  seq: 254
  stamp: 
    secs: 22371
    nsecs: 384000000
  frame_id: "world"
pose: 
  position: 
    x: -0.184905613095
    y: -0.00348115483186
    z: 0.2443089068
  orientation: 
    x: 0.108026119345
    y: 0.0543440152847
    z: -0.0199721930704
    w: 0.992460677834
---
header: 
  seq: 255
  stamp: 
    secs: 22371
    nsecs: 840000000
  frame_id: "world"
pose: 
  position: 
    x: -0.154342762301
    y: -0.00392539480085
    z: 0.241567553717
  orientation: 
    x: 0.10902337776
    y: 0.0579568540043
    z: -0.0205656686913
    w: 0.992135051012
---
header: 
  seq: 256
  stamp: 
    secs: 22372
    nsecs: 229000000
  frame_id: "world"
pose: 
  position: 
    x: -0.141227633289
    y: -0.0068709974951
    z: 0.238568404827
  orientation: 
    x: 0.104422913958
    y: 0.0655331742249
    z: -0.0245659239057
    w: 0.992067423868
---
header: 
  seq: 257
  stamp: 
    secs: 22372
    nsecs: 655000000
  frame_id: "world"
pose: 
  position: 
    x: -0.137084451388
    y: -0.00700988049658
    z: 0.23486484531
  orientation: 
    x: 0.110781033631
    y: 0.078460115261
    z: -0.0215376045166
    w: 0.990508810911
---
header: 
  seq: 258
  stamp: 
    secs: 22373
    nsecs: 262000000
  frame_id: "world"
pose: 
  position: 
    x: -0.0766073887951
    y: -0.00746560059138
    z: 0.232617813678
  orientation: 
    x: 0.107356507801
    y: 0.0737788022754
    z: -0.0167952884646
    w: 0.991337070251
---
header: 
  seq: 259
  stamp: 
    secs: 22373
    nsecs: 637000000
  frame_id: "world"
pose: 
  position: 
    x: -0.0792309569604
    y: -0.00729453634503
    z: 0.231629329178
  orientation: 
    x: 0.105197493668
    y: 0.0814628510926
    z: -0.0152373107985
    w: 0.990991985627
---
header: 
  seq: 260
  stamp: 
    secs: 22373
    nsecs: 833000000
  frame_id: "world"
pose: 
  position: 
    x: -0.0717895092808
    y: -0.0120518872069
    z: 0.230132016456
  orientation: 
    x: 0.103106521446
    y: 0.0839537912876
    z: -0.0148580247666
    w: 0.991009609067
---
header: 
  seq: 261
  stamp: 
    secs: 22374
    nsecs:  80000000
  frame_id: "world"
pose: 
  position: 
    x: -0.0561803224215
    y: -0.010466569622
    z: 0.227348165764
  orientation: 
    x: 0.103051601721
    y: 0.0846954014513
    z: -0.0147985510407
    w: 0.99095310648
---
header: 
  seq: 262
  stamp: 
    secs: 22374
    nsecs: 490000000
  frame_id: "world"
pose: 
  position: 
    x: -0.032883356173
    y: -0.011032774003
    z: 0.223092563918
  orientation: 
    x: 0.101970786379
    y: 0.0861264726088
    z: -0.0142586503376
    w: 0.990949484248
---
header: 
  seq: 263
  stamp: 
    secs: 22375
    nsecs:  32000000
  frame_id: "world"
pose: 
  position: 
    x: -0.0246963413949
    y: -0.00640955828862
    z: 0.228654902647
  orientation: 
    x: 0.104964040117
    y: 0.105659872666
    z: -0.0174643845323
    w: 0.988692842527
---
header: 
  seq: 264
  stamp: 
    secs: 22375
    nsecs: 275000000
  frame_id: "world"
pose: 
  position: 
    x: -0.0182320761247
    y: -0.00730833382567
    z: 0.219276421264
  orientation: 
    x: 0.103699036058
    y: 0.115742839815
    z: -0.0185871336214
    w: 0.987676375852
---
header: 
  seq: 265
  stamp: 
    secs: 22375
    nsecs: 710000000
  frame_id: "world"
pose: 
  position: 
    x: 0.00579374242355
    y: -0.00690434594695
    z: 0.215239671977
  orientation: 
    x: 0.0752167896806
    y: 0.105423252616
    z: -0.013800570047
    w: 0.991482685993
---
