header: 
  seq: 66
  stamp: 
    secs: 21721
    nsecs: 225000000
  frame_id: "world"
pose: 
  position: 
    x: 0.000102767065982
    y: 9.96793896775e-05
    z: 7.32761254767e-05
  orientation: 
    x: 2.90212373854e-05
    y: -4.24452991303e-05
    z: 2.55856866376e-06
    w: 0.999999998675
---
header: 
  seq: 67
  stamp: 
    secs: 21721
    nsecs: 407000000
  frame_id: "world"
pose: 
  position: 
    x: 6.47040069452e-05
    y: -7.26281505194e-05
    z: 3.13076379825e-05
  orientation: 
    x: -3.58874749051e-05
    y: -3.16310688101e-05
    z: 1.62060368687e-05
    w: 0.999999998724
---
header: 
  seq: 68
  stamp: 
    secs: 21721
    nsecs: 608000000
  frame_id: "world"
pose: 
  position: 
    x: 3.53046052624e-05
    y: -8.52388620842e-05
    z: 5.31841906195e-05
  orientation: 
    x: -3.67034517317e-05
    y: -1.85190310541e-05
    z: 1.90718492181e-05
    w: 0.999999998973
---
header: 
  seq: 69
  stamp: 
    secs: 21721
    nsecs: 955000000
  frame_id: "world"
pose: 
  position: 
    x: -3.52665460923e-06
    y: -0.000108863918285
    z: -4.29554393122e-06
  orientation: 
    x: -4.99387751293e-05
    y: 5.91191507455e-07
    z: 2.99646955763e-07
    w: 0.999999998753
---
header: 
  seq: 70
  stamp: 
    secs: 21722
    nsecs: 371000000
  frame_id: "world"
pose: 
  position: 
    x: -7.15397663953e-06
    y: 8.95850025699e-05
    z: 5.98481437919e-06
  orientation: 
    x: 2.46754407159e-05
    y: 1.14381791666e-05
    z: -1.31632295901e-05
    w: 0.999999999544
---
header: 
  seq: 71
  stamp: 
    secs: 21722
    nsecs: 745000000
  frame_id: "world"
pose: 
  position: 
    x: -3.16260557156e-05
    y: -3.68396763406e-06
    z: 2.62721259787e-05
  orientation: 
    x: 7.27434735314e-06
    y: 1.10815090001e-05
    z: 3.09015194915e-06
    w: 0.999999999907
---
header: 
  seq: 72
  stamp: 
    secs: 21722
    nsecs: 907000000
  frame_id: "world"
pose: 
  position: 
    x: 0.000478068279335
    y: -9.83111167443e-05
    z: -0.000123650330352
  orientation: 
    x: -5.27738987842e-05
    y: -0.000138643836461
    z: -1.34442369345e-05
    w: 0.999999988906
---
header: 
  seq: 73
  stamp: 
    secs: 21723
    nsecs:  34000000
  frame_id: "world"
pose: 
  position: 
    x: 5.51851699129e-05
    y: 1.24210300783e-05
    z: 9.55066980168e-07
  orientation: 
    x: -2.17504589228e-06
    y: -1.95677275729e-05
    z: -5.29522458127e-06
    w: 0.999999999792
---
header: 
  seq: 74
  stamp: 
    secs: 21723
    nsecs: 216000000
  frame_id: "world"
pose: 
  position: 
    x: 0.000438279093942
    y: -5.88718321524e-05
    z: -0.000144800244016
  orientation: 
    x: -3.1938565122e-05
    y: -0.000117784801651
    z: -2.65101660013e-05
    w: 0.999999992202
---
header: 
  seq: 75
  stamp: 
    secs: 21723
    nsecs: 376000000
  frame_id: "world"
pose: 
  position: 
    x: -3.73816078536e-06
    y: 8.82939184521e-06
    z: 3.12042516271e-06
  orientation: 
    x: -4.65004450212e-06
    y: 5.10179916067e-06
    z: -6.88767977375e-06
    w: 0.999999999952
---
header: 
  seq: 76
  stamp: 
    secs: 21723
    nsecs: 570000000
  frame_id: "world"
pose: 
  position: 
    x: 0.000587540213019
    y: -8.32470614114e-05
    z: -0.000124165570014
  orientation: 
    x: -5.75627917414e-05
    y: -0.000181858060711
    z: -7.23713979371e-06
    w: 0.999999981781
---
header: 
  seq: 77
  stamp: 
    secs: 21723
    nsecs: 759000000
  frame_id: "world"
pose: 
  position: 
    x: -7.41398253012e-05
    y: -0.00013336216216
    z: -2.15018553718e-05
  orientation: 
    x: -5.52997552095e-05
    y: 3.48944485408e-05
    z: -1.15404854769e-05
    w: 0.999999997796
---
header: 
  seq: 78
  stamp: 
    secs: 21724
    nsecs:  31000000
  frame_id: "world"
pose: 
  position: 
    x: -2.89094259642e-05
    y: -6.61855892758e-06
    z: 9.44718340179e-06
  orientation: 
    x: -3.44117302084e-06
    y: 1.40396232367e-05
    z: -1.25770134205e-06
    w: 0.999999999895
---
header: 
  seq: 79
  stamp: 
    secs: 21724
    nsecs: 429000000
  frame_id: "world"
pose: 
  position: 
    x: -6.4537707658e-06
    y: 5.62923669349e-05
    z: -2.47175521508e-05
  orientation: 
    x: 1.20759032114e-05
    y: 1.08000040174e-05
    z: -1.45646308703e-05
    w: 0.999999999763
---
header: 
  seq: 80
  stamp: 
    secs: 21724
    nsecs: 652000000
  frame_id: "world"
pose: 
  position: 
    x: -3.04598870571e-05
    y: -4.34100657003e-05
    z: 2.10523376154e-05
  orientation: 
    x: -2.19051344098e-05
    y: 1.4858790559e-05
    z: 1.14818328671e-06
    w: 0.999999999649
---
header: 
  seq: 81
  stamp: 
    secs: 21724
    nsecs: 810000000
  frame_id: "world"
pose: 
  position: 
    x: 0.000513734878041
    y: 2.08203910006e-05
    z: -0.000140997392009
  orientation: 
    x: -8.43158968984e-06
    y: -0.000141802868162
    z: -1.99516923879e-05
    w: 0.999999989711
---
header: 
  seq: 82
  stamp: 
    secs: 21724
    nsecs: 977000000
  frame_id: "world"
pose: 
  position: 
    x: 2.01119928533e-05
    y: -1.03919337562e-05
    z: 4.60218980152e-05
  orientation: 
    x: 2.7866835805e-06
    y: -1.18181833374e-05
    z: 7.24979236038e-06
    w: 0.9999999999
---
header: 
  seq: 83
  stamp: 
    secs: 21725
    nsecs: 139000000
  frame_id: "world"
pose: 
  position: 
    x: 7.95486357674e-06
    y: -7.75352091296e-05
    z: 1.32380982905e-05
  orientation: 
    x: -3.02019106893e-05
    y: -5.55394580902e-06
    z: 4.76764580296e-06
    w: 0.999999999517
---
header: 
  seq: 84
  stamp: 
    secs: 21725
    nsecs: 352000000
  frame_id: "world"
pose: 
  position: 
    x: -2.81630691461e-05
    y: -7.29684106773e-05
    z: 3.26328008668e-05
  orientation: 
    x: -2.66172701121e-05
    y: 8.33490957684e-06
    z: 7.14835459507e-06
    w: 0.999999999585
---
header: 
  seq: 85
  stamp: 
    secs: 21725
    nsecs: 788000000
  frame_id: "world"
pose: 
  position: 
    x: 0.000543195521459
    y: 4.83712792629e-05
    z: -0.000136476068292
  orientation: 
    x: 5.78411974511e-06
    y: -0.000161273912148
    z: -1.76260834857e-05
    w: 0.999999986823
---
header: 
  seq: 86
  stamp: 
    secs: 21726
    nsecs: 264000000
  frame_id: "world"
pose: 
  position: 
    x: -9.39717381243e-07
    y: -5.53907011636e-05
    z: 5.79333100177e-05
  orientation: 
    x: -1.72675736353e-05
    y: -5.55861697518e-06
    z: 1.19368260102e-05
    w: 0.999999999764
---
header: 
  seq: 87
  stamp: 
    secs: 21726
    nsecs: 649000000
  frame_id: "world"
pose: 
  position: 
    x: 7.54614347898e-06
    y: 4.60383926111e-05
    z: -2.28894314205e-05
  orientation: 
    x: 2.60597380446e-06
    y: 2.1166592885e-06
    z: -1.45308076737e-05
    w: 0.999999999889
---
header: 
  seq: 88
  stamp: 
    secs: 21726
    nsecs: 838000000
  frame_id: "world"
pose: 
  position: 
    x: -7.10853346391e-05
    y: 1.65613237186e-05
    z: -3.96545146941e-05
  orientation: 
    x: 3.95898814249e-06
    y: 3.55740230335e-05
    z: -1.19644446301e-05
    w: 0.999999999288
---
header: 
  seq: 89
  stamp: 
    secs: 21727
    nsecs: 183000000
  frame_id: "world"
pose: 
  position: 
    x: 6.91800823915e-06
    y: 3.61945858458e-05
    z: -8.64903768161e-07
  orientation: 
    x: -2.10167279121e-08
    y: 1.18922457651e-06
    z: -1.16698720368e-05
    w: 0.999999999931
---
header: 
  seq: 90
  stamp: 
    secs: 21727
    nsecs: 574000000
  frame_id: "world"
pose: 
  position: 
    x: -7.87028056948e-06
    y: 1.40138599818e-05
    z: 2.18282530113e-05
  orientation: 
    x: 7.25841755382e-06
    y: 3.81907329923e-06
    z: -3.54523695009e-06
    w: 0.99999999996
---
header: 
  seq: 91
  stamp: 
    secs: 21727
    nsecs: 774000000
  frame_id: "world"
pose: 
  position: 
    x: -1.06138240881e-05
    y: -6.55750845908e-05
    z: -7.68856534705e-06
  orientation: 
    x: -4.01343313233e-05
    y: 7.591779643e-06
    z: -3.30010652483e-06
    w: 0.99999999916
---
header: 
  seq: 92
  stamp: 
    secs: 21728
    nsecs: 130000000
  frame_id: "world"
pose: 
  position: 
    x: -0.000104746555735
    y: -7.51858315198e-05
    z: 1.36754681535e-06
  orientation: 
    x: -2.68223211228e-05
    y: 4.5774151594e-05
    z: 5.88997237709e-07
    w: 0.999999998592
---
header: 
  seq: 93
  stamp: 
    secs: 21728
    nsecs: 428000000
  frame_id: "world"
pose: 
  position: 
    x: -8.64162866492e-05
    y: 2.40937388298e-05
    z: 4.78923220726e-06
  orientation: 
    x: 7.06028503454e-06
    y: 4.5267453917e-05
    z: -1.57273425245e-05
    w: 0.999999998827
---
header: 
  seq: 94
  stamp: 
    secs: 21728
    nsecs: 538000000
  frame_id: "world"
pose: 
  position: 
    x: -5.63845496799e-05
    y: -3.72084577975e-05
    z: -8.81100368133e-06
  orientation: 
    x: -6.37070661185e-06
    y: 2.90831267064e-05
    z: -1.94438030035e-06
    w: 0.999999999555
---
header: 
  seq: 95
  stamp: 
    secs: 21728
    nsecs: 702000000
  frame_id: "world"
pose: 
  position: 
    x: 0.000530870049261
    y: -3.95463321183e-05
    z: -0.000137180089951
  orientation: 
    x: -3.06204306562e-05
    y: -0.000158185792039
    z: -2.31505597756e-05
    w: 0.999999986752
---
header: 
  seq: 96
  stamp: 
    secs: 21728
    nsecs: 877000000
  frame_id: "world"
pose: 
  position: 
    x: 0.000534772931132
    y: 8.54124755278e-06
    z: -8.04186493042e-05
  orientation: 
    x: 4.38996306418e-06
    y: -0.000164467300737
    z: -6.30871991778e-06
    w: 0.999999986446
---
header: 
  seq: 97
  stamp: 
    secs: 21729
    nsecs: 216000000
  frame_id: "world"
pose: 
  position: 
    x: -5.7674992604e-06
    y: 1.26651457322e-05
    z: 3.00965748465e-05
  orientation: 
    x: 1.12741045076e-05
    y: 2.33067476054e-06
    z: 6.56897100213e-06
    w: 0.999999999912
---
header: 
  seq: 98
  stamp: 
    secs: 21729
    nsecs: 597000000
  frame_id: "world"
pose: 
  position: 
    x: -6.63152095512e-05
    y: -8.86496582098e-06
    z: 1.06559091364e-05
  orientation: 
    x: 7.54508937038e-06
    y: 3.19667014812e-05
    z: -6.69259315679e-06
    w: 0.999999999438
---
header: 
  seq: 99
  stamp: 
    secs: 21729
    nsecs: 954000000
  frame_id: "world"
pose: 
  position: 
    x: -8.58656203491e-05
    y: -6.66201085551e-05
    z: -9.37237746257e-06
  orientation: 
    x: -2.05803753288e-05
    y: 3.85809689386e-05
    z: -5.4280380884e-06
    w: 0.999999999029
---
header: 
  seq: 100
  stamp: 
    secs: 21730
    nsecs: 206000000
  frame_id: "world"
pose: 
  position: 
    x: 3.19946484524e-05
    y: -9.06403802219e-05
    z: 4.75382403238e-05
  orientation: 
    x: -4.2465013347e-05
    y: -1.87405348491e-05
    z: 6.57067584331e-06
    w: 0.999999998901
---
header: 
  seq: 101
  stamp: 
    secs: 21730
    nsecs: 355000000
  frame_id: "world"
pose: 
  position: 
    x: 0.00053972232854
    y: 7.241278945e-05
    z: -0.000110045170004
  orientation: 
    x: 2.52300538859e-05
    y: -0.000163847345459
    z: -1.15252585829e-05
    w: 0.999999986192
---
header: 
  seq: 102
  stamp: 
    secs: 21730
    nsecs: 545000000
  frame_id: "world"
pose: 
  position: 
    x: 4.67755016871e-05
    y: -0.000105713086668
    z: 3.66943459085e-05
  orientation: 
    x: -4.80036505038e-05
    y: -2.81129704891e-05
    z: 2.28315729643e-05
    w: 0.999999998192
---
header: 
  seq: 103
  stamp: 
    secs: 21730
    nsecs: 737000000
  frame_id: "world"
pose: 
  position: 
    x: -3.33712996508e-05
    y: -0.000127209132188
    z: -1.37211518449e-05
  orientation: 
    x: -4.57628665952e-05
    y: 1.47047266922e-05
    z: -1.38422217173e-06
    w: 0.999999998844
---
header: 
  seq: 104
  stamp: 
    secs: 21731
    nsecs:  58000000
  frame_id: "world"
pose: 
  position: 
    x: -3.32376075676e-05
    y: -0.000117232724733
    z: 9.30110763875e-06
  orientation: 
    x: -4.81965288894e-05
    y: 1.50503419526e-05
    z: 1.48138712841e-06
    w: 0.999999998724
---
header: 
  seq: 105
  stamp: 
    secs: 21731
    nsecs: 272000000
  frame_id: "world"
pose: 
  position: 
    x: -2.81901084236e-05
    y: -1.07638752525e-05
    z: -6.67942003929e-06
  orientation: 
    x: -1.54305780536e-05
    y: 2.10649741264e-05
    z: -1.09192296761e-05
    w: 0.999999999599
---
header: 
  seq: 106
  stamp: 
    secs: 21731
    nsecs: 692000000
  frame_id: "world"
pose: 
  position: 
    x: -2.42924379563e-05
    y: 4.61663985334e-05
    z: -1.51751264639e-05
  orientation: 
    x: 1.69771556039e-05
    y: 1.77759193254e-05
    z: -1.17972467662e-05
    w: 0.999999999628
---
header: 
  seq: 107
  stamp: 
    secs: 21731
    nsecs: 897000000
  frame_id: "world"
pose: 
  position: 
    x: 7.24044639355e-06
    y: 4.61302806798e-05
    z: 2.66300212388e-05
  orientation: 
    x: 2.30741334172e-05
    y: -6.16103420558e-07
    z: -3.15698571199e-06
    w: 0.999999999729
---
header: 
  seq: 108
  stamp: 
    secs: 21732
    nsecs:  55000000
  frame_id: "world"
pose: 
  position: 
    x: 2.42238570536e-06
    y: 6.33045201539e-05
    z: 1.89976599358e-05
  orientation: 
    x: 1.51893336785e-05
    y: 5.87900376478e-06
    z: -3.18677598399e-06
    w: 0.999999999862
---
header: 
  seq: 109
  stamp: 
    secs: 21732
    nsecs: 217000000
  frame_id: "world"
pose: 
  position: 
    x: 2.4600751658e-06
    y: 6.33052113699e-05
    z: 1.89870061149e-05
  orientation: 
    x: 1.51903450366e-05
    y: 5.86117039267e-06
    z: -3.19258265292e-06
    w: 0.999999999862
---
header: 
  seq: 110
  stamp: 
    secs: 21732
    nsecs: 381000000
  frame_id: "world"
pose: 
  position: 
    x: 5.77606806473e-06
    y: -1.68972042047e-06
    z: 1.75071309059e-05
  orientation: 
    x: 7.75498119713e-06
    y: -1.6403785138e-06
    z: 8.36788694813e-06
    w: 0.999999999934
---
header: 
  seq: 111
  stamp: 
    secs: 21732
    nsecs: 603000000
  frame_id: "world"
pose: 
  position: 
    x: -5.47543058929e-05
    y: -7.2505659773e-05
    z: 3.24752386405e-06
  orientation: 
    x: -2.27573000171e-05
    y: 2.51061974123e-05
    z: -1.76194669064e-06
    w: 0.999999999424
---
header: 
  seq: 112
  stamp: 
    secs: 21732
    nsecs: 942000000
  frame_id: "world"
pose: 
  position: 
    x: -4.88694895466e-05
    y: -0.000101672863821
    z: -4.70223403681e-06
  orientation: 
    x: -3.82633297343e-05
    y: 2.03336912627e-05
    z: -3.22848540841e-06
    w: 0.999999999056
---
header: 
  seq: 113
  stamp: 
    secs: 21733
    nsecs: 383000000
  frame_id: "world"
pose: 
  position: 
    x: -3.52805946022e-05
    y: -8.74891411513e-05
    z: 1.4451471543e-05
  orientation: 
    x: -3.21875049639e-05
    y: 1.53733289962e-05
    z: 5.77822811088e-06
    w: 0.999999999347
---
header: 
  seq: 114
  stamp: 
    secs: 21733
    nsecs: 638000000
  frame_id: "world"
pose: 
  position: 
    x: 0.000499332556501
    y: 2.31203248404e-05
    z: -0.000117130395665
  orientation: 
    x: 6.99025751499e-06
    y: -0.000144886448032
    z: -8.17053560712e-06
    w: 0.999999989446
---
header: 
  seq: 115
  stamp: 
    secs: 21733
    nsecs: 788000000
  frame_id: "world"
pose: 
  position: 
    x: -4.94813721161e-05
    y: -2.41277593886e-05
    z: 3.65494888683e-05
  orientation: 
    x: -5.92600542726e-07
    y: 2.09933095856e-05
    z: 2.57595343043e-06
    w: 0.999999999776
---
header: 
  seq: 116
  stamp: 
    secs: 21734
    nsecs:   7000000
  frame_id: "world"
pose: 
  position: 
    x: -4.47456804977e-05
    y: -0.000106706298538
    z: 6.72905935062e-06
  orientation: 
    x: -4.121857633e-05
    y: 1.60059880569e-05
    z: 4.46419334835e-06
    w: 0.999999999012
---
header: 
  seq: 117
  stamp: 
    secs: 21734
    nsecs: 397000000
  frame_id: "world"
pose: 
  position: 
    x: -7.36314614187e-05
    y: -6.26917171758e-05
    z: -2.32320735449e-06
  orientation: 
    x: -1.85693406702e-05
    y: 3.03517717647e-05
    z: 1.04122614109e-06
    w: 0.999999999366
---
header: 
  seq: 118
  stamp: 
    secs: 21734
    nsecs: 747000000
  frame_id: "world"
pose: 
  position: 
    x: -1.75494533323e-05
    y: -3.72660833818e-05
    z: 2.07565935852e-05
  orientation: 
    x: -1.73606003922e-05
    y: 7.93102844762e-06
    z: -2.8108374858e-06
    w: 0.999999999814
---
header: 
  seq: 119
  stamp: 
    secs: 21735
    nsecs: 229000000
  frame_id: "world"
pose: 
  position: 
    x: 4.91463761136e-05
    y: 0.000116249320854
    z: 1.65400524565e-05
  orientation: 
    x: 3.87577310564e-05
    y: -1.40929387148e-05
    z: -6.99162046046e-06
    w: 0.999999999125
---
header: 
  seq: 120
  stamp: 
    secs: 21735
    nsecs: 559000000
  frame_id: "world"
pose: 
  position: 
    x: -1.80332062882e-05
    y: 1.36372955239e-05
    z: 4.38885263065e-06
  orientation: 
    x: -7.1094723329e-06
    y: 1.59309056418e-05
    z: -1.91642320651e-05
    w: 0.999999999664
---
header: 
  seq: 121
  stamp: 
    secs: 21735
    nsecs: 941000000
  frame_id: "world"
pose: 
  position: 
    x: 0.00111287133768
    y: -0.000666117994115
    z: 4.68388097943e-05
  orientation: 
    x: 0.000186364280351
    y: -0.000298621972971
    z: -0.000786261331442
    w: 0.999999628943
---
header: 
  seq: 122
  stamp: 
    secs: 21736
    nsecs: 128000000
  frame_id: "world"
pose: 
  position: 
    x: 0.00109433720354
    y: -0.0188497491181
    z: 0.000252038647886
  orientation: 
    x: 0.0036941408102
    y: 0.000164381479616
    z: -0.00494812676121
    w: 0.99998092099
---
header: 
  seq: 123
  stamp: 
    secs: 21736
    nsecs: 314000000
  frame_id: "world"
pose: 
  position: 
    x: 0.00169232371263
    y: -0.0826098546386
    z: -0.00459390785545
  orientation: 
    x: -0.0111749610124
    y: 0.000632663258503
    z: -0.00936654770488
    w: 0.999893488211
---
header: 
  seq: 124
  stamp: 
    secs: 21736
    nsecs: 534000000
  frame_id: "world"
pose: 
  position: 
    x: -0.0771249607205
    y: -0.241676241159
    z: -0.0437505915761
  orientation: 
    x: -0.0639673601389
    y: 0.0370639141773
    z: -0.0216337510453
    w: 0.997028797938
---
header: 
  seq: 125
  stamp: 
    secs: 21736
    nsecs: 793000000
  frame_id: "world"
pose: 
  position: 
    x: -0.129671857948
    y: -0.365181318499
    z: -0.0414729893205
  orientation: 
    x: -0.0942899824827
    y: 0.0577183491662
    z: -0.0365559341412
    w: 0.993197691828
---
header: 
  seq: 126
  stamp: 
    secs: 21737
    nsecs: 236000000
  frame_id: "world"
pose: 
  position: 
    x: -0.16923139722
    y: -0.465180640796
    z: -0.0393197559519
  orientation: 
    x: -0.120026670422
    y: 0.0727634621497
    z: -0.0480672304064
    w: 0.9889330707
---
header: 
  seq: 127
  stamp: 
    secs: 21737
    nsecs: 675000000
  frame_id: "world"
pose: 
  position: 
    x: -0.199038661945
    y: -0.5020843226
    z: -0.0366999060573
  orientation: 
    x: -0.130331954454
    y: 0.0838077186176
    z: -0.0538086307823
    w: 0.986455513037
---
header: 
  seq: 128
  stamp: 
    secs: 21738
    nsecs:  45000000
  frame_id: "world"
pose: 
  position: 
    x: -0.206796231923
    y: -0.509796924332
    z: -0.0349058754531
  orientation: 
    x: -0.132404386388
    y: 0.0863738357793
    z: -0.0546577535376
    w: 0.985911339288
---
header: 
  seq: 129
  stamp: 
    secs: 21738
    nsecs: 570000000
  frame_id: "world"
pose: 
  position: 
    x: -0.211692532351
    y: -0.519606320032
    z: -0.034362825636
  orientation: 
    x: -0.135692065387
    y: 0.0883053385357
    z: -0.0557812746334
    w: 0.985230064491
---
header: 
  seq: 130
  stamp: 
    secs: 21739
    nsecs:  38000000
  frame_id: "world"
pose: 
  position: 
    x: -0.211522735219
    y: -0.522662249271
    z: -0.0354518528457
  orientation: 
    x: -0.136600790745
    y: 0.0882252736398
    z: -0.0560007025127
    w: 0.985099206363
---
header: 
  seq: 131
  stamp: 
    secs: 21739
    nsecs: 452000000
  frame_id: "world"
pose: 
  position: 
    x: -0.209812672756
    y: -0.522353369518
    z: -0.0351194443781
  orientation: 
    x: -0.136583195806
    y: 0.0874393159443
    z: -0.0557616251228
    w: 0.985185280957
---
header: 
  seq: 132
  stamp: 
    secs: 21739
    nsecs: 837000000
  frame_id: "world"
pose: 
  position: 
    x: -0.183054824377
    y: -0.473659415669
    z: -0.0415661364557
  orientation: 
    x: -0.115997533885
    y: 0.0770410689814
    z: -0.0554463852987
    w: 0.988703668538
---
header: 
  seq: 133
  stamp: 
    secs: 21740
    nsecs: 333000000
  frame_id: "world"
pose: 
  position: 
    x: -0.189315358431
    y: -0.479349543324
    z: -0.0406895323049
  orientation: 
    x: -0.123016018112
    y: 0.0823131680455
    z: -0.0561056224011
    w: 0.987392404665
---
header: 
  seq: 134
  stamp: 
    secs: 21740
    nsecs: 694000000
  frame_id: "world"
pose: 
  position: 
    x: -0.208455109211
    y: -0.513265800096
    z: -0.0374004263367
  orientation: 
    x: -0.124799797849
    y: 0.0909934017047
    z: -0.0599585602802
    w: 0.9861795893
---
header: 
  seq: 135
  stamp: 
    secs: 21740
    nsecs: 833000000
  frame_id: "world"
pose: 
  position: 
    x: -0.204858766042
    y: -0.516790208501
    z: -0.0366506375024
  orientation: 
    x: -0.128048536984
    y: 0.0908617779815
    z: -0.0620250513437
    w: 0.985647301262
---
header: 
  seq: 136
  stamp: 
    secs: 21741
    nsecs: 111000000
  frame_id: "world"
pose: 
  position: 
    x: -0.210888402931
    y: -0.527138238653
    z: -0.0329003697621
  orientation: 
    x: -0.132139794227
    y: 0.090561830606
    z: -0.0641592871895
    w: 0.984998078925
---
header: 
  seq: 137
  stamp: 
    secs: 21741
    nsecs: 479000000
  frame_id: "world"
pose: 
  position: 
    x: -0.231943822201
    y: -0.552430496779
    z: -0.0242404585666
  orientation: 
    x: -0.138172738114
    y: 0.0944310724445
    z: -0.065941539333
    w: 0.983688355319
---
header: 
  seq: 138
  stamp: 
    secs: 21741
    nsecs: 850000000
  frame_id: "world"
pose: 
  position: 
    x: -0.246508785284
    y: -0.574159150528
    z: -0.0158521896394
  orientation: 
    x: -0.143854106946
    y: 0.0959312360034
    z: -0.0688497402486
    w: 0.982528832728
---
header: 
  seq: 139
  stamp: 
    secs: 21742
    nsecs: 418000000
  frame_id: "world"
pose: 
  position: 
    x: -0.272150719554
    y: -0.615687668699
    z: -0.00144836549984
  orientation: 
    x: -0.160732624952
    y: 0.095261831139
    z: -0.0767589849107
    w: 0.979386677998
---
header: 
  seq: 140
  stamp: 
    secs: 21742
    nsecs: 731000000
  frame_id: "world"
pose: 
  position: 
    x: -0.272596071731
    y: -0.627737071171
    z: 0.00177513666835
  orientation: 
    x: -0.163048131256
    y: 0.097237579002
    z: -0.074457052391
    w: 0.978987388822
---
header: 
  seq: 141
  stamp: 
    secs: 21743
    nsecs:  93000000
  frame_id: "world"
pose: 
  position: 
    x: -0.296715816889
    y: -0.652730397915
    z: 0.0169722788357
  orientation: 
    x: -0.172064697367
    y: 0.103461425352
    z: -0.083258961615
    w: 0.976092935481
---
header: 
  seq: 142
  stamp: 
    secs: 21743
    nsecs: 428000000
  frame_id: "world"
pose: 
  position: 
    x: -0.308232367189
    y: -0.663640333515
    z: 0.0232813711326
  orientation: 
    x: -0.176136704643
    y: 0.106761659106
    z: -0.0791889044973
    w: 0.975349643373
---
header: 
  seq: 143
  stamp: 
    secs: 21744
    nsecs: 129000000
  frame_id: "world"
pose: 
  position: 
    x: -0.328807814177
    y: -0.706708959184
    z: 0.0434125701262
  orientation: 
    x: -0.189731018895
    y: 0.114651137243
    z: -0.0905612941603
    w: 0.970904685949
---
header: 
  seq: 144
  stamp: 
    secs: 21744
    nsecs: 804000000
  frame_id: "world"
pose: 
  position: 
    x: -0.354478328498
    y: -0.749269616128
    z: 0.0617450812184
  orientation: 
    x: -0.204119864483
    y: 0.125957788281
    z: -0.0989556714395
    w: 0.965752293078
---
header: 
  seq: 145
  stamp: 
    secs: 21745
    nsecs: 147000000
  frame_id: "world"
pose: 
  position: 
    x: -0.374225525178
    y: -0.745503819082
    z: 0.0619728271498
  orientation: 
    x: -0.201027305469
    y: 0.135144116479
    z: -0.101209408456
    w: 0.964925254036
---
header: 
  seq: 146
  stamp: 
    secs: 21745
    nsecs: 354000000
  frame_id: "world"
pose: 
  position: 
    x: -0.372894054246
    y: -0.742877601346
    z: 0.0617374570286
  orientation: 
    x: -0.198643650943
    y: 0.135756794283
    z: -0.100444306058
    w: 0.965412727349
---
header: 
  seq: 147
  stamp: 
    secs: 21745
    nsecs: 478000000
  frame_id: "world"
pose: 
  position: 
    x: -0.380944767672
    y: -0.743458470912
    z: 0.0663428162464
  orientation: 
    x: -0.216736876575
    y: 0.138839597259
    z: -0.102079425605
    w: 0.960899830073
---
header: 
  seq: 148
  stamp: 
    secs: 21745
    nsecs: 807000000
  frame_id: "world"
pose: 
  position: 
    x: -0.377903079006
    y: -0.742964192262
    z: 0.0677499666135
  orientation: 
    x: -0.212229801558
    y: 0.142058711949
    z: -0.105981305452
    w: 0.961012901362
---
header: 
  seq: 149
  stamp: 
    secs: 21746
    nsecs: 123000000
  frame_id: "world"
pose: 
  position: 
    x: -0.373375743856
    y: -0.743587132421
    z: 0.079582137427
  orientation: 
    x: -0.204572336837
    y: 0.144412879224
    z: -0.105219761593
    w: 0.962405258239
---
header: 
  seq: 150
  stamp: 
    secs: 21746
    nsecs: 488000000
  frame_id: "world"
pose: 
  position: 
    x: -0.380140819082
    y: -0.74969487081
    z: 0.0929684503656
  orientation: 
    x: -0.203401882694
    y: 0.14879484064
    z: -0.105767188151
    w: 0.961925709931
---
header: 
  seq: 151
  stamp: 
    secs: 21746
    nsecs: 699000000
  frame_id: "world"
pose: 
  position: 
    x: -0.378205724952
    y: -0.735593815449
    z: 0.0951696751109
  orientation: 
    x: -0.196203674046
    y: 0.149862984735
    z: -0.104661443532
    w: 0.963374893972
---
header: 
  seq: 152
  stamp: 
    secs: 21746
    nsecs: 890000000
  frame_id: "world"
pose: 
  position: 
    x: -0.375197720987
    y: -0.741585633788
    z: 0.100439781687
  orientation: 
    x: -0.200059265738
    y: 0.150098863533
    z: -0.107378269997
    w: 0.962245565587
---
header: 
  seq: 153
  stamp: 
    secs: 21747
    nsecs:  77000000
  frame_id: "world"
pose: 
  position: 
    x: -0.371452765722
    y: -0.739111410373
    z: 0.104462924617
  orientation: 
    x: -0.208823651771
    y: 0.149533437698
    z: -0.107971407815
    w: 0.960403357223
---
header: 
  seq: 154
  stamp: 
    secs: 21747
    nsecs: 386000000
  frame_id: "world"
pose: 
  position: 
    x: -0.371995644493
    y: -0.742765277417
    z: 0.113923925951
  orientation: 
    x: -0.202255336278
    y: 0.148227470093
    z: -0.103985311205
    w: 0.962449194041
---
header: 
  seq: 155
  stamp: 
    secs: 21747
    nsecs: 648000000
  frame_id: "world"
pose: 
  position: 
    x: -0.374525901179
    y: -0.738311116082
    z: 0.120667837409
  orientation: 
    x: -0.207453621651
    y: 0.151595067666
    z: -0.109062084207
    w: 0.960253816505
---
header: 
  seq: 156
  stamp: 
    secs: 21748
    nsecs:  59000000
  frame_id: "world"
pose: 
  position: 
    x: -0.372407745676
    y: -0.738086868397
    z: 0.133868232092
  orientation: 
    x: -0.210946683722
    y: 0.152407092018
    z: -0.111698569525
    w: 0.959060480103
---
header: 
  seq: 157
  stamp: 
    secs: 21748
    nsecs: 573000000
  frame_id: "world"
pose: 
  position: 
    x: -0.341264848043
    y: -0.71308052361
    z: 0.130630215826
  orientation: 
    x: -0.193622532751
    y: 0.141933839208
    z: -0.106678187459
    w: 0.964875569397
---
header: 
  seq: 158
  stamp: 
    secs: 21748
    nsecs: 887000000
  frame_id: "world"
pose: 
  position: 
    x: -0.327177049973
    y: -0.706166598689
    z: 0.135316817968
  orientation: 
    x: -0.19742143773
    y: 0.14274596628
    z: -0.0980338668379
    w: 0.964902961954
---
header: 
  seq: 159
  stamp: 
    secs: 21749
    nsecs:  65000000
  frame_id: "world"
pose: 
  position: 
    x: -0.327648568006
    y: -0.706894810965
    z: 0.13123309321
  orientation: 
    x: -0.191744433741
    y: 0.144002614422
    z: -0.10228244736
    w: 0.965419919067
---
header: 
  seq: 160
  stamp: 
    secs: 21749
    nsecs: 232000000
  frame_id: "world"
pose: 
  position: 
    x: -0.328342352362
    y: -0.707425744921
    z: 0.135032906152
  orientation: 
    x: -0.190586658978
    y: 0.144192214533
    z: -0.102535058856
    w: 0.965594061909
---
header: 
  seq: 161
  stamp: 
    secs: 21749
    nsecs: 487000000
  frame_id: "world"
pose: 
  position: 
    x: -0.319223708269
    y: -0.695242117533
    z: 0.144286069791
  orientation: 
    x: -0.197629753455
    y: 0.143639843666
    z: -0.0979651943835
    w: 0.964734624936
---
header: 
  seq: 162
  stamp: 
    secs: 21749
    nsecs: 870000000
  frame_id: "world"
pose: 
  position: 
    x: -0.270184437142
    y: -0.677091593407
    z: 0.13824840173
  orientation: 
    x: -0.183451361663
    y: 0.126835683283
    z: -0.0919605784115
    w: 0.970464610055
---
header: 
  seq: 163
  stamp: 
    secs: 21750
    nsecs: 325000000
  frame_id: "world"
pose: 
  position: 
    x: -0.272014432033
    y: -0.672782815475
    z: 0.14824636022
  orientation: 
    x: -0.188635922004
    y: 0.130231089426
    z: -0.0951908691154
    w: 0.968707928487
---
header: 
  seq: 164
  stamp: 
    secs: 21750
    nsecs: 723000000
  frame_id: "world"
pose: 
  position: 
    x: -0.270262005909
    y: -0.664355286496
    z: 0.159904933133
  orientation: 
    x: -0.181024597816
    y: 0.131068040897
    z: -0.0915475880515
    w: 0.970396982045
---
header: 
  seq: 165
  stamp: 
    secs: 21750
    nsecs: 944000000
  frame_id: "world"
pose: 
  position: 
    x: -0.263408240482
    y: -0.660319114603
    z: 0.164133307804
  orientation: 
    x: -0.184377036087
    y: 0.124285829278
    z: -0.0872073124174
    w: 0.971057684108
---
header: 
  seq: 166
  stamp: 
    secs: 21751
    nsecs: 375000000
  frame_id: "world"
pose: 
  position: 
    x: -0.25653209548
    y: -0.655912531318
    z: 0.177316843457
  orientation: 
    x: -0.186856679757
    y: 0.115999008713
    z: -0.0913730659112
    w: 0.971225912975
---
header: 
  seq: 167
  stamp: 
    secs: 21751
    nsecs: 831000000
  frame_id: "world"
pose: 
  position: 
    x: -0.240512056197
    y: -0.65256048398
    z: 0.187416718913
  orientation: 
    x: -0.184560747076
    y: 0.104495015802
    z: -0.0890062069772
    w: 0.973188582666
---
header: 
  seq: 168
  stamp: 
    secs: 21752
    nsecs: 200000000
  frame_id: "world"
pose: 
  position: 
    x: -0.237315588655
    y: -0.649043975115
    z: 0.198590204382
  orientation: 
    x: -0.190017486188
    y: 0.102611049546
    z: -0.0884686016293
    w: 0.972387594522
---
header: 
  seq: 169
  stamp: 
    secs: 21752
    nsecs: 523000000
  frame_id: "world"
pose: 
  position: 
    x: -0.230706912082
    y: -0.646343854223
    z: 0.210343675414
  orientation: 
    x: -0.186023329288
    y: 0.0987656683892
    z: -0.0885812172514
    w: 0.973547138899
---
header: 
  seq: 170
  stamp: 
    secs: 21752
    nsecs: 685000000
  frame_id: "world"
pose: 
  position: 
    x: -0.23119159594
    y: -0.646064872183
    z: 0.216074642116
  orientation: 
    x: -0.189281792931
    y: 0.0954062289323
    z: -0.0896747238643
    w: 0.973153892376
---
header: 
  seq: 171
  stamp: 
    secs: 21752
    nsecs: 836000000
  frame_id: "world"
pose: 
  position: 
    x: -0.230930497806
    y: -0.646631936096
    z: 0.219060988485
  orientation: 
    x: -0.192701882246
    y: 0.0971384396083
    z: -0.0865900061906
    w: 0.972590499109
---
header: 
  seq: 172
  stamp: 
    secs: 21753
    nsecs:  46000000
  frame_id: "world"
pose: 
  position: 
    x: -0.226394696068
    y: -0.645458887734
    z: 0.226312103788
  orientation: 
    x: -0.191248657885
    y: 0.0898346648744
    z: -0.0897890205596
    w: 0.97328907095
---
header: 
  seq: 173
  stamp: 
    secs: 21753
    nsecs: 501000000
  frame_id: "world"
pose: 
  position: 
    x: -0.215107297476
    y: -0.64695155028
    z: 0.240331959042
  orientation: 
    x: -0.195419510043
    y: 0.08147458153
    z: -0.0845755166406
    w: 0.973663232152
---
header: 
  seq: 174
  stamp: 
    secs: 21753
    nsecs: 975000000
  frame_id: "world"
pose: 
  position: 
    x: -0.213802729104
    y: -0.645210026187
    z: 0.257728207411
  orientation: 
    x: -0.194494225495
    y: 0.0741615502451
    z: -0.0838005886977
    w: 0.9744996265
---
header: 
  seq: 175
  stamp: 
    secs: 21754
    nsecs: 387000000
  frame_id: "world"
pose: 
  position: 
    x: -0.205922697733
    y: -0.646523438175
    z: 0.269945370323
  orientation: 
    x: -0.196588861796
    y: 0.0642069801145
    z: -0.0884468467189
    w: 0.974375409392
---
header: 
  seq: 176
  stamp: 
    secs: 21754
    nsecs: 687000000
  frame_id: "world"
pose: 
  position: 
    x: -0.204422884299
    y: -0.643214056249
    z: 0.27760320352
  orientation: 
    x: -0.200878713069
    y: 0.0601711432772
    z: -0.0804942948466
    w: 0.974447456074
---
header: 
  seq: 177
  stamp: 
    secs: 21754
    nsecs: 837000000
  frame_id: "world"
pose: 
  position: 
    x: -0.199211669644
    y: -0.642677804527
    z: 0.283347160031
  orientation: 
    x: -0.198969428709
    y: 0.0572168505242
    z: -0.0793406106553
    w: 0.975111514626
---
header: 
  seq: 178
  stamp: 
    secs: 21755
    nsecs:  47000000
  frame_id: "world"
pose: 
  position: 
    x: -0.192704431751
    y: -0.640582364966
    z: 0.293060024735
  orientation: 
    x: -0.201684007959
    y: 0.0533478205889
    z: -0.0782276922761
    w: 0.974863066863
---
header: 
  seq: 179
  stamp: 
    secs: 21755
    nsecs: 642000000
  frame_id: "world"
pose: 
  position: 
    x: -0.185822978085
    y: -0.641202931115
    z: 0.314085755858
  orientation: 
    x: -0.202724763107
    y: 0.0567749468565
    z: -0.0796772934239
    w: 0.974336084083
---
header: 
  seq: 180
  stamp: 
    secs: 21756
    nsecs:  53000000
  frame_id: "world"
pose: 
  position: 
    x: -0.176328917267
    y: -0.628914759438
    z: 0.333833526523
  orientation: 
    x: -0.198903175466
    y: 0.0588221796857
    z: -0.0778476260147
    w: 0.975149847506
---
header: 
  seq: 181
  stamp: 
    secs: 21756
    nsecs: 649000000
  frame_id: "world"
pose: 
  position: 
    x: -0.172859867577
    y: -0.631829089986
    z: 0.355581998134
  orientation: 
    x: -0.203175802485
    y: 0.0636065226356
    z: -0.079528841247
    w: 0.973832104098
---
header: 
  seq: 182
  stamp: 
    secs: 21756
    nsecs: 876000000
  frame_id: "world"
pose: 
  position: 
    x: -0.169843526144
    y: -0.632492885531
    z: 0.363301649349
  orientation: 
    x: -0.204457694148
    y: 0.0643837786889
    z: -0.0797847477543
    w: 0.97349174335
---
header: 
  seq: 183
  stamp: 
    secs: 21757
    nsecs: 124000000
  frame_id: "world"
pose: 
  position: 
    x: -0.16967113596
    y: -0.633265418184
    z: 0.371195543502
  orientation: 
    x: -0.201581442765
    y: 0.0653420576722
    z: -0.0852393159672
    w: 0.973565404298
---
header: 
  seq: 184
  stamp: 
    secs: 21757
    nsecs: 366000000
  frame_id: "world"
pose: 
  position: 
    x: -0.17043064689
    y: -0.63373075853
    z: 0.379552867992
  orientation: 
    x: -0.195695898911
    y: 0.0625317440123
    z: -0.100961005131
    w: 0.973447364567
---
header: 
  seq: 185
  stamp: 
    secs: 21757
    nsecs: 622000000
  frame_id: "world"
pose: 
  position: 
    x: -0.175237316322
    y: -0.632908894413
    z: 0.386861965244
  orientation: 
    x: -0.198990634466
    y: 0.0651002051029
    z: -0.0912161389895
    w: 0.973572959094
---
header: 
  seq: 186
  stamp: 
    secs: 21758
    nsecs: 141000000
  frame_id: "world"
pose: 
  position: 
    x: -0.197214832355
    y: -0.63101339647
    z: 0.391865081054
  orientation: 
    x: -0.201181147784
    y: 0.0737923657747
    z: -0.0801386486033
    w: 0.973477595803
---
header: 
  seq: 187
  stamp: 
    secs: 21758
    nsecs: 679000000
  frame_id: "world"
pose: 
  position: 
    x: -0.211506588179
    y: -0.636937284218
    z: 0.402726160248
  orientation: 
    x: -0.214591825459
    y: 0.0722268297607
    z: -0.0855665438782
    w: 0.970263881672
---
header: 
  seq: 188
  stamp: 
    secs: 21758
    nsecs: 921000000
  frame_id: "world"
pose: 
  position: 
    x: -0.219696434056
    y: -0.639793548063
    z: 0.406790303458
  orientation: 
    x: -0.212982596433
    y: 0.0747274628483
    z: -0.0823754698643
    w: 0.970705157026
---
header: 
  seq: 189
  stamp: 
    secs: 21759
    nsecs: 128000000
  frame_id: "world"
pose: 
  position: 
    x: -0.224119653839
    y: -0.639548056234
    z: 0.411200687787
  orientation: 
    x: -0.216940672674
    y: 0.0734722402712
    z: -0.0778747026144
    w: 0.970295885358
---
header: 
  seq: 190
  stamp: 
    secs: 21759
    nsecs: 285000000
  frame_id: "world"
pose: 
  position: 
    x: -0.221499666831
    y: -0.639188769027
    z: 0.414207887239
  orientation: 
    x: -0.216334708974
    y: 0.0687620720691
    z: -0.0836290248519
    w: 0.970297509705
---
header: 
  seq: 191
  stamp: 
    secs: 21759
    nsecs: 624000000
  frame_id: "world"
pose: 
  position: 
    x: -0.222311365802
    y: -0.638962115007
    z: 0.425222237941
  orientation: 
    x: -0.214628737583
    y: 0.0702570922072
    z: -0.0803602089847
    w: 0.970845344434
---
header: 
  seq: 192
  stamp: 
    secs: 21759
    nsecs: 989000000
  frame_id: "world"
pose: 
  position: 
    x: -0.208352252607
    y: -0.671364905533
    z: 0.466998886486
  orientation: 
    x: -0.243058857068
    y: 0.0562992442629
    z: -0.0799733135265
    w: 0.965068420486
---
header: 
  seq: 193
  stamp: 
    secs: 21760
    nsecs: 519000000
  frame_id: "world"
pose: 
  position: 
    x: -0.221210551071
    y: -0.673260355982
    z: 0.472971691564
  orientation: 
    x: -0.24906638118
    y: 0.0568412948181
    z: -0.0834647687821
    w: 0.963207473674
---
header: 
  seq: 194
  stamp: 
    secs: 21761
    nsecs:  58000000
  frame_id: "world"
pose: 
  position: 
    x: -0.213444493041
    y: -0.661398391234
    z: 0.474321003151
  orientation: 
    x: -0.235251514316
    y: 0.0492121392565
    z: -0.0837242382633
    w: 0.967070391589
---
header: 
  seq: 195
  stamp: 
    secs: 21761
    nsecs: 452000000
  frame_id: "world"
pose: 
  position: 
    x: -0.214462690208
    y: -0.660849938246
    z: 0.490375132999
  orientation: 
    x: -0.245137911508
    y: 0.0422419721216
    z: -0.078516546994
    w: 0.965379807113
---
header: 
  seq: 196
  stamp: 
    secs: 21761
    nsecs: 861000000
  frame_id: "world"
pose: 
  position: 
    x: -0.203688428033
    y: -0.654040531734
    z: 0.495918950359
  orientation: 
    x: -0.240375724628
    y: 0.0331467334936
    z: -0.0751964458064
    w: 0.967195068022
---
header: 
  seq: 197
  stamp: 
    secs: 21762
    nsecs: 282000000
  frame_id: "world"
pose: 
  position: 
    x: -0.20136746302
    y: -0.653066198054
    z: 0.503417606902
  orientation: 
    x: -0.23821494633
    y: 0.0272176831343
    z: -0.0732684127784
    w: 0.96806227938
---
header: 
  seq: 198
  stamp: 
    secs: 21762
    nsecs: 454000000
  frame_id: "world"
pose: 
  position: 
    x: -0.193021980542
    y: -0.649531965518
    z: 0.508145799722
  orientation: 
    x: -0.23362908483
    y: 0.0210720201755
    z: -0.0698451743744
    w: 0.969585000041
---
header: 
  seq: 199
  stamp: 
    secs: 21762
    nsecs: 682000000
  frame_id: "world"
pose: 
  position: 
    x: -0.190818594312
    y: -0.642392910196
    z: 0.512759354048
  orientation: 
    x: -0.2326702522
    y: 0.0150534833641
    z: -0.0685056139775
    w: 0.970023158091
---
header: 
  seq: 200
  stamp: 
    secs: 21762
    nsecs: 910000000
  frame_id: "world"
pose: 
  position: 
    x: -0.203849471902
    y: -0.642965369986
    z: 0.507960459986
  orientation: 
    x: -0.233550740151
    y: 0.0214777656749
    z: -0.071451710797
    w: 0.969477906082
---
header: 
  seq: 201
  stamp: 
    secs: 21763
    nsecs: 363000000
  frame_id: "world"
pose: 
  position: 
    x: -0.188365183893
    y: -0.635501341626
    z: 0.512149304643
  orientation: 
    x: -0.232608745563
    y: 0.00503442281462
    z: -0.0650228265444
    w: 0.970381295215
---
header: 
  seq: 202
  stamp: 
    secs: 21763
    nsecs: 902000000
  frame_id: "world"
pose: 
  position: 
    x: -0.187771250194
    y: -0.62912149543
    z: 0.511081480386
  orientation: 
    x: -0.231947040838
    y: -0.00531102570052
    z: -0.0687085655653
    w: 0.970284234784
---
header: 
  seq: 203
  stamp: 
    secs: 21764
    nsecs: 492000000
  frame_id: "world"
pose: 
  position: 
    x: -0.188083865383
    y: -0.60990278993
    z: 0.507685178128
  orientation: 
    x: -0.222224478972
    y: -0.0188205909448
    z: -0.0674493311787
    w: 0.972477585359
---
header: 
  seq: 204
  stamp: 
    secs: 21764
    nsecs: 873000000
  frame_id: "world"
pose: 
  position: 
    x: -0.187481908462
    y: -0.612666185916
    z: 0.51580487095
  orientation: 
    x: -0.231690673204
    y: -0.0238435799627
    z: -0.0665173160445
    w: 0.970219749496
---
header: 
  seq: 205
  stamp: 
    secs: 21765
    nsecs: 350000000
  frame_id: "world"
pose: 
  position: 
    x: -0.191184384936
    y: -0.609431170697
    z: 0.515953244159
  orientation: 
    x: -0.229357212937
    y: -0.023199722281
    z: -0.0646672400386
    w: 0.970914615106
---
header: 
  seq: 206
  stamp: 
    secs: 21765
    nsecs: 687000000
  frame_id: "world"
pose: 
  position: 
    x: -0.192423672179
    y: -0.607140627378
    z: 0.515042888861
  orientation: 
    x: -0.225261749611
    y: -0.0276440567045
    z: -0.0669418754528
    w: 0.971602663439
---
header: 
  seq: 207
  stamp: 
    secs: 21766
    nsecs: 147000000
  frame_id: "world"
pose: 
  position: 
    x: -0.19575588575
    y: -0.604952017146
    z: 0.513720488983
  orientation: 
    x: -0.228394959572
    y: -0.0262661436445
    z: -0.0643058568538
    w: 0.971087323012
---
header: 
  seq: 208
  stamp: 
    secs: 21766
    nsecs: 447000000
  frame_id: "world"
pose: 
  position: 
    x: -0.199157766524
    y: -0.605114571984
    z: 0.512790472416
  orientation: 
    x: -0.229556002284
    y: -0.0276276061091
    z: -0.0652310925889
    w: 0.970713995858
---
header: 
  seq: 209
  stamp: 
    secs: 21766
    nsecs: 824000000
  frame_id: "world"
pose: 
  position: 
    x: -0.202623347701
    y: -0.605101343764
    z: 0.511170678391
  orientation: 
    x: -0.231212162447
    y: -0.0275792903594
    z: -0.0675064147178
    w: 0.970166585001
---
header: 
  seq: 210
  stamp: 
    secs: 21767
    nsecs: 205000000
  frame_id: "world"
pose: 
  position: 
    x: -0.208227362418
    y: -0.605274945914
    z: 0.508255488627
  orientation: 
    x: -0.23126700614
    y: -0.0344986245638
    z: -0.0631341030838
    w: 0.970226520871
---
header: 
  seq: 211
  stamp: 
    secs: 21767
    nsecs: 385000000
  frame_id: "world"
pose: 
  position: 
    x: -0.212235884571
    y: -0.606070109678
    z: 0.505349214694
  orientation: 
    x: -0.231463468479
    y: -0.0394148847462
    z: -0.0623260187519
    w: 0.970044636605
---
header: 
  seq: 212
  stamp: 
    secs: 21768
    nsecs:  55000000
  frame_id: "world"
pose: 
  position: 
    x: -0.221559750882
    y: -0.605204781658
    z: 0.499492945853
  orientation: 
    x: -0.234492016182
    y: -0.0577568454048
    z: -0.0578808871857
    w: 0.968673032584
---
header: 
  seq: 213
  stamp: 
    secs: 21768
    nsecs: 632000000
  frame_id: "world"
pose: 
  position: 
    x: -0.23183335815
    y: -0.606938107618
    z: 0.493748558127
  orientation: 
    x: -0.239637910715
    y: -0.0714106122419
    z: -0.0534080251268
    w: 0.966758387116
---
header: 
  seq: 214
  stamp: 
    secs: 21769
    nsecs:  57000000
  frame_id: "world"
pose: 
  position: 
    x: -0.239855352173
    y: -0.609251403779
    z: 0.487910681542
  orientation: 
    x: -0.223894464114
    y: -0.0765108824369
    z: -0.0349007833764
    w: 0.970978521455
---
header: 
  seq: 215
  stamp: 
    secs: 21769
    nsecs: 305000000
  frame_id: "world"
pose: 
  position: 
    x: -0.241745632592
    y: -0.608774053661
    z: 0.484495705968
  orientation: 
    x: -0.23434435776
    y: -0.0767334764246
    z: -0.0417250754253
    w: 0.968221934095
---
header: 
  seq: 216
  stamp: 
    secs: 21769
    nsecs: 519000000
  frame_id: "world"
pose: 
  position: 
    x: -0.241696010534
    y: -0.610734598941
    z: 0.483282247825
  orientation: 
    x: -0.238443747081
    y: -0.0716221383488
    z: -0.0446223343043
    w: 0.967483176111
---
header: 
  seq: 217
  stamp: 
    secs: 21769
    nsecs: 694000000
  frame_id: "world"
pose: 
  position: 
    x: -0.243256273416
    y: -0.611747277804
    z: 0.479496851882
  orientation: 
    x: -0.23675221949
    y: -0.0717164974863
    z: -0.0520293180357
    w: 0.96752161765
---
header: 
  seq: 218
  stamp: 
    secs: 21769
    nsecs: 938000000
  frame_id: "world"
pose: 
  position: 
    x: -0.24951160459
    y: -0.615369427038
    z: 0.473874463349
  orientation: 
    x: -0.246624346231
    y: -0.070550668482
    z: -0.0574559589053
    w: 0.964830476202
---
header: 
  seq: 219
  stamp: 
    secs: 21770
    nsecs: 226000000
  frame_id: "world"
pose: 
  position: 
    x: -0.242613007804
    y: -0.614954137141
    z: 0.471633378464
  orientation: 
    x: -0.24034015008
    y: -0.0766672384269
    z: -0.0500361697158
    w: 0.966361800017
---
header: 
  seq: 220
  stamp: 
    secs: 21770
    nsecs: 832000000
  frame_id: "world"
pose: 
  position: 
    x: -0.243894988233
    y: -0.618993218238
    z: 0.46063088197
  orientation: 
    x: -0.245275846612
    y: -0.0757854310777
    z: -0.0540417500157
    w: 0.96497451612
---
header: 
  seq: 221
  stamp: 
    secs: 21771
    nsecs: 228000000
  frame_id: "world"
pose: 
  position: 
    x: -0.242776095408
    y: -0.621723468012
    z: 0.456368703342
  orientation: 
    x: -0.247688380413
    y: -0.0714102715086
    z: -0.0503307930692
    w: 0.964892662735
---
header: 
  seq: 222
  stamp: 
    secs: 21771
    nsecs: 477000000
  frame_id: "world"
pose: 
  position: 
    x: -0.242280160773
    y: -0.622206351263
    z: 0.454109677118
  orientation: 
    x: -0.241826132895
    y: -0.0701921364864
    z: -0.0559949700975
    w: 0.966156172028
---
header: 
  seq: 223
  stamp: 
    secs: 21771
    nsecs: 634000000
  frame_id: "world"
pose: 
  position: 
    x: -0.242261056547
    y: -0.622819446522
    z: 0.451102769805
  orientation: 
    x: -0.238807119281
    y: -0.0670145511354
    z: -0.0549542399474
    w: 0.967191936085
---
header: 
  seq: 224
  stamp: 
    secs: 21771
    nsecs: 897000000
  frame_id: "world"
pose: 
  position: 
    x: -0.242918368292
    y: -0.624725428954
    z: 0.446717367114
  orientation: 
    x: -0.234103499495
    y: -0.0687718523184
    z: -0.0574194727762
    w: 0.968074887599
---
header: 
  seq: 225
  stamp: 
    secs: 21772
    nsecs: 324000000
  frame_id: "world"
pose: 
  position: 
    x: -0.240811636386
    y: -0.6284263136
    z: 0.440947710035
  orientation: 
    x: -0.236398296263
    y: -0.0633855699508
    z: -0.0563059076366
    w: 0.967950287882
---
header: 
  seq: 226
  stamp: 
    secs: 21772
    nsecs: 522000000
  frame_id: "world"
pose: 
  position: 
    x: -0.242967512864
    y: -0.6290510733
    z: 0.43611604006
  orientation: 
    x: -0.240750367253
    y: -0.0623043973934
    z: -0.054436343198
    w: 0.967054345563
---
header: 
  seq: 227
  stamp: 
    secs: 21772
    nsecs: 940000000
  frame_id: "world"
pose: 
  position: 
    x: -0.244302881604
    y: -0.63133474282
    z: 0.428789051505
  orientation: 
    x: -0.235495241881
    y: -0.0596876315111
    z: -0.0588483049108
    w: 0.968254230409
---
header: 
  seq: 228
  stamp: 
    secs: 21773
    nsecs: 299000000
  frame_id: "world"
pose: 
  position: 
    x: -0.245065040721
    y: -0.633887743195
    z: 0.422944057631
  orientation: 
    x: -0.240464151919
    y: -0.052866530641
    z: -0.0584289806092
    w: 0.967454482549
---
header: 
  seq: 229
  stamp: 
    secs: 21773
    nsecs: 492000000
  frame_id: "world"
pose: 
  position: 
    x: -0.244996930582
    y: -0.634892369403
    z: 0.419712756927
  orientation: 
    x: -0.239518376024
    y: -0.0518913622054
    z: -0.0576907400794
    w: 0.967786139901
---
header: 
  seq: 230
  stamp: 
    secs: 21773
    nsecs: 770000000
  frame_id: "world"
pose: 
  position: 
    x: -0.216906732407
    y: -0.614711831278
    z: 0.427706202792
  orientation: 
    x: -0.22784035589
    y: -0.0708780391409
    z: -0.0503146814044
    w: 0.969811068524
---
header: 
  seq: 231
  stamp: 
    secs: 21774
    nsecs: 183000000
  frame_id: "world"
pose: 
  position: 
    x: -0.218108830065
    y: -0.618059023498
    z: 0.420717390301
  orientation: 
    x: -0.223708931905
    y: -0.071237367194
    z: -0.0517722247829
    w: 0.970669453543
---
header: 
  seq: 232
  stamp: 
    secs: 21774
    nsecs: 567000000
  frame_id: "world"
pose: 
  position: 
    x: -0.218222036421
    y: -0.621730012391
    z: 0.413252540854
  orientation: 
    x: -0.229484018025
    y: -0.0757946959068
    z: -0.0519704018716
    w: 0.968964048287
---
header: 
  seq: 233
  stamp: 
    secs: 21774
    nsecs: 916000000
  frame_id: "world"
pose: 
  position: 
    x: -0.219017075174
    y: -0.625608838391
    z: 0.406415558464
  orientation: 
    x: -0.22969588684
    y: -0.0787746792756
    z: -0.0437861741804
    w: 0.969080554146
---
header: 
  seq: 234
  stamp: 
    secs: 21775
    nsecs: 428000000
  frame_id: "world"
pose: 
  position: 
    x: -0.218447304315
    y: -0.631010206941
    z: 0.398609428329
  orientation: 
    x: -0.228115619791
    y: -0.0778384347744
    z: -0.0453851311928
    w: 0.969455843216
---
header: 
  seq: 235
  stamp: 
    secs: 21775
    nsecs: 805000000
  frame_id: "world"
pose: 
  position: 
    x: -0.218751466713
    y: -0.634905382833
    z: 0.392650824607
  orientation: 
    x: -0.228275789193
    y: -0.0782075879858
    z: -0.053091832753
    w: 0.968996901205
---
header: 
  seq: 236
  stamp: 
    secs: 21775
    nsecs: 968000000
  frame_id: "world"
pose: 
  position: 
    x: -0.219107808739
    y: -0.636912779136
    z: 0.390205496075
  orientation: 
    x: -0.231413348963
    y: -0.0753616111673
    z: -0.0493793000226
    w: 0.968674441809
---
header: 
  seq: 237
  stamp: 
    secs: 21776
    nsecs: 223000000
  frame_id: "world"
pose: 
  position: 
    x: -0.220039210374
    y: -0.639795776594
    z: 0.386440630512
  orientation: 
    x: -0.229945673413
    y: -0.0740248313362
    z: -0.0487995012242
    w: 0.969156293022
---
header: 
  seq: 238
  stamp: 
    secs: 21776
    nsecs: 612000000
  frame_id: "world"
pose: 
  position: 
    x: -0.220975200583
    y: -0.64510038995
    z: 0.38007855913
  orientation: 
    x: -0.226072529004
    y: -0.0778390628914
    z: -0.0496749703856
    w: 0.969724027358
---
header: 
  seq: 239
  stamp: 
    secs: 21777
    nsecs: 136000000
  frame_id: "world"
pose: 
  position: 
    x: -0.222458052443
    y: -0.650311636867
    z: 0.371900648851
  orientation: 
    x: -0.227366754871
    y: -0.0806816701003
    z: -0.0493738399844
    w: 0.96920433904
---
header: 
  seq: 240
  stamp: 
    secs: 21777
    nsecs: 627000000
  frame_id: "world"
pose: 
  position: 
    x: -0.222097650439
    y: -0.656838089775
    z: 0.363445974554
  orientation: 
    x: -0.222303290907
    y: -0.0862073741124
    z: -0.0475281696532
    w: 0.969995159055
---
header: 
  seq: 241
  stamp: 
    secs: 21777
    nsecs: 808000000
  frame_id: "world"
pose: 
  position: 
    x: -0.22197894061
    y: -0.658316858296
    z: 0.36052685181
  orientation: 
    x: -0.229428094498
    y: -0.0843976670897
    z: -0.0461910105497
    w: 0.968558812767
---
header: 
  seq: 242
  stamp: 
    secs: 21777
    nsecs: 974000000
  frame_id: "world"
pose: 
  position: 
    x: -0.222429601462
    y: -0.660061830946
    z: 0.357655983048
  orientation: 
    x: -0.227872388685
    y: -0.0863717763328
    z: -0.0475869069475
    w: 0.968684456887
---
header: 
  seq: 243
  stamp: 
    secs: 21778
    nsecs: 175000000
  frame_id: "world"
pose: 
  position: 
    x: -0.2225200042
    y: -0.662246068428
    z: 0.353906019611
  orientation: 
    x: -0.231335414999
    y: -0.0877512575879
    z: -0.0468980437692
    w: 0.967772812208
---
header: 
  seq: 244
  stamp: 
    secs: 21778
    nsecs: 395000000
  frame_id: "world"
pose: 
  position: 
    x: -0.223021189266
    y: -0.664971007628
    z: 0.349848795876
  orientation: 
    x: -0.226563279082
    y: -0.0859066682961
    z: -0.0401816318055
    w: 0.969368124801
---
header: 
  seq: 245
  stamp: 
    secs: 21778
    nsecs: 823000000
  frame_id: "world"
pose: 
  position: 
    x: -0.223512324344
    y: -0.668457340785
    z: 0.342045912447
  orientation: 
    x: -0.230537002215
    y: -0.0852471543643
    z: -0.0466359083521
    w: 0.968199723887
---
header: 
  seq: 246
  stamp: 
    secs: 21779
    nsecs: 121000000
  frame_id: "world"
pose: 
  position: 
    x: -0.223932597474
    y: -0.671730707427
    z: 0.336667718407
  orientation: 
    x: -0.226711785409
    y: -0.0825010933875
    z: -0.0458005437776
    w: 0.969380031843
---
header: 
  seq: 247
  stamp: 
    secs: 21779
    nsecs: 432000000
  frame_id: "world"
pose: 
  position: 
    x: -0.223931071812
    y: -0.674923670289
    z: 0.330377433418
  orientation: 
    x: -0.225092851943
    y: -0.0830582232443
    z: -0.0477102237729
    w: 0.969617591684
---
header: 
  seq: 248
  stamp: 
    secs: 21779
    nsecs: 859000000
  frame_id: "world"
pose: 
  position: 
    x: -0.230507413261
    y: -0.679933004782
    z: 0.315588762868
  orientation: 
    x: -0.225396162955
    y: -0.0669053046647
    z: -0.0509132274334
    w: 0.970632831304
---
header: 
  seq: 249
  stamp: 
    secs: 21780
    nsecs: 213000000
  frame_id: "world"
pose: 
  position: 
    x: -0.230560609128
    y: -0.681294195839
    z: 0.306709878706
  orientation: 
    x: -0.227411163346
    y: -0.0559742832893
    z: -0.0542915448227
    w: 0.9706716595
---
header: 
  seq: 250
  stamp: 
    secs: 21781
    nsecs:  30000000
  frame_id: "world"
pose: 
  position: 
    x: -0.231146769159
    y: -0.685568416487
    z: 0.285342727665
  orientation: 
    x: -0.22643263819
    y: -0.0305100684234
    z: -0.0613277676842
    w: 0.971615305045
---
header: 
  seq: 251
  stamp: 
    secs: 21781
    nsecs: 376000000
  frame_id: "world"
pose: 
  position: 
    x: -0.231138985319
    y: -0.68738200053
    z: 0.275977911566
  orientation: 
    x: -0.237624850985
    y: -0.0175217542888
    z: -0.0554384963144
    w: 0.969615383256
---
header: 
  seq: 252
  stamp: 
    secs: 21781
    nsecs: 869000000
  frame_id: "world"
pose: 
  position: 
    x: -0.228198244318
    y: -0.688659054912
    z: 0.26821903089
  orientation: 
    x: -0.235595356764
    y: -0.0139823892463
    z: -0.0575027426976
    w: 0.970047810803
---
header: 
  seq: 253
  stamp: 
    secs: 21782
    nsecs:  68000000
  frame_id: "world"
pose: 
  position: 
    x: -0.224284548035
    y: -0.688716873929
    z: 0.266965540215
  orientation: 
    x: -0.233709727177
    y: -0.0119253798637
    z: -0.0596019494836
    w: 0.970404635374
---
header: 
  seq: 254
  stamp: 
    secs: 21782
    nsecs: 269000000
  frame_id: "world"
pose: 
  position: 
    x: -0.22065807753
    y: -0.689047399632
    z: 0.266144984438
  orientation: 
    x: -0.225129276773
    y: -0.0115688184469
    z: -0.0613095048207
    w: 0.972329221919
---
header: 
  seq: 255
  stamp: 
    secs: 21782
    nsecs: 464000000
  frame_id: "world"
pose: 
  position: 
    x: -0.2156736155
    y: -0.68947984359
    z: 0.265388592954
  orientation: 
    x: -0.221925301098
    y: -0.0105443129056
    z: -0.0646830343321
    w: 0.972858717013
---
header: 
  seq: 256
  stamp: 
    secs: 21782
    nsecs: 676000000
  frame_id: "world"
pose: 
  position: 
    x: -0.212244186274
    y: -0.688925332711
    z: 0.264702297612
  orientation: 
    x: -0.2203466052
    y: -0.00898048022534
    z: -0.0722573987442
    w: 0.97270015569
---
header: 
  seq: 257
  stamp: 
    secs: 21783
    nsecs: 213000000
  frame_id: "world"
pose: 
  position: 
    x: -0.200463250696
    y: -0.688476868396
    z: 0.263480157174
  orientation: 
    x: -0.227334638395
    y: 0.00858802372717
    z: -0.0701568904102
    w: 0.971248278641
---
header: 
  seq: 258
  stamp: 
    secs: 21783
    nsecs: 837000000
  frame_id: "world"
pose: 
  position: 
    x: -0.186026091871
    y: -0.686785467649
    z: 0.262506962267
  orientation: 
    x: -0.219146058993
    y: 0.0173602739429
    z: -0.0740644240793
    w: 0.972721998724
---
header: 
  seq: 259
  stamp: 
    secs: 21784
    nsecs: 435000000
  frame_id: "world"
pose: 
  position: 
    x: -0.173813235947
    y: -0.687090104866
    z: 0.261734150186
  orientation: 
    x: -0.22003196915
    y: 0.0218730921014
    z: -0.0758809427908
    w: 0.972290894185
---
header: 
  seq: 260
  stamp: 
    secs: 21785
    nsecs:  71000000
  frame_id: "world"
pose: 
  position: 
    x: -0.246783140636
    y: -0.696952555575
    z: 0.201691419211
  orientation: 
    x: -0.217320295615
    y: 0.0686109330153
    z: -0.0798570864321
    w: 0.970405726864
---
header: 
  seq: 261
  stamp: 
    secs: 21785
    nsecs: 501000000
  frame_id: "world"
pose: 
  position: 
    x: -0.292965534929
    y: -0.70096053248
    z: 0.168411499889
  orientation: 
    x: -0.209746334104
    y: 0.10204871137
    z: -0.0860715097941
    w: 0.968599107495
---
header: 
  seq: 262
  stamp: 
    secs: 21786
    nsecs: 328000000
  frame_id: "world"
pose: 
  position: 
    x: -0.270495534162
    y: -0.704638434276
    z: 0.165715047741
  orientation: 
    x: -0.208351764608
    y: 0.0978777303212
    z: -0.0887610460078
    w: 0.969087699232
---
header: 
  seq: 263
  stamp: 
    secs: 21786
    nsecs: 779000000
  frame_id: "world"
pose: 
  position: 
    x: -0.257939576272
    y: -0.705635192884
    z: 0.163597848352
  orientation: 
    x: -0.208216976126
    y: 0.0970561236717
    z: -0.0913306511902
    w: 0.968960531634
---
header: 
  seq: 264
  stamp: 
    secs: 21787
    nsecs: 285000000
  frame_id: "world"
pose: 
  position: 
    x: -0.240841266413
    y: -0.704099620318
    z: 0.16189853846
  orientation: 
    x: -0.209707049921
    y: 0.0936044804475
    z: -0.08870160382
    w: 0.969222977407
---
header: 
  seq: 265
  stamp: 
    secs: 21787
    nsecs: 801000000
  frame_id: "world"
pose: 
  position: 
    x: -0.22556593863
    y: -0.706630219668
    z: 0.160333216012
  orientation: 
    x: -0.206496325003
    y: 0.0894915979485
    z: -0.0827605682904
    w: 0.970825015125
---
header: 
  seq: 266
  stamp: 
    secs: 21788
    nsecs:  67000000
  frame_id: "world"
pose: 
  position: 
    x: -0.22126754934
    y: -0.709104346097
    z: 0.160090127869
  orientation: 
    x: -0.213271219735
    y: 0.0885420058285
    z: -0.0848465761228
    w: 0.969266092751
---
header: 
  seq: 267
  stamp: 
    secs: 21788
    nsecs: 648000000
  frame_id: "world"
pose: 
  position: 
    x: -0.200860564093
    y: -0.707490457134
    z: 0.156910880072
  orientation: 
    x: -0.212207916443
    y: 0.0808336363271
    z: -0.0874286232355
    w: 0.969943276319
---
header: 
  seq: 268
  stamp: 
    secs: 21789
    nsecs:  46000000
  frame_id: "world"
pose: 
  position: 
    x: -0.19054774245
    y: -0.71145475307
    z: 0.158287471343
  orientation: 
    x: -0.21166581949
    y: 0.0774177550822
    z: -0.08248941263
    w: 0.970772665902
---
header: 
  seq: 269
  stamp: 
    secs: 21789
    nsecs: 444000000
  frame_id: "world"
pose: 
  position: 
    x: -0.181125564734
    y: -0.714777815428
    z: 0.15720807039
  orientation: 
    x: -0.204938034259
    y: 0.0739431998996
    z: -0.0789545432279
    w: 0.972779001319
---
header: 
  seq: 270
  stamp: 
    secs: 21789
    nsecs: 838000000
  frame_id: "world"
pose: 
  position: 
    x: -0.166236559041
    y: -0.710932584139
    z: 0.157073005403
  orientation: 
    x: -0.207027415478
    y: 0.0673086269339
    z: -0.0782098390628
    w: 0.972878419462
---
header: 
  seq: 271
  stamp: 
    secs: 21790
    nsecs: 171000000
  frame_id: "world"
pose: 
  position: 
    x: -0.159415981925
    y: -0.713513963405
    z: 0.155891634161
  orientation: 
    x: -0.207487926887
    y: 0.06201341634
    z: -0.0847343842377
    w: 0.972585821672
---
header: 
  seq: 272
  stamp: 
    secs: 21790
    nsecs: 621000000
  frame_id: "world"
pose: 
  position: 
