header: 
  seq: 55
  stamp: 
    secs: 690
    nsecs: 511000000
  frame_id: "world"
pose: 
  position: 
    x: 1.63683762366e-06
    y: 8.71522024681e-06
    z: 1.03742434021e-06
  orientation: 
    x: 3.99608325093e-06
    y: -3.64204140621e-07
    z: -6.67453321052e-07
    w: 0.999999999992
---
header: 
  seq: 56
  stamp: 
    secs: 690
    nsecs: 797000000
  frame_id: "world"
pose: 
  position: 
    x: -2.15094642044e-05
    y: -2.15462623601e-05
    z: 1.48376711877e-05
  orientation: 
    x: 7.92285936719e-06
    y: 7.77589866582e-06
    z: 4.26315750675e-07
    w: 0.999999999938
---
header: 
  seq: 57
  stamp: 
    secs: 691
    nsecs: 146000000
  frame_id: "world"
pose: 
  position: 
    x: 8.45183240017e-05
    y: 1.95264201466e-05
    z: -3.75561357941e-05
  orientation: 
    x: -1.21737393723e-05
    y: -2.88922783368e-05
    z: -2.36108189594e-06
    w: 0.999999999506
---
header: 
  seq: 58
  stamp: 
    secs: 691
    nsecs: 483000000
  frame_id: "world"
pose: 
  position: 
    x: 6.66427285978e-06
    y: 4.38340657638e-06
    z: -1.72354316419e-06
  orientation: 
    x: 1.52276265907e-06
    y: -2.14092278838e-06
    z: -1.28736746773e-06
    w: 0.999999999996
---
header: 
  seq: 59
  stamp: 
    secs: 691
    nsecs: 812000000
  frame_id: "world"
pose: 
  position: 
    x: 8.4555700596e-05
    y: 1.92467541638e-05
    z: -3.75620184059e-05
  orientation: 
    x: -1.22969186062e-05
    y: -2.89128656588e-05
    z: -2.36188566188e-06
    w: 0.999999999504
---
header: 
  seq: 60
  stamp: 
    secs: 692
    nsecs:  47000000
  frame_id: "world"
pose: 
  position: 
    x: 6.29775001926e-07
    y: 8.84796554601e-06
    z: 7.51730283355e-07
  orientation: 
    x: 4.05798846256e-06
    y: 1.01061225165e-07
    z: -6.05341085697e-07
    w: 0.999999999992
---
header: 
  seq: 61
  stamp: 
    secs: 692
    nsecs: 295000000
  frame_id: "world"
pose: 
  position: 
    x: 0.000124041078379
    y: 4.13642192143e-05
    z: -4.70114464406e-05
  orientation: 
    x: -1.08499516391e-05
    y: -4.30087638527e-05
    z: -6.89002489923e-06
    w: 0.999999998993
---
header: 
  seq: 62
  stamp: 
    secs: 692
    nsecs: 524000000
  frame_id: "world"
pose: 
  position: 
    x: 6.05768491369e-07
    y: 8.84002474777e-06
    z: 7.2977701393e-07
  orientation: 
    x: 4.05412629331e-06
    y: 1.13781531751e-07
    z: -6.09107416944e-07
    w: 0.999999999992
---
header: 
  seq: 63
  stamp: 
    secs: 692
    nsecs: 787000000
  frame_id: "world"
pose: 
  position: 
    x: 0.000123936566524
    y: 4.13851121266e-05
    z: -4.71179264423e-05
  orientation: 
    x: -1.08467584032e-05
    y: -4.29374994861e-05
    z: -6.88665431189e-06
    w: 0.999999998996
---
header: 
  seq: 64
  stamp: 
    secs: 693
    nsecs: 116000000
  frame_id: "world"
pose: 
  position: 
    x: -4.08595333283e-05
    y: -3.15595207212e-05
    z: 9.62167086982e-06
  orientation: 
    x: 1.88392732503e-06
    y: 1.50305941115e-05
    z: 3.33354932951e-06
    w: 0.99999999988
---
header: 
  seq: 65
  stamp: 
    secs: 693
    nsecs: 407000000
  frame_id: "world"
pose: 
  position: 
    x: -4.08595333283e-05
    y: -3.15595207212e-05
    z: 9.62167086982e-06
  orientation: 
    x: 1.88392732503e-06
    y: 1.50305941115e-05
    z: 3.33354932951e-06
    w: 0.99999999988
---
header: 
  seq: 66
  stamp: 
    secs: 693
    nsecs: 719000000
  frame_id: "world"
pose: 
  position: 
    x: -4.08595333283e-05
    y: -3.15595207212e-05
    z: 9.62167086982e-06
  orientation: 
    x: 1.88392732503e-06
    y: 1.50305941115e-05
    z: 3.33354932951e-06
    w: 0.99999999988
---
header: 
  seq: 67
  stamp: 
    secs: 694
    nsecs:  39000000
  frame_id: "world"
pose: 
  position: 
    x: 6.99360725775e-07
    y: 8.65896163305e-06
    z: 6.3935038952e-07
  orientation: 
    x: 3.96908717445e-06
    y: 1.09267368486e-07
    z: -6.35032620261e-07
    w: 0.999999999992
---
header: 
  seq: 68
  stamp: 
    secs: 694
    nsecs: 375000000
  frame_id: "world"
pose: 
  position: 
    x: 2.55840905083e-06
    y: 1.03398342617e-05
    z: 9.66950779002e-07
  orientation: 
    x: 4.64072672907e-06
    y: -6.32938053961e-07
    z: -1.00645706879e-06
    w: 0.999999999989
---
header: 
  seq: 69
  stamp: 
    secs: 694
    nsecs: 710000000
  frame_id: "world"
pose: 
  position: 
    x: 8.41183136799e-05
    y: 1.97458393814e-05
    z: -3.74065348296e-05
  orientation: 
    x: -1.20158592777e-05
    y: -2.87342245288e-05
    z: -2.37372705553e-06
    w: 0.999999999512
---
header: 
  seq: 70
  stamp: 
    secs: 695
    nsecs:  57000000
  frame_id: "world"
pose: 
  position: 
    x: -2.1962208848e-05
    y: -2.14544488699e-05
    z: 1.50733940245e-05
  orientation: 
    x: 8.01287933377e-06
    y: 7.90794365407e-06
    z: 4.24488206336e-07
    w: 0.999999999937
---
header: 
  seq: 71
  stamp: 
    secs: 695
    nsecs: 440000000
  frame_id: "world"
pose: 
  position: 
    x: 7.51079278416e-06
    y: 2.537845603e-06
    z: -2.41724001171e-06
  orientation: 
    x: 5.56027316632e-07
    y: -2.40795634453e-06
    z: -1.25945939544e-06
    w: 0.999999999996
---
header: 
  seq: 72
  stamp: 
    secs: 695
    nsecs: 788000000
  frame_id: "world"
pose: 
  position: 
    x: 7.51079278416e-06
    y: 2.537845603e-06
    z: -2.41724001171e-06
  orientation: 
    x: 5.56027316632e-07
    y: -2.40795634453e-06
    z: -1.25945939544e-06
    w: 0.999999999996
---
header: 
  seq: 73
  stamp: 
    secs: 696
    nsecs: 114000000
  frame_id: "world"
pose: 
  position: 
    x: 8.42201916385e-05
    y: 1.97684330487e-05
    z: -3.74732189812e-05
  orientation: 
    x: -1.20063350492e-05
    y: -2.8771270067e-05
    z: -2.38315078488e-06
    w: 0.999999999511
---
header: 
  seq: 74
  stamp: 
    secs: 696
    nsecs: 450000000
  frame_id: "world"
pose: 
  position: 
    x: 8.40265347506e-05
    y: 1.97673107323e-05
    z: -3.74568189727e-05
  orientation: 
    x: -1.20063814334e-05
    y: -2.87086368049e-05
    z: -2.3758495888e-06
    w: 0.999999999513
---
header: 
  seq: 75
  stamp: 
    secs: 696
    nsecs: 867000000
  frame_id: "world"
pose: 
  position: 
    x: 8.40265347506e-05
    y: 1.97673107323e-05
    z: -3.74568189727e-05
  orientation: 
    x: -1.20063814334e-05
    y: -2.87086368049e-05
    z: -2.3758495888e-06
    w: 0.999999999513
---
header: 
  seq: 76
  stamp: 
    secs: 697
    nsecs: 221000000
  frame_id: "world"
pose: 
  position: 
    x: 8.40265347506e-05
    y: 1.97673107323e-05
    z: -3.74568189727e-05
  orientation: 
    x: -1.20063814334e-05
    y: -2.87086368049e-05
    z: -2.3758495888e-06
    w: 0.999999999513
---
header: 
  seq: 77
  stamp: 
    secs: 697
    nsecs: 568000000
  frame_id: "world"
pose: 
  position: 
    x: -3.23754466081e-05
    y: -3.24445027218e-05
    z: 8.51665936352e-06
  orientation: 
    x: 1.23735480874e-06
    y: 1.20268505261e-05
    z: 2.82268820207e-06
    w: 0.999999999923
---
header: 
  seq: 78
  stamp: 
    secs: 697
    nsecs: 869000000
  frame_id: "world"
pose: 
  position: 
    x: 0.000124149708427
    y: 4.16102993768e-05
    z: -4.72185929539e-05
  orientation: 
    x: -1.07673076746e-05
    y: -4.30101935784e-05
    z: -6.94508025145e-06
    w: 0.999999998993
---
header: 
  seq: 79
  stamp: 
    secs: 698
    nsecs: 181000000
  frame_id: "world"
pose: 
  position: 
    x: 0.000124403755763
    y: 4.16989532823e-05
    z: -4.71859020763e-05
  orientation: 
    x: -1.07408168224e-05
    y: -4.31091211358e-05
    z: -6.97531958599e-06
    w: 0.999999998989
---
header: 
  seq: 80
  stamp: 
    secs: 698
    nsecs: 496000000
  frame_id: "world"
pose: 
  position: 
    x: 8.61313892528e-05
    y: 2.03929066629e-05
    z: -3.74898518203e-05
  orientation: 
    x: -1.18486095684e-05
    y: -2.9439062913e-05
    z: -2.19991329575e-06
    w: 0.999999999494
---
header: 
  seq: 81
  stamp: 
    secs: 698
    nsecs: 805000000
  frame_id: "world"
pose: 
  position: 
    x: 8.61313892528e-05
    y: 2.03929066629e-05
    z: -3.74898518203e-05
  orientation: 
    x: -1.18486095684e-05
    y: -2.9439062913e-05
    z: -2.19991329575e-06
    w: 0.999999999494
---
header: 
  seq: 82
  stamp: 
    secs: 699
    nsecs:  64000000
  frame_id: "world"
pose: 
  position: 
    x: 5.34139644515e-07
    y: 8.62670822244e-06
    z: 6.32217393104e-07
  orientation: 
    x: 3.93246182281e-06
    y: 1.65581269583e-07
    z: -6.35827291257e-07
    w: 0.999999999992
---
header: 
  seq: 83
  stamp: 
    secs: 699
    nsecs: 292000000
  frame_id: "world"
pose: 
  position: 
    x: 3.14294334203e-06
    y: 1.02416224763e-05
    z: 8.22522167709e-07
  orientation: 
    x: 4.57632449974e-06
    y: -8.29320015318e-07
    z: -1.05192646059e-06
    w: 0.999999999989
---
header: 
  seq: 84
  stamp: 
    secs: 699
    nsecs: 521000000
  frame_id: "world"
pose: 
  position: 
    x: 3.14294334203e-06
    y: 1.02416224763e-05
    z: 8.22522167709e-07
  orientation: 
    x: 4.57632449974e-06
    y: -8.29320015318e-07
    z: -1.05192646059e-06
    w: 0.999999999989
---
header: 
  seq: 85
  stamp: 
    secs: 699
    nsecs: 896000000
  frame_id: "world"
pose: 
  position: 
    x: 3.14294334203e-06
    y: 1.02416224763e-05
    z: 8.22522167709e-07
  orientation: 
    x: 4.57632449974e-06
    y: -8.29320015318e-07
    z: -1.05192646059e-06
    w: 0.999999999989
---
header: 
  seq: 86
  stamp: 
    secs: 700
    nsecs: 291000000
  frame_id: "world"
pose: 
  position: 
    x: 7.45057150198e-06
    y: 3.83294172934e-06
    z: -2.26184397434e-06
  orientation: 
    x: 1.15712862225e-06
    y: -2.26585871132e-06
    z: -1.4829012116e-06
    w: 0.999999999996
---
header: 
  seq: 87
  stamp: 
    secs: 700
    nsecs: 614000000
  frame_id: "world"
pose: 
  position: 
    x: 8.52364028106e-05
    y: 8.56823135109e-06
    z: -4.01351535402e-05
  orientation: 
    x: -1.89647398542e-05
    y: -2.8668937358e-05
    z: -4.35164610929e-06
    w: 0.9999999994
---
header: 
  seq: 88
  stamp: 
    secs: 700
    nsecs: 869000000
  frame_id: "world"
pose: 
  position: 
    x: 8.52364028106e-05
    y: 8.56823135109e-06
    z: -4.01351535402e-05
  orientation: 
    x: -1.89647398542e-05
    y: -2.8668937358e-05
    z: -4.35164610929e-06
    w: 0.9999999994
---
header: 
  seq: 89
  stamp: 
    secs: 701
    nsecs: 104000000
  frame_id: "world"
pose: 
  position: 
    x: 7.73761621531e-06
    y: 2.90722960017e-06
    z: -2.08713845495e-06
  orientation: 
    x: 7.05499587636e-07
    y: -2.46153786064e-06
    z: -1.37974927838e-06
    w: 0.999999999996
---
header: 
  seq: 90
  stamp: 
    secs: 701
    nsecs: 333000000
  frame_id: "world"
pose: 
  position: 
    x: 7.73761621531e-06
    y: 2.90722960017e-06
    z: -2.08713845495e-06
  orientation: 
    x: 7.05499587636e-07
    y: -2.46153786064e-06
    z: -1.37974927838e-06
    w: 0.999999999996
---
header: 
  seq: 91
  stamp: 
    secs: 701
    nsecs: 569000000
  frame_id: "world"
pose: 
  position: 
    x: 5.3390276662e-06
    y: 2.77258459391e-06
    z: -8.03605053079e-06
  orientation: 
    x: 7.63576110784e-07
    y: -2.73658464777e-08
    z: -1.75311265593e-06
    w: 0.999999999998
---
header: 
  seq: 92
  stamp: 
    secs: 701
    nsecs: 871000000
  frame_id: "world"
pose: 
  position: 
    x: 0.000124836893519
    y: 4.17727897002e-05
    z: -4.71260900667e-05
  orientation: 
    x: -1.06955494521e-05
    y: -4.32865999314e-05
    z: -7.02213900889e-06
    w: 0.999999998981
---
header: 
  seq: 93
  stamp: 
    secs: 702
    nsecs: 194000000
  frame_id: "world"
pose: 
  position: 
    x: -4.06264261983e-05
    y: -3.18414458889e-05
    z: 9.1766614787e-06
  orientation: 
    x: 1.73008959316e-06
    y: 1.50414853106e-05
    z: 3.39688494892e-06
    w: 0.99999999988
---
header: 
  seq: 94
  stamp: 
    secs: 702
    nsecs: 524000000
  frame_id: "world"
pose: 
  position: 
    x: -4.02825135097e-05
    y: -3.22197993228e-05
    z: 8.88564409252e-06
  orientation: 
    x: 1.52722543571e-06
    y: 1.49805391612e-05
    z: 3.35191157279e-06
    w: 0.999999999881
---
header: 
  seq: 95
  stamp: 
    secs: 702
    nsecs: 796000000
  frame_id: "world"
pose: 
  position: 
    x: 4.9933119044e-06
    y: 2.29235229199e-06
    z: -8.11771678855e-06
  orientation: 
    x: 5.25229097547e-07
    y: 9.17234430629e-08
    z: -1.59365390573e-06
    w: 0.999999999999
---
header: 
  seq: 96
  stamp: 
    secs: 703
    nsecs: 149000000
  frame_id: "world"
pose: 
  position: 
    x: 0.000124439437059
    y: 4.31026019214e-05
    z: -4.69719743705e-05
  orientation: 
    x: -1.00802480928e-05
    y: -4.31325497196e-05
    z: -7.1167978532e-06
    w: 0.999999998994
---
header: 
  seq: 97
  stamp: 
    secs: 703
    nsecs: 432000000
  frame_id: "world"
pose: 
  position: 
    x: 5.17020271218e-06
    y: 2.09114068639e-06
    z: -8.1810503616e-06
  orientation: 
    x: 4.28880269964e-07
    y: 3.14077936991e-08
    z: -1.59952594458e-06
    w: 0.999999999999
---
header: 
  seq: 98
  stamp: 
    secs: 703
    nsecs: 707000000
  frame_id: "world"
pose: 
  position: 
    x: 0.000124527447042
    y: 4.35252804891e-05
    z: -4.71720122732e-05
  orientation: 
    x: -9.90640363767e-06
    y: -4.31135485564e-05
    z: -7.13963162718e-06
    w: 0.999999998996
---
header: 
  seq: 99
  stamp: 
    secs: 703
    nsecs: 964000000
  frame_id: "world"
pose: 
  position: 
    x: -4.05176251661e-05
    y: -3.20380568155e-05
    z: 8.85601457412e-06
  orientation: 
    x: 1.60459569523e-06
    y: 1.50675232344e-05
    z: 3.3611481736e-06
    w: 0.99999999988
---
header: 
  seq: 100
  stamp: 
    secs: 704
    nsecs: 321000000
  frame_id: "world"
pose: 
  position: 
    x: -4.05176251661e-05
    y: -3.20380568155e-05
    z: 8.85601457412e-06
  orientation: 
    x: 1.60459569523e-06
    y: 1.50675232344e-05
    z: 3.3611481736e-06
    w: 0.99999999988
---
header: 
  seq: 101
  stamp: 
    secs: 704
    nsecs: 647000000
  frame_id: "world"
pose: 
  position: 
    x: 5.10765721629e-06
    y: 3.18146589962e-06
    z: -8.2509168351e-06
  orientation: 
    x: 9.25102881409e-07
    y: 8.93539748857e-08
    z: -1.59528008225e-06
    w: 0.999999999998
---
header: 
  seq: 102
  stamp: 
    secs: 705
    nsecs:  19000000
  frame_id: "world"
pose: 
  position: 
    x: 4.80263588543e-06
    y: 3.44826298715e-06
    z: -8.25466031529e-06
  orientation: 
    x: 1.03529623629e-06
    y: 2.39416294789e-07
    z: -1.65192091117e-06
    w: 0.999999999998
---
header: 
  seq: 103
  stamp: 
    secs: 705
    nsecs: 317000000
  frame_id: "world"
pose: 
  position: 
    x: 4.80263588543e-06
    y: 3.44826298715e-06
    z: -8.25466031529e-06
  orientation: 
    x: 1.03529623629e-06
    y: 2.39416294789e-07
    z: -1.65192091117e-06
    w: 0.999999999998
---
header: 
  seq: 104
  stamp: 
    secs: 705
    nsecs: 663000000
  frame_id: "world"
pose: 
  position: 
    x: 0.00012434576638
    y: 4.41564516223e-05
    z: -4.72942956549e-05
  orientation: 
    x: -9.62941066014e-06
    y: -4.30168910979e-05
    z: -7.06327818285e-06
    w: 0.999999999003
---
header: 
  seq: 105
  stamp: 
    secs: 705
    nsecs: 907000000
  frame_id: "world"
pose: 
  position: 
    x: 5.0107360039e-06
    y: 3.31203045789e-06
    z: -8.2300593931e-06
  orientation: 
    x: 9.75096781984e-07
    y: 1.2823676343e-07
    z: -1.59122225795e-06
    w: 0.999999999998
---
header: 
  seq: 106
  stamp: 
    secs: 706
    nsecs: 162000000
  frame_id: "world"
pose: 
  position: 
    x: 4.83680832986e-06
    y: 3.55196425517e-06
    z: -8.22930269351e-06
  orientation: 
    x: 1.0801653616e-06
    y: 2.297882844e-07
    z: -1.65491235293e-06
    w: 0.999999999998
---
header: 
  seq: 107
  stamp: 
    secs: 706
    nsecs: 396000000
  frame_id: "world"
pose: 
  position: 
    x: 4.88718160341e-06
    y: 3.52415509042e-06
    z: -8.2405986177e-06
  orientation: 
    x: 1.06516756659e-06
    y: 2.02123317194e-07
    z: -1.65885671776e-06
    w: 0.999999999998
---
header: 
  seq: 108
  stamp: 
    secs: 706
    nsecs: 733000000
  frame_id: "world"
pose: 
  position: 
    x: 4.88718160341e-06
    y: 3.52415509042e-06
    z: -8.2405986177e-06
  orientation: 
    x: 1.06516756659e-06
    y: 2.02123317194e-07
    z: -1.65885671776e-06
    w: 0.999999999998
---
header: 
  seq: 109
  stamp: 
    secs: 707
    nsecs: 121000000
  frame_id: "world"
pose: 
  position: 
    x: 0.000124346683151
    y: 4.41797274107e-05
    z: -4.72905849165e-05
  orientation: 
    x: -9.61871500245e-06
    y: -4.30155887014e-05
    z: -7.08384776975e-06
    w: 0.999999999003
---
header: 
  seq: 110
  stamp: 
    secs: 707
    nsecs: 569000000
  frame_id: "world"
pose: 
  position: 
    x: 5.02479451825e-06
    y: 3.22702862832e-06
    z: -8.26130690257e-06
  orientation: 
    x: 9.35222431052e-07
    y: 1.30491031314e-07
    z: -1.58199350153e-06
    w: 0.999999999998
---
header: 
  seq: 111
  stamp: 
    secs: 707
    nsecs: 888000000
  frame_id: "world"
pose: 
  position: 
    x: 5.02479451825e-06
    y: 3.22702862832e-06
    z: -8.26130690257e-06
  orientation: 
    x: 9.35222431052e-07
    y: 1.30491031314e-07
    z: -1.58199350153e-06
    w: 0.999999999998
---
header: 
  seq: 112
  stamp: 
    secs: 708
    nsecs: 143000000
  frame_id: "world"
pose: 
  position: 
    x: 5.02479451825e-06
    y: 3.22702862832e-06
    z: -8.26130690257e-06
  orientation: 
    x: 9.35222431052e-07
    y: 1.30491031314e-07
    z: -1.58199350153e-06
    w: 0.999999999998
---
header: 
  seq: 113
  stamp: 
    secs: 708
    nsecs: 405000000
  frame_id: "world"
pose: 
  position: 
    x: 0.000124147438328
    y: 4.39688155893e-05
    z: -4.75533233839e-05
  orientation: 
    x: -9.74952853482e-06
    y: -4.28790080634e-05
    z: -7.07593198266e-06
    w: 0.999999999008
---
header: 
  seq: 114
  stamp: 
    secs: 708
    nsecs: 668000000
  frame_id: "world"
pose: 
  position: 
    x: -4.02230944019e-05
    y: -3.19972168654e-05
    z: 8.72905457072e-06
  orientation: 
    x: 1.58916509444e-06
    y: 1.49979441613e-05
    z: 3.3302776497e-06
    w: 0.999999999881
---
header: 
  seq: 115
  stamp: 
    secs: 709
    nsecs:   2000000
  frame_id: "world"
pose: 
  position: 
    x: 8.56457263581e-05
    y: 3.00233955386e-06
    z: -4.89014964842e-05
  orientation: 
    x: -2.19516605147e-05
    y: -2.72094639342e-05
    z: -5.60573061751e-06
    w: 0.999999999373
---
header: 
  seq: 116
  stamp: 
    secs: 709
    nsecs: 360000000
  frame_id: "world"
pose: 
  position: 
    x: 5.1034066928e-06
    y: 3.37780556947e-06
    z: -8.22058063932e-06
  orientation: 
    x: 1.0109536106e-06
    y: 9.01844998678e-08
    z: -1.5879206785e-06
    w: 0.999999999998
---
header: 
  seq: 117
  stamp: 
    secs: 709
    nsecs: 708000000
  frame_id: "world"
pose: 
  position: 
    x: 4.88790828967e-06
    y: 3.68751989299e-06
    z: -8.20513832878e-06
  orientation: 
    x: 1.15165664738e-06
    y: 1.9546553176e-07
    z: -1.64472328379e-06
    w: 0.999999999998
---
header: 
  seq: 118
  stamp: 
    secs: 710
    nsecs:  23000000
  frame_id: "world"
pose: 
  position: 
    x: 4.88821751787e-06
    y: 3.84013810617e-06
    z: -8.20201239549e-06
  orientation: 
    x: 1.22222240861e-06
    y: 1.96453015632e-07
    z: -1.63051413437e-06
    w: 0.999999999998
---
header: 
  seq: 119
  stamp: 
    secs: 710
    nsecs: 344000000
  frame_id: "world"
pose: 
  position: 
    x: 4.88033947477e-06
    y: 3.84259374187e-06
    z: -8.20193963591e-06
  orientation: 
    x: 1.22490189369e-06
    y: 1.97716715888e-07
    z: -1.63090123806e-06
    w: 0.999999999998
---
header: 
  seq: 120
  stamp: 
    secs: 710
    nsecs: 631000000
  frame_id: "world"
pose: 
  position: 
    x: 0.000124694837723
    y: 3.83872138627e-05
    z: -5.56804807275e-05
  orientation: 
    x: -1.27182802192e-05
    y: -4.15337562622e-05
    z: -7.96377025059e-06
    w: 0.999999999025
---
header: 
  seq: 121
  stamp: 
    secs: 710
    nsecs: 891000000
  frame_id: "world"
pose: 
  position: 
    x: -2.11928563658e-05
    y: -2.18820732698e-05
    z: 1.40020974868e-05
  orientation: 
    x: 7.72376006306e-06
    y: 7.84890744351e-06
    z: 3.86787178262e-07
    w: 0.999999999939
---
header: 
  seq: 122
  stamp: 
    secs: 711
    nsecs: 233000000
  frame_id: "world"
pose: 
  position: 
    x: -2.13782695937e-05
    y: -2.16857606574e-05
    z: 1.39381718327e-05
  orientation: 
    x: 7.79218043996e-06
    y: 7.93746312362e-06
    z: 4.80437620324e-07
    w: 0.999999999938
---
header: 
  seq: 123
  stamp: 
    secs: 711
    nsecs: 525000000
  frame_id: "world"
pose: 
  position: 
    x: 0.000124680198496
    y: 3.83022197639e-05
    z: -5.58176361665e-05
  orientation: 
    x: -1.27896546349e-05
    y: -4.14994974158e-05
    z: -7.91602450729e-06
    w: 0.999999999026
---
header: 
  seq: 124
  stamp: 
    secs: 711
    nsecs: 873000000
  frame_id: "world"
pose: 
  position: 
    x: 0.000124449608847
    y: 3.83493570553e-05
    z: -5.58111532882e-05
  orientation: 
    x: -1.27586344992e-05
    y: -4.14269743085e-05
    z: -7.90413377359e-06
    w: 0.999999999029
---
header: 
  seq: 125
  stamp: 
    secs: 712
    nsecs: 229000000
  frame_id: "world"
pose: 
  position: 
    x: -2.12821723835e-05
    y: -2.18518962356e-05
    z: 1.40147512866e-05
  orientation: 
    x: 7.7334852899e-06
    y: 7.88126999348e-06
    z: 4.0753161554e-07
    w: 0.999999999939
---
header: 
  seq: 126
  stamp: 
    secs: 712
    nsecs: 641000000
  frame_id: "world"
pose: 
  position: 
    x: 0.00130600447301
    y: -0.0125907324255
    z: -0.000649009947665
  orientation: 
    x: -0.00140674381393
    y: -0.000257041902643
    z: -0.00194543892287
    w: 0.99999708513
---
header: 
  seq: 127
  stamp: 
    secs: 712
    nsecs: 982000000
  frame_id: "world"
pose: 
  position: 
    x: 0.00113991298713
    y: -0.0780857205391
    z: -0.00328158587217
  orientation: 
    x: -0.0162555681032
    y: 0.000326461786731
    z: -0.0107021569916
    w: 0.999810538934
---
header: 
  seq: 128
  stamp: 
    secs: 713
    nsecs: 237000000
  frame_id: "world"
pose: 
  position: 
    x: 0.000806051015388
    y: -0.140267491341
    z: -0.0031878631562
  orientation: 
    x: -0.0283532414971
    y: 0.000579849278541
    z: -0.0202411575787
    w: 0.999392842185
---
header: 
  seq: 129
  stamp: 
    secs: 713
    nsecs: 489000000
  frame_id: "world"
pose: 
  position: 
    x: -0.00180930269477
    y: -0.204866955704
    z: -0.000197470332347
  orientation: 
    x: -0.041653861282
    y: 0.000686298676672
    z: -0.0287764977053
    w: 0.998717376446
---
header: 
  seq: 130
  stamp: 
    secs: 713
    nsecs: 869000000
  frame_id: "world"
pose: 
  position: 
    x: -0.00371112865027
    y: -0.259585287736
    z: 0.0049185347042
  orientation: 
    x: -0.053899209083
    y: 0.000127370208715
    z: -0.0354345651509
    w: 0.997917456822
---
header: 
  seq: 131
  stamp: 
    secs: 714
    nsecs: 246000000
  frame_id: "world"
pose: 
  position: 
    x: -0.00596725799376
    y: -0.280902139915
    z: 0.00755671545559
  orientation: 
    x: -0.0586352847382
    y: 0.000395057027922
    z: -0.0378328129548
    w: 0.997562241455
---
header: 
  seq: 132
  stamp: 
    secs: 714
    nsecs: 644000000
  frame_id: "world"
pose: 
  position: 
    x: -0.00650712905437
    y: -0.288854683879
    z: 0.00874871052405
  orientation: 
    x: -0.060402110689
    y: 0.000336369989264
    z: -0.0386535470331
    w: 0.997425373239
---
header: 
  seq: 133
  stamp: 
    secs: 715
    nsecs: 214000000
  frame_id: "world"
pose: 
  position: 
    x: -0.0053488701965
    y: -0.293797407382
    z: 0.00992809136374
  orientation: 
    x: -0.0617577698635
    y: -0.00033830725725
    z: -0.0391198232475
    w: 0.99732417139
---
header: 
  seq: 134
  stamp: 
    secs: 715
    nsecs: 671000000
  frame_id: "world"
pose: 
  position: 
    x: -0.0053346872479
    y: -0.293999008399
    z: 0.0097184441543
  orientation: 
    x: -0.0616468690031
    y: -0.00032871940618
    z: -0.0391363372891
    w: 0.99733038788
---
header: 
  seq: 135
  stamp: 
    secs: 716
    nsecs:  20000000
  frame_id: "world"
pose: 
  position: 
    x: -0.00517706701808
    y: -0.294046164552
    z: 0.00961900583303
  orientation: 
    x: -0.0616093853397
    y: -0.000365000072256
    z: -0.0391320732148
    w: 0.997332858808
---
header: 
  seq: 136
  stamp: 
    secs: 716
    nsecs: 437000000
  frame_id: "world"
pose: 
  position: 
    x: -0.00503580875351
    y: -0.29414711645
    z: 0.00959144990333
  orientation: 
    x: -0.061542523938
    y: -0.000409282452719
    z: -0.0391646656585
    w: 0.997335690327
---
header: 
  seq: 137
  stamp: 
    secs: 716
    nsecs: 892000000
  frame_id: "world"
pose: 
  position: 
    x: -0.00712682335206
    y: -0.293201512499
    z: 0.00921500586563
  orientation: 
    x: -0.0611647420125
    y: 0.000437477564282
    z: -0.0392024691009
    w: 0.997357433102
---
header: 
  seq: 138
  stamp: 
    secs: 717
    nsecs: 365000000
  frame_id: "world"
pose: 
  position: 
    x: -0.00717647102169
    y: -0.295976191756
    z: 0.00878150915472
  orientation: 
    x: -0.0594636713467
    y: 0.000421379262352
    z: -0.0416353757741
    w: 0.997361714582
---
header: 
  seq: 139
  stamp: 
    secs: 717
    nsecs: 895000000
  frame_id: "world"
pose: 
  position: 
    x: -0.0105959681643
    y: -0.286471900727
    z: 0.0104266328148
  orientation: 
    x: -0.0614346280734
    y: 0.00358359564893
    z: -0.0415318308699
    w: 0.99724021747
---
header: 
  seq: 140
  stamp: 
    secs: 718
    nsecs: 169000000
  frame_id: "world"
pose: 
  position: 
    x: -0.0157698742731
    y: -0.291273827571
    z: 0.0133834443312
  orientation: 
    x: -0.0585446514768
    y: 0.00697879395543
    z: -0.0425499367967
    w: 0.997353158664
---
header: 
  seq: 141
  stamp: 
    secs: 718
    nsecs: 421000000
  frame_id: "world"
pose: 
  position: 
    x: -0.0179688568559
    y: -0.288192827388
    z: 0.0152000396221
  orientation: 
    x: -0.0597563941801
    y: 0.00759998805717
    z: -0.0402880566594
    w: 0.997370686368
---
header: 
  seq: 142
  stamp: 
    secs: 718
    nsecs: 660000000
  frame_id: "world"
pose: 
  position: 
    x: -0.0247330119491
    y: -0.285970058422
    z: 0.0172015117095
  orientation: 
    x: -0.0608251372687
    y: 0.00966061392576
    z: -0.0407183311731
    w: 0.997270772018
---
header: 
  seq: 143
  stamp: 
    secs: 718
    nsecs: 911000000
  frame_id: "world"
pose: 
  position: 
    x: -0.0267458041042
    y: -0.282071469653
    z: 0.0173201581362
  orientation: 
    x: -0.055306677557
    y: 0.0062093761735
    z: -0.0371115978613
    w: 0.997760163751
---
header: 
  seq: 144
  stamp: 
    secs: 719
    nsecs: 358000000
  frame_id: "world"
pose: 
  position: 
    x: -0.0381930965373
    y: -0.281718565445
    z: 0.0215261401802
  orientation: 
    x: -0.056903688418
    y: 0.00363472808996
    z: -0.0376778953428
    w: 0.997661834089
---
header: 
  seq: 145
  stamp: 
    secs: 719
    nsecs: 706000000
  frame_id: "world"
pose: 
  position: 
    x: -0.0387281389923
    y: -0.276035870442
    z: 0.0233631203371
  orientation: 
    x: -0.0595293895295
    y: 0.00150973249371
    z: -0.0368062307348
    w: 0.997546627416
---
header: 
  seq: 146
  stamp: 
    secs: 720
    nsecs:  74000000
  frame_id: "world"
pose: 
  position: 
    x: -0.049700133174
    y: -0.271225038484
    z: 0.0250106266996
  orientation: 
    x: -0.0533379898006
    y: -0.00390222856455
    z: -0.039961547251
    w: 0.997768964339
---
header: 
  seq: 147
  stamp: 
    secs: 720
    nsecs: 600000000
  frame_id: "world"
pose: 
  position: 
    x: -0.0607200476866
    y: -0.266804320901
    z: 0.0284728090825
  orientation: 
    x: -0.0513904209016
    y: -0.00671506452905
    z: -0.0328986019301
    w: 0.998114028826
---
header: 
  seq: 148
  stamp: 
    secs: 720
    nsecs: 853000000
  frame_id: "world"
pose: 
  position: 
    x: -0.0665927681693
    y: -0.261517936512
    z: 0.0290693418432
  orientation: 
    x: -0.0533439293722
    y: -0.0121802215603
    z: -0.0390172819082
    w: 0.997739304184
---
header: 
  seq: 149
  stamp: 
    secs: 721
    nsecs:  99000000
  frame_id: "world"
pose: 
  position: 
    x: -0.0667553937421
    y: -0.259479006638
    z: 0.0299570189726
  orientation: 
    x: -0.047264526266
    y: -0.0110557620083
    z: -0.0309679368875
    w: 0.998341034701
---
header: 
  seq: 150
  stamp: 
    secs: 721
    nsecs: 436000000
  frame_id: "world"
pose: 
  position: 
    x: -0.0699535643531
    y: -0.261463893308
    z: 0.0307009992847
  orientation: 
    x: -0.0534822029887
    y: -0.0125285614022
    z: -0.034511668742
    w: 0.997893598453
---
header: 
  seq: 151
  stamp: 
    secs: 721
    nsecs: 861000000
  frame_id: "world"
pose: 
  position: 
    x: -0.082974754359
    y: -0.253814184897
    z: 0.0317838324394
  orientation: 
    x: -0.0563107549035
    y: -0.0111586457433
    z: -0.035465772196
    w: 0.997720783842
---
header: 
  seq: 152
  stamp: 
    secs: 722
    nsecs: 303000000
  frame_id: "world"
pose: 
  position: 
    x: -0.0905609859977
    y: -0.255429435616
    z: 0.0336027454546
  orientation: 
    x: -0.0527302369708
    y: -0.0126062101052
    z: -0.034041357243
    w: 0.997948792059
---
header: 
  seq: 153
  stamp: 
    secs: 722
    nsecs: 827000000
  frame_id: "world"
pose: 
  position: 
    x: -0.100912861243
    y: -0.250949201828
    z: 0.0355048518388
  orientation: 
    x: -0.0456420673042
    y: -0.0158836628377
    z: -0.0329661793896
    w: 0.99828740449
---
header: 
  seq: 154
  stamp: 
    secs: 723
    nsecs: 184000000
  frame_id: "world"
pose: 
  position: 
    x: -0.107143932609
    y: -0.248002463281
    z: 0.0353398302055
  orientation: 
    x: -0.0515089350488
    y: -0.0167540629257
    z: -0.0369757864471
    w: 0.997847143706
---
header: 
  seq: 155
  stamp: 
    secs: 723
    nsecs: 456000000
  frame_id: "world"
pose: 
  position: 
    x: -0.10947373259
    y: -0.249626238477
    z: 0.0334849193483
  orientation: 
    x: -0.0457937764211
    y: -0.0197533718065
    z: -0.0309288125449
    w: 0.998276586372
---
header: 
  seq: 156
  stamp: 
    secs: 723
    nsecs: 725000000
  frame_id: "world"
pose: 
  position: 
    x: -0.118188820436
    y: -0.252708522151
    z: 0.034844681829
  orientation: 
    x: -0.0499337344727
    y: -0.0217965082754
    z: -0.0316536128104
    w: 0.998012817144
---
header: 
  seq: 157
  stamp: 
    secs: 723
    nsecs: 994000000
  frame_id: "world"
pose: 
  position: 
    x: -0.120070783317
    y: -0.258283997451
    z: 0.0340981008461
  orientation: 
    x: -0.0465166571453
    y: -0.0270920163222
    z: -0.036950720323
    w: 0.997866157121
---
header: 
  seq: 158
  stamp: 
    secs: 724
    nsecs: 435000000
  frame_id: "world"
pose: 
  position: 
    x: -0.136196074706
    y: -0.26512126805
    z: 0.0342362508688
  orientation: 
    x: -0.0525487448717
    y: -0.0312971092043
    z: -0.0340831703446
    w: 0.997545717181
---
header: 
  seq: 159
  stamp: 
    secs: 724
    nsecs: 855000000
  frame_id: "world"
pose: 
  position: 
    x: -0.14425970149
    y: -0.266716782642
    z: 0.030195181852
  orientation: 
    x: -0.0526395549783
    y: -0.0358905437053
    z: -0.0320721905668
    w: 0.997452916541
---
header: 
  seq: 160
  stamp: 
    secs: 725
    nsecs: 335000000
  frame_id: "world"
pose: 
  position: 
    x: -0.160623019495
    y: -0.266361984088
    z: 0.0238828961863
  orientation: 
    x: -0.0586108906678
    y: -0.0420765979703
    z: -0.0355884100654
    w: 0.99675864103
---
header: 
  seq: 161
  stamp: 
    secs: 725
    nsecs: 790000000
  frame_id: "world"
pose: 
  position: 
    x: -0.177745948936
    y: -0.274021404403
    z: 0.0220629474305
  orientation: 
    x: -0.0552120488275
    y: -0.0450552201601
    z: -0.0319926317052
    w: 0.9969443958
---
header: 
  seq: 162
  stamp: 
    secs: 726
    nsecs: 103000000
  frame_id: "world"
pose: 
  position: 
    x: -0.182540739212
    y: -0.274574086314
    z: 0.0198282248187
  orientation: 
    x: -0.0584948852254
    y: -0.0534178193668
    z: -0.0338835043744
    w: 0.996281482869
---
header: 
  seq: 163
  stamp: 
    secs: 726
    nsecs: 362000000
  frame_id: "world"
pose: 
  position: 
    x: -0.186680120053
    y: -0.276676080144
    z: 0.01965136721
  orientation: 
    x: -0.0523980309027
    y: -0.0578636927374
    z: -0.0360958435602
    w: 0.996294800497
---
header: 
  seq: 164
  stamp: 
    secs: 726
    nsecs: 652000000
  frame_id: "world"
pose: 
  position: 
    x: -0.19570550464
    y: -0.280829865398
    z: 0.0185074625714
  orientation: 
    x: -0.0568383491794
    y: -0.0632502157807
    z: -0.0396492144457
    w: 0.995588646008
---
header: 
  seq: 165
  stamp: 
    secs: 727
    nsecs:  89000000
  frame_id: "world"
pose: 
  position: 
    x: -0.204806294146
    y: -0.283924514955
    z: 0.0158851861772
  orientation: 
    x: -0.0585578081866
    y: -0.0610299305332
    z: -0.0341106870315
    w: 0.995832712713
---
header: 
  seq: 166
  stamp: 
    secs: 727
    nsecs: 435000000
  frame_id: "world"
pose: 
  position: 
    x: -0.217368631396
    y: -0.288057254764
    z: 0.0142271321138
  orientation: 
    x: -0.0579751080303
    y: -0.0671094259948
    z: -0.0391565862027
    w: 0.995289894226
---
header: 
  seq: 167
  stamp: 
    secs: 727
    nsecs: 838000000
  frame_id: "world"
pose: 
  position: 
    x: -0.225295755644
    y: -0.288726743481
    z: 0.0116690618548
  orientation: 
    x: -0.0610498702397
    y: -0.0700932594915
    z: -0.0353453467475
    w: 0.995042991423
---
header: 
  seq: 168
  stamp: 
    secs: 728
    nsecs: 271000000
  frame_id: "world"
pose: 
  position: 
    x: -0.22985750806
    y: -0.287544085126
    z: 0.0100053199809
  orientation: 
    x: -0.0586427996229
    y: -0.0715589614176
    z: -0.0329410290743
    w: 0.995165928726
---
header: 
  seq: 169
  stamp: 
    secs: 728
    nsecs: 519000000
  frame_id: "world"
pose: 
  position: 
    x: -0.232148423744
    y: -0.288236395537
    z: 0.00875024378201
  orientation: 
    x: -0.0580273330696
    y: -0.068158908659
    z: -0.0332213978832
    w: 0.995431328877
---
header: 
  seq: 170
  stamp: 
    secs: 728
    nsecs: 778000000
  frame_id: "world"
pose: 
  position: 
    x: -0.237129593089
    y: -0.288656817269
    z: 0.00575713880704
  orientation: 
    x: -0.0623617947874
    y: -0.0675262709593
    z: -0.033740257071
    w: 0.99519485747
---
header: 
  seq: 171
  stamp: 
    secs: 729
    nsecs:  39000000
  frame_id: "world"
pose: 
  position: 
    x: -0.243321280666
    y: -0.290056330118
    z: 0.00592635878656
  orientation: 
    x: -0.0629406745177
    y: -0.0676329996549
    z: -0.0436511202642
    w: 0.994765715407
---
header: 
  seq: 172
  stamp: 
    secs: 729
    nsecs: 311000000
  frame_id: "world"
pose: 
  position: 
    x: -0.246054342462
    y: -0.290229488533
    z: 0.00506376185907
  orientation: 
    x: -0.064094571312
    y: -0.0697028050028
    z: -0.0310635024477
    w: 0.995021840825
---
header: 
  seq: 173
  stamp: 
    secs: 729
    nsecs: 698000000
  frame_id: "world"
pose: 
  position: 
    x: -0.252971242405
    y: -0.290220422754
    z: 0.00426587223654
  orientation: 
    x: -0.0584409314574
    y: -0.0700676605384
    z: -0.0380370706404
    w: 0.995102186579
---
header: 
  seq: 174
  stamp: 
    secs: 730
    nsecs:  82000000
  frame_id: "world"
pose: 
  position: 
    x: -0.261791459752
    y: -0.290335274209
    z: 0.000177089140946
  orientation: 
    x: -0.0673983930803
    y: -0.0679497639672
    z: -0.0333092932254
    w: 0.994852138346
---
header: 
  seq: 175
  stamp: 
    secs: 730
    nsecs: 581000000
  frame_id: "world"
pose: 
  position: 
    x: -0.271149446108
    y: -0.292093518373
    z: -0.00247455295203
  orientation: 
    x: -0.0627756564866
    y: -0.0715600268349
    z: -0.0336400103332
    w: 0.994890310143
---
header: 
  seq: 176
  stamp: 
    secs: 730
    nsecs: 889000000
  frame_id: "world"
pose: 
  position: 
    x: -0.274380644461
    y: -0.289438123071
    z: -0.0055718917532
  orientation: 
    x: -0.0633127534349
    y: -0.0702667264376
    z: -0.0362271018547
    w: 0.994857617702
---
header: 
  seq: 177
  stamp: 
    secs: 731
    nsecs: 162000000
  frame_id: "world"
pose: 
  position: 
    x: -0.280917985791
    y: -0.286886718726
    z: -0.00959625185289
  orientation: 
    x: -0.0580966186525
    y: -0.0677856272807
    z: -0.0378210397614
    w: 0.995288631798
---
header: 
  seq: 178
  stamp: 
    secs: 731
    nsecs: 413000000
  frame_id: "world"
pose: 
  position: 
    x: -0.286292770551
    y: -0.286020717
    z: -0.0107672964877
  orientation: 
    x: -0.0632508457416
    y: -0.0709079720122
    z: -0.0343560717469
    w: 0.994882430417
---
header: 
  seq: 179
  stamp: 
    secs: 731
    nsecs: 688000000
  frame_id: "world"
pose: 
  position: 
    x: -0.295300143183
    y: -0.287508816879
    z: -0.0132628605586
  orientation: 
    x: -0.0579292342642
    y: -0.0707500362639
    z: -0.0358222444252
    w: 0.995166017803
---
header: 
  seq: 180
  stamp: 
    secs: 732
    nsecs: 172000000
  frame_id: "world"
pose: 
  position: 
    x: -0.300361752392
    y: -0.289472302254
    z: -0.0121603512297
  orientation: 
    x: -0.0704373179032
    y: -0.0652625487226
    z: -0.0288081633925
    w: 0.994962046363
---
header: 
  seq: 181
  stamp: 
    secs: 732
    nsecs: 625000000
  frame_id: "world"
pose: 
  position: 
    x: -0.301957750576
    y: -0.289244252704
    z: -0.0128482331158
  orientation: 
    x: -0.0634927924336
    y: -0.0668480857391
    z: -0.0336168929236
    w: 0.995173303125
---
header: 
  seq: 182
  stamp: 
    secs: 732
    nsecs: 907000000
  frame_id: "world"
pose: 
  position: 
    x: -0.302304082383
    y: -0.290362522335
    z: -0.0125420025422
  orientation: 
    x: -0.0639408825209
    y: -0.06431011105
    z: -0.0339697792111
    w: 0.995299868009
---
header: 
  seq: 183
  stamp: 
    secs: 733
    nsecs: 373000000
  frame_id: "world"
pose: 
  position: 
    x: -0.309101172328
    y: -0.296254269902
    z: -0.015303154009
  orientation: 
    x: -0.0653052304278
    y: -0.0568160271096
    z: -0.0356432381979
    w: 0.995608721091
---
header: 
  seq: 184
  stamp: 
    secs: 733
    nsecs: 766000000
  frame_id: "world"
pose: 
  position: 
    x: -0.309413193202
    y: -0.299366154969
    z: -0.0147734053876
  orientation: 
    x: -0.065840465356
    y: -0.0533759015581
    z: -0.0361428388824
    w: 0.99574582171
---
header: 
  seq: 185
  stamp: 
    secs: 734
    nsecs: 266000000
  frame_id: "world"
pose: 
  position: 
    x: -0.314775641442
    y: -0.307741792368
    z: -0.0129873856052
  orientation: 
    x: -0.0681528805049
    y: -0.0476346368306
    z: -0.0374954814509
    w: 0.995831419028
---
header: 
  seq: 186
  stamp: 
    secs: 734
    nsecs: 763000000
  frame_id: "world"
pose: 
  position: 
    x: -0.316688814692
    y: -0.309984811892
    z: -0.0133319659435
  orientation: 
    x: -0.0673740372846
    y: -0.0425901022535
    z: -0.0383413133716
    w: 0.996080702543
---
header: 
  seq: 187
  stamp: 
    secs: 735
    nsecs: 104000000
  frame_id: "world"
pose: 
  position: 
    x: -0.321347204868
    y: -0.313496256802
    z: -0.0131783431254
  orientation: 
    x: -0.06627049668
    y: -0.0370564487618
    z: -0.031993625886
    w: 0.996599944199
---
header: 
  seq: 188
  stamp: 
    secs: 735
    nsecs: 545000000
  frame_id: "world"
pose: 
  position: 
    x: -0.336903310111
    y: -0.320780513447
    z: -0.0147270660894
  orientation: 
    x: -0.0698297382317
    y: -0.0410195727098
    z: -0.041236107136
    w: 0.995861830668
---
header: 
  seq: 189
  stamp: 
    secs: 735
    nsecs: 993000000
  frame_id: "world"
pose: 
  position: 
    x: -0.336192146696
    y: -0.326132609889
    z: -0.0110921777806
  orientation: 
    x: -0.0708384689458
    y: -0.0475525383921
    z: -0.044151095647
    w: 0.99537497867
---
header: 
  seq: 190
  stamp: 
    secs: 736
    nsecs: 242000000
  frame_id: "world"
pose: 
  position: 
    x: -0.342080918652
    y: -0.332623881162
    z: -0.00662000303421
  orientation: 
    x: -0.0689604382874
    y: -0.0540880311036
    z: -0.038669226723
    w: 0.995401242589
---
header: 
  seq: 191
  stamp: 
    secs: 736
    nsecs: 511000000
  frame_id: "world"
pose: 
  position: 
    x: -0.335993820001
    y: -0.338391449727
    z: -0.00595671685782
  orientation: 
    x: -0.075969694392
    y: -0.0568453316094
    z: -0.0428341460508
    w: 0.994566463209
---
header: 
  seq: 192
  stamp: 
    secs: 736
    nsecs: 859000000
  frame_id: "world"
pose: 
  position: 
    x: -0.337184048896
    y: -0.346652547929
    z: -0.00418336492507
  orientation: 
    x: -0.0731108128351
    y: -0.0613211705336
    z: -0.039318480204
    w: 0.994660032476
---
header: 
  seq: 193
  stamp: 
    secs: 737
    nsecs: 224000000
  frame_id: "world"
pose: 
  position: 
    x: -0.34329631946
    y: -0.353091034469
    z: -0.00271674972966
  orientation: 
    x: -0.0729422768577
    y: -0.0677226846047
    z: -0.0489823886884
    w: 0.993827846176
---
header: 
  seq: 194
  stamp: 
    secs: 737
    nsecs: 580000000
  frame_id: "world"
pose: 
  position: 
    x: -0.340280012115
    y: -0.358730292422
    z: 0.00124869531969
  orientation: 
    x: -0.0767700927044
    y: -0.0761863387334
    z: -0.043319228198
    w: 0.9931895283
---
header: 
  seq: 195
  stamp: 
    secs: 737
    nsecs: 963000000
  frame_id: "world"
pose: 
  position: 
    x: -0.34197645776
    y: -0.366401877805
    z: 0.00160374061186
  orientation: 
    x: -0.0763847302419
    y: -0.0760066696173
    z: -0.0487296460102
    w: 0.992982266085
---
header: 
  seq: 196
  stamp: 
    secs: 738
    nsecs: 396000000
  frame_id: "world"
pose: 
  position: 
    x: -0.341837506925
    y: -0.376639713677
    z: 0.00112558255415
  orientation: 
    x: -0.075993334752
    y: -0.0689681297896
    z: -0.0495515841683
    w: 0.993485304699
---
header: 
  seq: 197
  stamp: 
    secs: 738
    nsecs: 906000000
  frame_id: "world"
pose: 
  position: 
    x: -0.334099432991
    y: -0.386687304854
    z: 0.00307532317397
  orientation: 
    x: -0.0874471772056
    y: -0.0643979900027
    z: -0.0465941157833
    w: 0.992992889429
---
header: 
  seq: 198
  stamp: 
    secs: 739
    nsecs: 186000000
  frame_id: "world"
pose: 
  position: 
    x: -0.331867413372
    y: -0.393917497357
    z: 0.00444370674884
  orientation: 
    x: -0.082466391032
    y: -0.0635433920844
    z: -0.051823553603
    w: 0.993214906737
---
header: 
  seq: 199
  stamp: 
    secs: 739
    nsecs: 452000000
  frame_id: "world"
pose: 
  position: 
    x: -0.333706229765
    y: -0.402448277726
    z: 0.0057542154357
  orientation: 
    x: -0.0852853353671
    y: -0.0595015814008
    z: -0.050692852463
    w: 0.993285562208
---
header: 
  seq: 200
  stamp: 
    secs: 739
    nsecs: 718000000
  frame_id: "world"
pose: 
  position: 
    x: -0.334888845203
    y: -0.406746367261
    z: 0.00609117226351
  orientation: 
    x: -0.0830539144769
    y: -0.0594197141035
    z: -0.046218896091
    w: 0.993697719888
---
header: 
  seq: 201
  stamp: 
    secs: 740
    nsecs: 217000000
  frame_id: "world"
pose: 
  position: 
    x: -0.332020740625
    y: -0.419364614255
    z: 0.00639571382733
  orientation: 
    x: -0.0852963267501
    y: -0.0560998857357
    z: -0.0580549874261
    w: 0.993079532514
---
header: 
  seq: 202
  stamp: 
    secs: 740
    nsecs: 670000000
  frame_id: "world"
pose: 
  position: 
    x: -0.329523741825
    y: -0.431732002644
    z: 0.00918700486878
  orientation: 
    x: -0.089571763701
    y: -0.0542652544156
    z: -0.0573878449586
    w: 0.992843802701
---
header: 
  seq: 203
  stamp: 
    secs: 741
    nsecs: 148000000
  frame_id: "world"
pose: 
  position: 
    x: -0.325711199078
    y: -0.443833917601
    z: 0.0119450871551
  orientation: 
    x: -0.0939059011914
    y: -0.0546133121327
    z: -0.0560593508828
    w: 0.99250008415
---
header: 
  seq: 204
  stamp: 
    secs: 741
    nsecs: 591000000
  frame_id: "world"
pose: 
  position: 
    x: -0.326819053947
    y: -0.452365934763
    z: 0.0122678151298
  orientation: 
    x: -0.0932574104312
    y: -0.0514831426839
    z: -0.0579484459706
    w: 0.992620027517
---
header: 
  seq: 205
  stamp: 
    secs: 741
    nsecs: 868000000
  frame_id: "world"
pose: 
  position: 
    x: -0.314839238437
    y: -0.460228290332
    z: 0.0168981918095
  orientation: 
    x: -0.0943487174055
    y: -0.0504681151196
    z: -0.0589723303654
    w: 0.992508716905
---
header: 
  seq: 206
  stamp: 
    secs: 742
    nsecs: 244000000
  frame_id: "world"
pose: 
  position: 
    x: -0.360721833727
    y: -0.453029017902
    z: 0.0372392493753
  orientation: 
    x: -0.0874787153402
    y: -0.0186140238854
    z: -0.0619468165843
    w: 0.994064175188
---
header: 
  seq: 207
  stamp: 
    secs: 742
    nsecs: 760000000
  frame_id: "world"
pose: 
  position: 
    x: -0.348598905856
    y: -0.468589907532
    z: 0.0345997780104
  orientation: 
    x: -0.0917211902319
    y: -0.00525338148557
    z: -0.0668787263307
    w: 0.993522451286
---
header: 
  seq: 208
  stamp: 
    secs: 743
    nsecs: 426000000
  frame_id: "world"
pose: 
  position: 
    x: -0.345981481025
    y: -0.485618260733
    z: 0.0377591856926
  orientation: 
    x: -0.091957503807
    y: 0.0179087086832
    z: -0.0723482833564
    w: 0.992969698199
---
header: 
  seq: 209
  stamp: 
    secs: 743
    nsecs: 928000000
  frame_id: "world"
pose: 
  position: 
    x: -0.346938373154
    y: -0.493844345938
    z: 0.0450067472427
  orientation: 
    x: -0.0904850139086
    y: 0.0368421678697
    z: -0.0764490415467
    w: 0.992275496509
---
header: 
  seq: 210
  stamp: 
    secs: 744
    nsecs: 507000000
  frame_id: "world"
pose: 
  position: 
    x: -0.343037935288
    y: -0.508088382418
    z: 0.0483877220437
  orientation: 
    x: -0.0930888316875
    y: 0.0559225389699
    z: -0.0797125882377
    w: 0.990884979363
---
header: 
  seq: 211
  stamp: 
    secs: 744
    nsecs: 875000000
  frame_id: "world"
pose: 
  position: 
    x: -0.341005338583
    y: -0.510970066391
    z: 0.0514149795295
  orientation: 
    x: -0.10889715104
    y: 0.0549205890724
    z: -0.0784318313698
    w: 0.989430941107
---
header: 
  seq: 212
  stamp: 
    secs: 745
    nsecs: 120000000
  frame_id: "world"
pose: 
  position: 
    x: -0.343420184669
    y: -0.512577377655
    z: 0.0529050721765
  orientation: 
    x: -0.0891648530929
    y: 0.0523108054594
    z: -0.0845183441448
    w: 0.991044831533
---
header: 
  seq: 213
  stamp: 
    secs: 745
    nsecs: 385000000
  frame_id: "world"
pose: 
  position: 
    x: -0.341671136357
    y: -0.513582844476
    z: 0.0575573901164
  orientation: 
    x: -0.0959972889264
    y: 0.0483377927728
    z: -0.0805734132445
    w: 0.990936881636
---
header: 
  seq: 214
  stamp: 
    secs: 745
    nsecs: 649000000
  frame_id: "world"
pose: 
  position: 
    x: -0.336863909796
    y: -0.506924005453
    z: 0.0566572957017
  orientation: 
    x: -0.0913726794306
    y: 0.0500204316614
    z: -0.0772171848568
    w: 0.991557611152
---
header: 
  seq: 215
  stamp: 
    secs: 746
    nsecs:  75000000
  frame_id: "world"
pose: 
  position: 
    x: -0.333641323922
    y: -0.510145628568
    z: 0.0640430871884
  orientation: 
    x: -0.0833546978464
    y: 0.0480122585668
    z: -0.0832277065685
    w: 0.991876991483
---
header: 
  seq: 216
  stamp: 
    secs: 746
    nsecs: 512000000
  frame_id: "world"
pose: 
  position: 
    x: -0.33157518684
    y: -0.510052327011
    z: 0.0728352308102
  orientation: 
    x: -0.0888449516385
    y: 0.0452750651297
    z: -0.0810087928273
    w: 0.991712820594
---
header: 
  seq: 217
  stamp: 
    secs: 746
    nsecs: 852000000
  frame_id: "world"
pose: 
  position: 
    x: -0.32987621191
    y: -0.511011500677
    z: 0.078032674125
  orientation: 
    x: -0.0829991017957
    y: 0.0401133595918
    z: -0.0830372114696
    w: 0.992273595837
---
header: 
  seq: 218
  stamp: 
    secs: 747
    nsecs: 384000000
  frame_id: "world"
pose: 
  position: 
    x: -0.327872675753
    y: -0.512966028329
    z: 0.0870318306103
  orientation: 
    x: -0.0897701574117
    y: 0.0338724349883
    z: -0.0815948770321
    w: 0.992036417189
---
header: 
  seq: 219
  stamp: 
    secs: 747
    nsecs: 653000000
  frame_id: "world"
pose: 
  position: 
    x: -0.325504362587
    y: -0.513613803701
    z: 0.0913455266603
  orientation: 
    x: -0.0962566442071
    y: 0.0314058499418
    z: -0.0823563058126
    w: 0.99144630209
---
header: 
  seq: 220
  stamp: 
    secs: 747
    nsecs: 911000000
  frame_id: "world"
pose: 
  position: 
    x: -0.326125292005
    y: -0.515832186193
    z: 0.0952261539213
  orientation: 
    x: -0.0863008323749
    y: 0.0285169106561
    z: -0.0802509902687
    w: 0.992622149007
---
header: 
  seq: 221
  stamp: 
    secs: 748
    nsecs: 175000000
  frame_id: "world"
pose: 
  position: 
    x: -0.324655645007
    y: -0.515996963298
    z: 0.100568910151
  orientation: 
    x: -0.0927890826694
    y: 0.0266431367256
    z: -0.081893018965
    w: 0.991954566927
---
header: 
  seq: 222
  stamp: 
    secs: 748
    nsecs: 551000000
  frame_id: "world"
pose: 
  position: 
    x: -0.321427910565
    y: -0.51675938361
    z: 0.107256273462
  orientation: 
    x: -0.0957395569108
    y: 0.023975854008
    z: -0.0835180446147
    w: 0.991606692137
---
header: 
  seq: 223
  stamp: 
    secs: 748
    nsecs: 852000000
  frame_id: "world"
pose: 
  position: 
    x: -0.321337196168
    y: -0.520053736219
    z: 0.113780571718
  orientation: 
    x: -0.0877675096073
    y: 0.021137102322
    z: -0.0818314436424
    w: 0.992549092989
---
header: 
  seq: 224
  stamp: 
    secs: 749
    nsecs: 221000000
  frame_id: "world"
pose: 
  position: 
    x: -0.318314243724
    y: -0.519766280093
    z: 0.120043000909
  orientation: 
    x: -0.0909036072768
    y: 0.0203804009016
    z: -0.083633110523
    w: 0.992132388478
---
header: 
  seq: 225
  stamp: 
    secs: 749
    nsecs: 700000000
  frame_id: "world"
pose: 
  position: 
    x: -0.314029057897
    y: -0.521512900968
    z: 0.127950185382
  orientation: 
    x: -0.0888048111396
    y: 0.0164729241654
    z: -0.0847768615608
    w: 0.992297955269
---
header: 
  seq: 226
  stamp: 
    secs: 750
    nsecs: 121000000
  frame_id: "world"
pose: 
  position: 
    x: -0.313862563663
    y: -0.52172617816
    z: 0.133241030071
  orientation: 
    x: -0.0862068334973
    y: 0.0109669505474
    z: -0.079085926387
    w: 0.993072768785
---
header: 
  seq: 227
  stamp: 
    secs: 750
    nsecs: 391000000
  frame_id: "world"
pose: 
  position: 
    x: -0.313696202689
    y: -0.520916431852
    z: 0.136801950886
  orientation: 
    x: -0.0948860138133
    y: 0.00528083101833
    z: -0.0834996827752
    w: 0.991966007574
---
header: 
  seq: 228
  stamp: 
    secs: 750
    nsecs: 654000000
  frame_id: "world"
pose: 
  position: 
    x: -0.313358285592
    y: -0.520047378322
    z: 0.140162964966
  orientation: 
    x: -0.0928583820421
    y: 0.0039706039319
    z: -0.0791153247586
    w: 0.992523209087
---
header: 
  seq: 229
  stamp: 
    secs: 750
    nsecs: 928000000
  frame_id: "world"
pose: 
  position: 
    x: -0.312601182373
    y: -0.519007868165
    z: 0.141850824068
  orientation: 
    x: -0.0986763415472
    y: -0.00224123364323
    z: -0.0853881433665
    w: 0.991446832393
---
header: 
  seq: 230
  stamp: 
    secs: 751
    nsecs: 341000000
  frame_id: "world"
pose: 
  position: 
    x: -0.301049183209
    y: -0.515895696652
    z: 0.152076589491
  orientation: 
    x: -0.0953273858338
    y: -0.0120569683968
    z: -0.0766528692193
    w: 0.992417077979
---
header: 
  seq: 231
  stamp: 
    secs: 751
    nsecs: 817000000
  frame_id: "world"
pose: 
  position: 
    x: -0.301124136973
    y: -0.517173120786
    z: 0.154491327235
  orientation: 
    x: -0.091456868169
    y: -0.0252951454976
    z: -0.078793894741
    w: 0.992364509155
---
header: 
  seq: 232
  stamp: 
    secs: 752
    nsecs: 492000000
  frame_id: "world"
pose: 
  position: 
    x: -0.295596940434
    y: -0.517598063605
    z: 0.164218419027
  orientation: 
    x: -0.0954669624153
    y: -0.0343623211692
    z: -0.0815938415447
    w: 0.991487637337
---
header: 
  seq: 233
  stamp: 
    secs: 752
    nsecs: 751000000
  frame_id: "world"
pose: 
  position: 
    x: -0.29346843381
    y: -0.518318447493
    z: 0.169744800765
  orientation: 
    x: -0.0994014490826
    y: -0.032629605427
    z: -0.0759728460951
    w: 0.991606165484
---
header: 
  seq: 234
  stamp: 
    secs: 753
    nsecs:  22000000
  frame_id: "world"
pose: 
  position: 
    x: -0.292756754953
    y: -0.518293628018
    z: 0.171006836172
  orientation: 
    x: -0.0936681592357
    y: -0.0359004835325
    z: -0.071827244462
    w: 0.992359953938
---
header: 
  seq: 235
  stamp: 
    secs: 753
    nsecs: 276000000
  frame_id: "world"
pose: 
  position: 
    x: -0.288749686284
    y: -0.516584967487
    z: 0.176773161651
  orientation: 
    x: -0.095214566235
    y: -0.045168256375
    z: -0.0752306146955
    w: 0.991581751347
---
header: 
  seq: 236
  stamp: 
    secs: 753
    nsecs: 643000000
  frame_id: "world"
pose: 
  position: 
    x: -0.28271066033
    y: -0.514771954546
    z: 0.182843494454
  orientation: 
    x: -0.0960019765023
    y: -0.048864645735
    z: -0.0807107716524
    w: 0.990899408741
---
header: 
  seq: 237
  stamp: 
    secs: 754
    nsecs:  49000000
  frame_id: "world"
pose: 
  position: 
    x: -0.281356521067
    y: -0.51542883852
    z: 0.185530207076
  orientation: 
    x: -0.102257459201
    y: -0.0535809544522
    z: -0.0737448665981
    w: 0.990572656602
---
header: 
  seq: 238
  stamp: 
    secs: 754
    nsecs: 506000000
  frame_id: "world"
pose: 
  position: 
    x: -0.278641979347
    y: -0.514853090793
    z: 0.192228902305
  orientation: 
    x: -0.098937659146
    y: -0.054355544608
    z: -0.0782809211786
    w: 0.990519516089
---
header: 
  seq: 239
  stamp: 
    secs: 754
    nsecs: 982000000
  frame_id: "world"
pose: 
  position: 
    x: -0.276959747018
    y: -0.517194877154
    z: 0.194479381231
  orientation: 
    x: -0.0962528402033
    y: -0.055071299159
    z: -0.0771630406153
    w: 0.990832179496
---
header: 
  seq: 240
  stamp: 
    secs: 755
    nsecs: 254000000
  frame_id: "world"
pose: 
  position: 
    x: -0.274239259362
    y: -0.515566115046
    z: 0.199598350089
  orientation: 
    x: -0.0997530931245
    y: -0.0600687493329
    z: -0.0785168811264
    w: 0.990088968297
---
header: 
  seq: 241
  stamp: 
    secs: 755
    nsecs: 535000000
  frame_id: "world"
pose: 
  position: 
    x: -0.280233172511
    y: -0.514914388179
    z: 0.200237861563
  orientation: 
    x: -0.100450787018
    y: -0.0627723443998
    z: -0.0735551793276
    w: 0.990231744472
---
header: 
  seq: 242
  stamp: 
    secs: 755
    nsecs: 790000000
  frame_id: "world"
pose: 
  position: 
    x: -0.279359801746
    y: -0.513418150395
    z: 0.203438139748
  orientation: 
    x: -0.101628331053
    y: -0.0663000159763
    z: -0.0764477054252
    w: 0.989662436664
---
header: 
  seq: 243
  stamp: 
    secs: 756
    nsecs: 252000000
  frame_id: "world"
pose: 
  position: 
    x: -0.280426326245
    y: -0.511226314597
    z: 0.207986257974
  orientation: 
    x: -0.0975674269787
    y: -0.0685981150614
    z: -0.069438606747
    w: 0.990430803083
---
header: 
  seq: 244
  stamp: 
    secs: 756
    nsecs: 666000000
  frame_id: "world"
pose: 
  position: 
    x: -0.280935496511
    y: -0.511636114393
    z: 0.211897435211
  orientation: 
    x: -0.0998186134208
    y: -0.0728602031579
    z: -0.0714287825346
    w: 0.989760356973
---
header: 
  seq: 245
  stamp: 
    secs: 757
    nsecs:  88000000
  frame_id: "world"
pose: 
  position: 
    x: -0.280248386284
    y: -0.509751398955
    z: 0.217109190455
  orientation: 
    x: -0.102685901054
    y: -0.0811806803387
    z: -0.0739354829867
    w: 0.988634840181
---
header: 
  seq: 246
  stamp: 
    secs: 757
    nsecs: 486000000
  frame_id: "world"
pose: 
  position: 
    x: -0.288208921044
    y: -0.512469244378
    z: 0.215221747982
  orientation: 
    x: -0.0996458419952
    y: -0.0853564634423
    z: -0.0730236819528
    w: 0.988661985815
---
header: 
  seq: 247
  stamp: 
    secs: 757
    nsecs: 761000000
  frame_id: "world"
pose: 
  position: 
    x: -0.2864115889
    y: -0.511220322408
    z: 0.221216061075
  orientation: 
    x: -0.103518314047
    y: -0.091109474321
    z: -0.074661167861
    w: 0.987627830896
---
header: 
  seq: 248
  stamp: 
    secs: 758
    nsecs:  24000000
  frame_id: "world"
pose: 
  position: 
    x: -0.287690921526
    y: -0.512408105986
    z: 0.22501193755
  orientation: 
    x: -0.100479699899
    y: -0.0933863747324
    z: -0.0709624488372
    w: 0.988001591991
---
header: 
  seq: 249
  stamp: 
    secs: 758
    nsecs: 444000000
  frame_id: "world"
pose: 
  position: 
    x: -0.289008347831
    y: -0.512831037006
    z: 0.230129924688
  orientation: 
    x: -0.109062866508
    y: -0.0960127049181
    z: -0.0700794274973
    w: 0.986902085055
---
header: 
  seq: 250
  stamp: 
    secs: 758
    nsecs: 773000000
  frame_id: "world"
pose: 
  position: 
    x: -0.292617652213
    y: -0.51390403957
    z: 0.233004208609
  orientation: 
    x: -0.0976666673747
    y: -0.0976208517943
    z: -0.0744394384766
    w: 0.987618429039
---
header: 
  seq: 251
  stamp: 
    secs: 759
    nsecs: 165000000
  frame_id: "world"
pose: 
  position: 
    x: -0.292757280654
    y: -0.512076911591
    z: 0.238730327381
  orientation: 
    x: -0.104878433888
    y: -0.100003123783
    z: -0.0684283913667
    w: 0.987075197031
---
header: 
  seq: 252
  stamp: 
    secs: 759
    nsecs: 609000000
  frame_id: "world"
pose: 
  position: 
    x: -0.295944479638
    y: -0.511909150785
    z: 0.243289162697
  orientation: 
    x: -0.103796840042
    y: -0.10404108053
    z: -0.0708605852421
    w: 0.986600449533
---
header: 
  seq: 253
  stamp: 
    secs: 759
    nsecs: 969000000
  frame_id: "world"
pose: 
  position: 
    x: -0.292353031165
    y: -0.510793620858
    z: 0.249068827209
  orientation: 
    x: -0.103955600197
    y: -0.109676835442
    z: -0.0702508338321
    w: 0.98601675711
---
header: 
  seq: 254
  stamp: 
    secs: 760
    nsecs: 569000000
  frame_id: "world"
pose: 
  position: 
    x: -0.29339187757
    y: -0.508692657222
    z: 0.256406938491
  orientation: 
    x: -0.104335674599
    y: -0.115493774082
    z: -0.0696156884761
    w: 0.985357250479
---
header: 
  seq: 255
  stamp: 
    secs: 760
    nsecs: 974000000
  frame_id: "world"
pose: 
  position: 
    x: -0.293614227141
    y: -0.507890067213
    z: 0.261159247656
  orientation: 
    x: -0.104758283259
    y: -0.120071251176
    z: -0.0692546905949
    w: 0.984790528265
---
header: 
  seq: 256
  stamp: 
    secs: 761
    nsecs: 335000000
  frame_id: "world"
pose: 
  position: 
    x: -0.293637459691
    y: -0.50681825565
    z: 0.265869390302
  orientation: 
    x: -0.105062705229
    y: -0.124129902285
    z: -0.0687392559771
    w: 0.984290866572
---
header: 
  seq: 257
  stamp: 
    secs: 761
    nsecs: 671000000
  frame_id: "world"
pose: 
  position: 
    x: -0.291931864754
    y: -0.505285974036
    z: 0.271066505379
  orientation: 
    x: -0.1052829141
    y: -0.128749258809
    z: -0.0678687069886
    w: 0.983734199348
---
header: 
  seq: 258
  stamp: 
    secs: 762
    nsecs:  43000000
  frame_id: "world"
pose: 
  position: 
    x: -0.293819562617
    y: -0.506699148554
    z: 0.272485103986
  orientation: 
    x: -0.0983897644491
    y: -0.130565219278
    z: -0.0648100263748
    w: 0.984414464668
---
header: 
  seq: 259
  stamp: 
    secs: 762
    nsecs: 400000000
  frame_id: "world"
pose: 
  position: 
    x: -0.289183541636
    y: -0.50863551559
    z: 0.274970924779
  orientation: 
    x: -0.098495635317
    y: -0.133501546921
    z: -0.0684885741254
    w: 0.983760774786
---
header: 
  seq: 260
  stamp: 
    secs: 762
    nsecs: 789000000
  frame_id: "world"
pose: 
  position: 
    x: -0.289528184925
    y: -0.510363494609
    z: 0.275043099959
  orientation: 
    x: -0.107391882876
    y: -0.138859346462
    z: -0.0642133588703
    w: 0.982375544247
---
header: 
