%time,field.header.seq,field.header.stamp,field.header.frame_id,field.pose.position.x,field.pose.position.y,field.pose.position.z,field.pose.orientation.x,field.pose.orientation.y,field.pose.orientation.z,field.pose.orientation.w
1301546000000,64173,1301546000000,map,-1.48935922532e-05,-2.53893606217e-05,0.0399999991374,1.05867205427e-11,-7.50125137165e-12,-4.20339638418e-05,0.999999999117
1301556000000,64174,1301556000000,map,-1.65325343154e-05,-2.53890471597e-05,0.039996101972,-5.21458692658e-09,-2.04866935254e-05,-4.20345825243e-05,0.999999998907
1301566000000,64175,1301566000000,map,-1.25165422926e-05,-2.53905384096e-05,0.0399940583314,3.35049571387e-09,2.97045406567e-05,-4.20355322517e-05,0.999999998675
1301576000000,64176,1301576000000,map,-1.4892995759e-05,-2.53904323149e-05,0.0399999991374,1.05867338919e-11,-7.50125347907e-12,-4.20364767496e-05,0.999999999116
1301586000000,64177,1301586000000,map,-1.65319378212e-05,-2.53901188447e-05,0.039996101972,-5.21463835989e-09,-2.04866935254e-05,-4.2037095432e-05,0.999999998907
1301596000000,64178,1301596000000,map,-1.25159457985e-05,-2.53916101147e-05,0.0399940583314,3.35057034936e-09,2.97045406567e-05,-4.20380451594e-05,0.999999998675
1301606000000,64179,1301606000000,map,-1.48923992649e-05,-2.53915040081e-05,0.0399999991374,1.05867229831e-11,-7.50124900674e-12,-4.20389896572e-05,0.999999999116
1301616000000,64180,1301616000000,map,-1.65313413271e-05,-2.53911905297e-05,0.039996101972,-5.21468981074e-09,-2.04866935254e-05,-4.20396083396e-05,0.999999998906
1301626000000,64181,1301626000000,map,-1.25153493043e-05,-2.53926818199e-05,0.0399940583314,3.35064497184e-09,2.97045406567e-05,-4.20405580669e-05,0.999999998675
1301636000000,64182,1301636000000,map,-1.48918027707e-05,-2.53925757013e-05,0.0399999991374,1.05867222031e-11,-7.50125737542e-12,-4.20415025647e-05,0.999999999116
1301646000000,64183,1301646000000,map,-1.65307448329e-05,-2.53922622146e-05,0.039996101972,-5.21474126617e-09,-2.04866935254e-05,-4.20421212471e-05,0.999999998906
1301656000000,64184,1301656000000,map,-1.25147528102e-05,-2.5393753525e-05,0.0399940583314,3.35071960912e-09,2.97045406568e-05,-4.20430709744e-05,0.999999998675
1301666000000,64185,1301666000000,map,-1.48912062766e-05,-2.53936473945e-05,0.0399999991374,1.05867274173e-11,-7.50126240002e-12,-4.20440154721e-05,0.999999999116
1301676000000,64186,1301676000000,map,-1.65301483388e-05,-2.53933338996e-05,0.039996101972,-5.2147927006e-09,-2.04866935254e-05,-4.20446341544e-05,0.999999998906
1301686000000,64187,1301686000000,map,-1.2514156316e-05,-2.53948252302e-05,0.0399940583314,3.3507942335e-09,2.97045406568e-05,-4.20455838817e-05,0.999999998675
1301696000000,64188,1301696000000,map,-1.48906097824e-05,-2.53947190878e-05,0.0399999991374,1.0586725835e-11,-7.50124575413e-12,-4.20465283794e-05,0.999999999116
1301706000000,64189,1301706000000,map,-1.65295518446e-05,-2.53944055846e-05,0.039996101972,-5.21484415732e-09,-2.04866935254e-05,-4.20471470617e-05,0.999999998906
1301716000000,64190,1301716000000,map,-1.25135598218e-05,-2.53958969354e-05,0.0399940583314,3.35086886323e-09,2.97045406568e-05,-4.20480967889e-05,0.999999998675
1301726000000,64191,1301726000000,map,-1.48900132882e-05,-2.5395790781e-05,0.0399999991374,1.05867298047e-11,-7.50124231179e-12,-4.20490412866e-05,0.999999999116
1301736000000,64192,1301736000000,map,-1.65289553504e-05,-2.53954772696e-05,0.039996101972,-5.2148956023e-09,-2.04866935253e-05,-4.20496599688e-05,0.999999998906
1301746000000,64193,1301746000000,map,-1.25129633277e-05,-2.53969686405e-05,0.0399940583314,3.35094348408e-09,2.97045406568e-05,-4.2050609696e-05,0.999999998675
1301756000000,64194,1301756000000,map,-1.48894167941e-05,-2.53968624742e-05,0.0399999991374,1.05867149133e-11,-7.50126557131e-12,-4.20515541937e-05,0.999999999116
1301766000000,64195,1301766000000,map,-1.65283588563e-05,-2.53965489546e-05,0.039996101972,-5.21494706525e-09,-2.04866935253e-05,-4.20521728758e-05,0.999999998906
1301776000000,64196,1301776000000,map,-1.25123668335e-05,-2.53980403457e-05,0.0399940583314,3.3510181056e-09,2.97045406568e-05,-4.2053122603e-05,0.999999998675
1301786000000,64197,1301786000000,map,-1.48888202999e-05,-2.53979341674e-05,0.0399999991374,1.05867311902e-11,-7.50125542386e-12,-4.20540671006e-05,0.999999999116
1301796000000,64198,1301796000000,map,-1.65277623621e-05,-2.53976206396e-05,0.039996101972,-5.21499850729e-09,-2.04866935253e-05,-4.20546857827e-05,0.999999998906
1301806000000,64199,1301806000000,map,-1.25117703394e-05,-2.53991120509e-05,0.0399940583314,3.35109273206e-09,2.97045406569e-05,-4.20556355099e-05,0.999999998674
1301816000000,64200,1301816000000,map,-1.48882238058e-05,-2.53990058607e-05,0.0399999991374,1.05867320702e-11,-7.50124996897e-12,-4.20565800075e-05,0.999999999116
1301826000000,64201,1301826000000,map,-1.6527165868e-05,-2.53986923246e-05,0.039996101972,-5.21504995759e-09,-2.04866935253e-05,-4.20571986895e-05,0.999999998906
1301836000000,64202,1301836000000,map,-1.25111738452e-05,-2.54001837561e-05,0.0399940583314,3.35116736328e-09,2.97045406569e-05,-4.20581484166e-05,0.999999998674
1301846000000,64203,1301846000000,map,-1.48876273116e-05,-2.54000775539e-05,0.0399999991374,1.05867311018e-11,-7.50125351973e-12,-4.20590929142e-05,0.999999999116
1301856000000,64204,1301856000000,map,-1.65265693738e-05,-2.53997640096e-05,0.039996101972,-5.21510140306e-09,-2.04866935253e-05,-4.20597115962e-05,0.999999998906
1301866000000,64205,1301866000000,map,-1.2510577351e-05,-2.54012554612e-05,0.0399940583314,3.35124199723e-09,2.97045406569e-05,-4.20606613233e-05,0.999999998674
1301876000000,64206,1301876000000,map,-1.48870308175e-05,-2.54011492472e-05,0.0399999991374,1.0586731209e-11,-7.50124874246e-12,-4.20616058208e-05,0.999999999115
1301886000000,64207,1301886000000,map,-1.65259728796e-05,-2.54008356946e-05,0.039996101972,-5.21515284998e-09,-2.04866935253e-05,-4.20622245028e-05,0.999999998906
1301896000000,64208,1301896000000,map,-1.25099808569e-05,-2.54023271664e-05,0.0399940583314,3.35131661867e-09,2.97045406569e-05,-4.20631742298e-05,0.999999998674
1301906000000,64209,1301906000000,map,-1.48864343233e-05,-2.54022209404e-05,0.0399999991374,1.05867269874e-11,-7.5012665166e-12,-4.20641187273e-05,0.999999999115
1301916000000,64210,1301916000000,map,-1.65253763855e-05,-2.54019073796e-05,0.039996101972,-5.21520429947e-09,-2.04866935253e-05,-4.20647374093e-05,0.999999998905
1301926000000,64211,1301926000000,map,-1.25093843627e-05,-2.54033988716e-05,0.0399940583314,3.35139124858e-09,2.9704540657e-05,-4.20656871363e-05,0.999999998674
1301936000000,64212,1301936000000,map,-1.48858378291e-05,-2.54032926337e-05,0.0399999991374,1.05867327833e-11,-7.50124657745e-12,-4.20666316337e-05,0.999999999115
1301946000000,64213,1301946000000,map,-1.65247798913e-05,-2.54029790647e-05,0.039996101972,-5.21525575731e-09,-2.04866935252e-05,-4.20672503156e-05,0.999999998905
1301956000000,64214,1301956000000,map,-1.25087878686e-05,-2.54044705768e-05,0.0399940583314,3.35146588759e-09,2.97045406569e-05,-4.20682000426e-05,0.999999998674
1301966000000,64215,1301966000000,map,-1.4885241335e-05,-2.54043643269e-05,0.0399999991374,1.05867268882e-11,-7.50125560343e-12,-4.206914454e-05,0.999999999115
1301976000000,64216,1301976000000,map,-1.65241833971e-05,-2.54040507497e-05,0.039996101972,-5.21530719338e-09,-2.04866935253e-05,-4.20697632218e-05,0.999999998905
1301986000000,64217,1301986000000,map,-1.25081913744e-05,-2.5405542282e-05,0.0399940583314,3.35154050363e-09,2.9704540657e-05,-4.20707129488e-05,0.999999998674
1301996000000,64218,1301996000000,map,-1.48846448408e-05,-2.54054360202e-05,0.0399999991374,1.05867263561e-11,-7.50125949639e-12,-4.20716574461e-05,0.999999999115
1302006000000,64219,1302006000000,map,-1.6523586903e-05,-2.54051224347e-05,0.039996101972,-5.21535864071e-09,-2.04866935252e-05,-4.2072276128e-05,0.999999998905
1302016000000,64220,1302016000000,map,-1.25075948802e-05,-2.54066139872e-05,0.0399940583314,3.35161512981e-09,2.9704540657e-05,-4.20732258548e-05,0.999999998674
1302026000000,64221,1302026000000,map,-1.48840483466e-05,-2.54065077134e-05,0.0399999991374,1.05867311951e-11,-7.50125039926e-12,-4.20741703522e-05,0.999999999115
1302036000000,64222,1302036000000,map,-1.65229904088e-05,-2.54061941197e-05,0.039996101972,-5.21541010372e-09,-2.04866935252e-05,-4.2074789034e-05,0.999999998905
1302046000000,64223,1302046000000,map,-1.25069983861e-05,-2.54076856924e-05,0.0399940583314,3.35168976786e-09,2.9704540657e-05,-4.20757387608e-05,0.999999998674
1302056000000,64224,1302056000000,map,-1.48834518525e-05,-2.54075794067e-05,0.0399999991374,1.05867332276e-11,-7.50124943025e-12,-4.20766832581e-05,0.999999999115
1302066000000,64225,1302066000000,map,-1.65223939146e-05,-2.54072658048e-05,0.039996101972,-5.21546153216e-09,-2.04866935252e-05,-4.20773019399e-05,0.999999998905
1302076000000,64226,1302076000000,map,-1.25064018919e-05,-2.54087573977e-05,0.0399940583314,3.35176439188e-09,2.97045406571e-05,-4.20782516667e-05,0.999999998674
1302086000000,64227,1302086000000,map,-1.48828553583e-05,-2.54086511e-05,0.0399999991374,1.05867178787e-11,-7.50127743994e-12,-4.20791961639e-05,0.999999999115
1302096000000,64228,1302096000000,map,-1.65217974205e-05,-2.54083374898e-05,0.039996101972,-5.2155129924e-09,-2.04866935252e-05,-4.20798148456e-05,0.999999998905
1302106000000,64229,1302106000000,map,-1.25058053977e-05,-2.54098291029e-05,0.0399940583314,3.35183901852e-09,2.97045406571e-05,-4.20807645724e-05,0.999999998673
1302116000000,64230,1302116000000,map,-1.48822588641e-05,-2.54097227933e-05,0.0399999991374,1.05867171313e-11,-7.50125797512e-12,-4.20817090696e-05,0.999999999115
1302126000000,64231,1302126000000,map,-1.65212009263e-05,-2.54094091749e-05,0.039996101972,-5.21556445094e-09,-2.04866935251e-05,-4.20823277513e-05,0.999999998905
1302136000000,64232,1302136000000,map,-1.25052089036e-05,-2.54109008081e-05,0.0399940583314,3.35191364198e-09,2.9704540657e-05,-4.20832774781e-05,0.999999998673
1302146000000,64233,1302146000000,map,-1.488166237e-05,-2.54107944865e-05,0.0399999991374,1.05867244515e-11,-7.50125711115e-12,-4.20842219752e-05,0.999999999114
1302156000000,64234,1302156000000,map,-1.65206044321e-05,-2.54104808599e-05,0.039996101972,-5.21561589277e-09,-2.04866935251e-05,-4.20848406569e-05,0.999999998905
1302166000000,64235,1302166000000,map,-1.25046124094e-05,-2.54119725133e-05,0.0399940583314,3.35198828103e-09,2.97045406571e-05,-4.20857903836e-05,0.999999998673
1302176000000,64236,1302176000000,map,-1.48810658758e-05,-2.54118661798e-05,0.0399999991374,1.05867378665e-11,-7.50124848496e-12,-4.20867348807e-05,0.999999999114
1302186000000,64237,1302186000000,map,-1.6520007938e-05,-2.5411552545e-05,0.039996101972,-5.21566732759e-09,-2.04866935251e-05,-4.20873535623e-05,0.999999998904
1302196000000,64238,1302196000000,map,-1.25040159152e-05,-2.54130442186e-05,0.0399940583314,3.35206289634e-09,2.97045406571e-05,-4.2088303289e-05,0.999999998673
1302206000000,64239,1302206000000,map,-1.48804693816e-05,-2.54129378731e-05,0.0399999991374,1.05867214283e-11,-7.50124760066e-12,-4.20892477861e-05,0.999999999114
1302216000000,64240,1302216000000,map,-1.65194114438e-05,-2.541262423e-05,0.039996101972,-5.21571877499e-09,-2.04866935251e-05,-4.20898664676e-05,0.999999998904
1302226000000,64241,1302226000000,map,-1.25034194211e-05,-2.54141159238e-05,0.0399940583314,3.35213753729e-09,2.97045406572e-05,-4.20908161943e-05,0.999999998673
1302236000000,64242,1302236000000,map,-1.48798728875e-05,-2.54140095664e-05,0.0399999991374,1.05867272466e-11,-7.50125653855e-12,-4.20917606913e-05,0.999999999114
1302246000000,64243,1302246000000,map,-1.65188149496e-05,-2.54136959151e-05,0.039996101972,-5.21577023387e-09,-2.0486693525e-05,-4.20923793729e-05,0.999999998904
1302256000000,64244,1302256000000,map,-1.25028229269e-05,-2.5415187629e-05,0.0399940583314,3.35221216568e-09,2.97045406571e-05,-4.20933290995e-05,0.999999998673
1302266000000,64245,1302266000000,map,-1.48792763933e-05,-2.54150812597e-05,0.0399999991374,1.0586726424e-11,-7.50124191199e-12,-4.20942735965e-05,0.999999999114
1302276000000,64246,1302276000000,map,-1.65182184554e-05,-2.54147676001e-05,0.039996101972,-5.21582168603e-09,-2.04866935251e-05,-4.2094892278e-05,0.999999998904
1302286000000,64247,1302286000000,map,-1.25022264327e-05,-2.54162593343e-05,0.0399940583314,3.35228679557e-09,2.97045406572e-05,-4.20958420045e-05,0.999999998673
1302296000000,64248,1302296000000,map,-1.48786798991e-05,-2.5416152953e-05,0.0399999991374,1.05867299085e-11,-7.50125930327e-12,-4.20967865015e-05,0.999999999114
1302306000000,64249,1302306000000,map,-1.65176219613e-05,-2.54158392852e-05,0.039996101972,-5.21587312285e-09,-2.04866935251e-05,-4.20974051829e-05,0.999999998904
1302316000000,64250,1302316000000,map,-1.25016299385e-05,-2.54173310395e-05,0.0399940583314,3.35236142442e-09,2.97045406572e-05,-4.20983549095e-05,0.999999998673
1302326000000,64251,1302326000000,map,-1.4878083405e-05,-2.54172246463e-05,0.0399999991374,1.05867296146e-11,-7.50125230339e-12,-4.20992994064e-05,0.999999999114
1302336000000,64252,1302336000000,map,-1.65170254671e-05,-2.54169109703e-05,0.039996101972,-5.21592457672e-09,-2.0486693525e-05,-4.20999180878e-05,0.999999998904
1302346000000,64253,1302346000000,map,-1.25010334444e-05,-2.54184027448e-05,0.0399940583314,3.35243605334e-09,2.97045406572e-05,-4.21008678143e-05,0.999999998673
1302356000000,64254,1302356000000,map,-1.48774869108e-05,-2.54182963396e-05,0.0399999991374,1.05867189445e-11,-7.50126522911e-12,-4.21018123112e-05,0.999999999114
1302366000000,64255,1302366000000,map,-1.65164289729e-05,-2.54179826554e-05,0.039996101972,-5.21597601259e-09,-2.0486693525e-05,-4.21024309926e-05,0.999999998904
1302376000000,64256,1302376000000,map,-1.25004369502e-05,-2.541947445e-05,0.0399940583314,3.35251067022e-09,2.97045406572e-05,-4.2103380719e-05,0.999999998672
1302386000000,64257,1302386000000,map,-1.48768904166e-05,-2.54193680329e-05,0.0399999991374,1.05867190841e-11,-7.50126124806e-12,-4.21043252159e-05,0.999999999114
1302396000000,64258,1302396000000,map,-1.65158324787e-05,-2.54190543405e-05,0.039996101972,-5.21602747866e-09,-2.0486693525e-05,-4.21049438972e-05,0.999999998904
1302406000000,64259,1302406000000,map,-1.2499840456e-05,-2.54205461553e-05,0.0399940583314,3.3525852948e-09,2.97045406573e-05,-4.21058936237e-05,0.999999998672
1302416000000,64260,1302416000000,map,-1.48762939224e-05,-2.54204397263e-05,0.0399999991374,1.05867265865e-11,-7.50126013675e-12,-4.21068381205e-05,0.999999999114
1302426000000,64261,1302426000000,map,-1.65152359846e-05,-2.54201260255e-05,0.039996101972,-5.21607891365e-09,-2.0486693525e-05,-4.21074568018e-05,0.999999998904
1302436000000,64262,1302436000000,map,-1.24992439619e-05,-2.54216178605e-05,0.0399940583314,3.3526599374e-09,2.97045406573e-05,-4.21084065282e-05,0.999999998672
1302446000000,64263,1302446000000,map,-1.48756974283e-05,-2.54215114196e-05,0.0399999991374,1.05867293256e-11,-7.50125255072e-12,-4.21093510249e-05,0.999999999113
1302456000000,64264,1302456000000,map,-1.65146394904e-05,-2.54211977106e-05,0.039996101972,-5.21613036374e-09,-2.0486693525e-05,-4.21099697062e-05,0.999999998904
1302466000000,64265,1302466000000,map,-1.24986474677e-05,-2.54226895658e-05,0.0399940583314,3.35273455404e-09,2.97045406573e-05,-4.21109194326e-05,0.999999998672
1302476000000,64266,1302476000000,map,-1.48751009341e-05,-2.54225831129e-05,0.0399999991374,1.05867222091e-11,-7.50126314541e-12,-4.21118639293e-05,0.999999999113
1302486000000,64267,1302486000000,map,-1.65140429962e-05,-2.54222693957e-05,0.039996101972,-5.21618180753e-09,-2.0486693525e-05,-4.21124826105e-05,0.999999998903
1302496000000,64268,1302496000000,map,-1.24980509735e-05,-2.54237612711e-05,0.0399940583314,3.35280919104e-09,2.97045406573e-05,-4.21134323368e-05,0.999999998672
1302506000000,64269,1302506000000,map,-1.48745044399e-05,-2.54236548062e-05,0.0399999991374,1.05867150172e-11,-7.50125796157e-12,-4.21143768335e-05,0.999999999113
1302516000000,64270,1302516000000,map,-1.6513446502e-05,-2.54233410808e-05,0.039996101972,-5.21623326951e-09,-2.04866935249e-05,-4.21149955147e-05,0.999999998903
1302526000000,64271,1302526000000,map,-1.24974544793e-05,-2.54248329764e-05,0.0399940583314,3.35288381716e-09,2.97045406573e-05,-4.2115945241e-05,0.999999998672
1302536000000,64272,1302536000000,map,-1.48739079457e-05,-2.54247264996e-05,0.0399999991374,1.05867189072e-11,-7.50125260832e-12,-4.21168897376e-05,0.999999999113
1302546000000,64273,1302546000000,map,-1.65128500078e-05,-2.54244127659e-05,0.039996101972,-5.21628472115e-09,-2.04866935249e-05,-4.21175084188e-05,0.999999998903
1302556000000,64274,1302556000000,map,-1.24968579851e-05,-2.54259046816e-05,0.0399940583314,3.35295844602e-09,2.97045406573e-05,-4.2118458145e-05,0.999999998672
1302566000000,64275,1302566000000,map,-1.48733114516e-05,-2.54257981929e-05,0.0399999991374,1.05867290237e-11,-7.50126155638e-12,-4.21194026417e-05,0.999999999113
1302576000000,64276,1302576000000,map,-1.65122535137e-05,-2.5425484451e-05,0.039996101972,-5.21633617381e-09,-2.04866935249e-05,-4.21200213228e-05,0.999999998903
1302586000000,64277,1302586000000,map,-1.2496261491e-05,-2.54269763869e-05,0.0399940583314,3.35303307845e-09,2.97045406574e-05,-4.2120971049e-05,0.999999998672
1302596000000,64278,1302596000000,map,-1.48727149574e-05,-2.54268698863e-05,0.0399999991374,1.05867176198e-11,-7.50126439224e-12,-4.21219155455e-05,0.999999999113
1302606000000,64279,1302606000000,map,-1.65116570195e-05,-2.54265561361e-05,0.039996101972,-5.21638760163e-09,-2.04866935249e-05,-4.21225342266e-05,0.999999998903
1302616000000,64280,1302616000000,map,-1.24956649968e-05,-2.54280480922e-05,0.0399940583314,3.35310769738e-09,2.97045406574e-05,-4.21234839528e-05,0.999999998672
1302626000000,64281,1302626000000,map,-1.48721184632e-05,-2.54279415796e-05,0.0399999991374,1.05867334753e-11,-7.50124574058e-12,-4.21244284493e-05,0.999999999113
1302636000000,64282,1302636000000,map,-1.65110605253e-05,-2.54276278213e-05,0.039996101972,-5.21643906708e-09,-2.04866935249e-05,-4.21250471304e-05,0.999999998903
1302646000000,64283,1302646000000,map,-1.24950685026e-05,-2.54291197975e-05,0.0399940583314,3.35318233294e-09,2.97045406574e-05,-4.21259968565e-05,0.999999998672
1302656000000,64284,1302656000000,map,-1.4871521969e-05,-2.5429013273e-05,0.0399999991374,1.05867196126e-11,-7.50126680459e-12,-4.2126941353e-05,0.999999999113
1302666000000,64285,1302666000000,map,-1.65104640311e-05,-2.54286995064e-05,0.039996101972,-5.21649051384e-09,-2.04866935249e-05,-4.2127560034e-05,0.999999998903
1302676000000,64286,1302676000000,map,-1.24944720084e-05,-2.54301915028e-05,0.0399940583314,3.3532569597e-09,2.97045406574e-05,-4.21285097601e-05,0.999999998671
1302686000000,64287,1302686000000,map,-1.48709254748e-05,-2.54300849663e-05,0.0399999991374,1.05867201662e-11,-7.50126178338e-12,-4.21294542566e-05,0.999999999113
1302696000000,64288,1302696000000,map,-1.65098675369e-05,-2.54297711915e-05,0.039996101972,-5.21654195778e-09,-2.04866935248e-05,-4.21300729375e-05,0.999999998903
1302706000000,64289,1302706000000,map,-1.24938755142e-05,-2.54312632081e-05,0.0399940583314,3.35333159239e-09,2.97045406574e-05,-4.21310226636e-05,0.999999998671
1302716000000,64290,1302716000000,map,-1.48703289807e-05,-2.54311566597e-05,0.0399999991374,1.05867187786e-11,-7.50125945912e-12,-4.213196716e-05,0.999999999112
1302726000000,64291,1302726000000,map,-1.65092710428e-05,-2.54308428766e-05,0.039996101972,-5.21659341041e-09,-2.04866935249e-05,-4.21325858409e-05,0.999999998903
1302736000000,64292,1302736000000,map,-1.24932790201e-05,-2.54323349134e-05,0.0399940583314,3.35340621995e-09,2.97045406574e-05,-4.2133535567e-05,0.999999998671
1302746000000,64293,1302746000000,map,-1.48697324865e-05,-2.5432228353e-05,0.0399999991374,1.05867201705e-11,-7.50127404503e-12,-4.21344800633e-05,0.999999999112
1302756000000,64294,1302756000000,map,-1.65086745486e-05,-2.54319145618e-05,0.039996101972,-5.21664484633e-09,-2.04866935248e-05,-4.21350987442e-05,0.999999998902
1302766000000,64295,1302766000000,map,-1.24926825259e-05,-2.54334066187e-05,0.0399940583314,3.35348084064e-09,2.97045406575e-05,-4.21360484702e-05,0.999999998671
1302776000000,64296,1302776000000,map,-1.48691359923e-05,-2.54333000464e-05,0.0399999991374,1.05867385842e-11,-7.50125604727e-12,-4.21369929666e-05,0.999999999112
1302786000000,64297,1302786000000,map,-1.65080780544e-05,-2.54329862469e-05,0.039996101972,-5.21669630859e-09,-2.04866935248e-05,-4.21376116474e-05,0.999999998902
1302796000000,64298,1302796000000,map,-1.24920860317e-05,-2.5434478324e-05,0.0399940583314,3.35355546043e-09,2.97045406574e-05,-4.21385613734e-05,0.999999998671
1302806000000,64299,1302806000000,map,-1.48685394981e-05,-2.54343717398e-05,0.0399999991374,1.05867244475e-11,-7.50124674685e-12,-4.21395058697e-05,0.999999999112
1302816000000,64300,1302816000000,map,-1.65074815602e-05,-2.5434057932e-05,0.039996101972,-5.21674775574e-09,-2.04866935248e-05,-4.21401245505e-05,0.999999998902
1302826000000,64301,1302826000000,map,-1.24914895375e-05,-2.54355500294e-05,0.0399940583314,3.35363010544e-09,2.97045406575e-05,-4.21410742764e-05,0.999999998671
1302836000000,64302,1302836000000,map,-1.48679430039e-05,-2.54354434332e-05,0.0399999991374,1.05867243316e-11,-7.50125691464e-12,-4.21420187727e-05,0.999999999112
1302846000000,64303,1302846000000,map,-1.6506885066e-05,-2.54351296172e-05,0.039996101972,-5.21679919412e-09,-2.04866935247e-05,-4.21426374534e-05,0.999999998902
1302856000000,64304,1302856000000,map,-1.24908930433e-05,-2.54366217347e-05,0.0399940583314,3.35370472454e-09,2.97045406575e-05,-4.21435871793e-05,0.999999998671
1302866000000,64305,1302866000000,map,-1.48673465097e-05,-2.54365151265e-05,0.0399999991374,1.058671911e-11,-7.50125509182e-12,-4.21445316755e-05,0.999999999112
1302876000000,64306,1302876000000,map,-1.65062885718e-05,-2.54362013023e-05,0.039996101972,-5.21685065067e-09,-2.04866935247e-05,-4.21451503563e-05,0.999999998902
1302886000000,64307,1302886000000,map,-1.24902965491e-05,-2.543769344e-05,0.0399940583314,3.35377935801e-09,2.97045406575e-05,-4.21461000821e-05,0.999999998671
1302896000000,64308,1302896000000,map,-1.48667500155e-05,-2.54375868199e-05,0.0399999991374,1.05867209426e-11,-7.50125994701e-12,-4.21470445783e-05,0.999999999112
1302906000000,64309,1302906000000,map,-1.65056920776e-05,-2.54372729875e-05,0.039996101972,-5.216902093e-09,-2.04866935247e-05,-4.2147663259e-05,0.999999998902
1302916000000,64310,1302916000000,map,-1.24897000549e-05,-2.54387651453e-05,0.0399940583314,3.35385399068e-09,2.97045406575e-05,-4.21486129848e-05,0.999999998671
1302926000000,64311,1302926000000,map,-1.48661535213e-05,-2.54386585133e-05,0.0399999991374,1.05867329807e-11,-7.50125021969e-12,-4.2149557481e-05,0.999999999112
1302936000000,64312,1302936000000,map,-1.65050955834e-05,-2.54383446727e-05,0.039996101972,-5.21695354891e-09,-2.04866935247e-05,-4.21501761616e-05,0.999999998902
1302946000000,64313,1302946000000,map,-1.24891035608e-05,-2.54398368507e-05,0.0399940583314,3.35392860705e-09,2.97045406575e-05,-4.21511258874e-05,0.99999999867
1302956000000,64314,1302956000000,map,-1.48655570272e-05,-2.54397302067e-05,0.0399999991374,1.05867236065e-11,-7.50126946428e-12,-4.21520703835e-05,0.999999999112
1302966000000,64315,1302966000000,map,-1.65044990892e-05,-2.54394163578e-05,0.039996101972,-5.21700498723e-09,-2.04866935247e-05,-4.21526890641e-05,0.999999998902
1302976000000,64316,1302976000000,map,-1.24885070666e-05,-2.5440908556e-05,0.0399940583314,3.35400323076e-09,2.97045406576e-05,-4.21536387898e-05,0.99999999867
1302986000000,64317,1302986000000,map,-1.4864960533e-05,-2.54408019001e-05,0.0399999991374,1.0586731396e-11,-7.50124853917e-12,-4.21545832859e-05,0.999999999111
1302996000000,64318,1302996000000,map,-1.6503902595e-05,-2.5440488043e-05,0.039996101972,-5.21705644254e-09,-2.04866935247e-05,-4.21552019665e-05,0.999999998902
1303006000000,64319,1303006000000,map,-1.24879105724e-05,-2.54419802614e-05,0.0399940583314,3.35407785697e-09,2.97045406576e-05,-4.21561516922e-05,0.99999999867
1303016000000,64320,1303016000000,map,-1.48643640388e-05,-2.54418735935e-05,0.0399999991374,1.05867280358e-11,-7.50125552211e-12,-4.21570961882e-05,0.999999999111
1303026000000,64321,1303026000000,map,-1.65033061008e-05,-2.54415597281e-05,0.039996101972,-5.21710788288e-09,-2.04866935247e-05,-4.21577148688e-05,0.999999998902
1303036000000,64322,1303036000000,map,-1.24873140782e-05,-2.54430519667e-05,0.0399940583314,3.35415249742e-09,2.97045406576e-05,-4.21586645944e-05,0.99999999867
1303046000000,64323,1303046000000,map,-1.48637675446e-05,-2.54429452869e-05,0.0399999991374,1.0586719532e-11,-7.5012600927e-12,-4.21596090904e-05,0.999999999111
1303056000000,64324,1303056000000,map,-1.65027096066e-05,-2.54426314133e-05,0.039996101972,-5.21715934192e-09,-2.04866935247e-05,-4.21602277709e-05,0.999999998901
1303066000000,64325,1303066000000,map,-1.2486717584e-05,-2.54441236721e-05,0.0399940583314,3.35422712499e-09,2.97045406576e-05,-4.21611774966e-05,0.99999999867
1303076000000,64326,1303076000000,map,-1.48631710504e-05,-2.54440169803e-05,0.0399999991374,1.05867267478e-11,-7.501255268e-12,-4.21621219925e-05,0.999999999111
1303086000000,64327,1303086000000,map,-1.65021131125e-05,-2.54437030985e-05,0.039996101972,-5.21721078394e-09,-2.04866935246e-05,-4.2162740673e-05,0.999999998901
1303096000000,64328,1303096000000,map,-1.24861210898e-05,-2.54451953774e-05,0.0399940583314,3.35430174906e-09,2.97045406577e-05,-4.21636903986e-05,0.99999999867
1303106000000,64329,1303106000000,map,-1.48625745562e-05,-2.54450886738e-05,0.0399999991374,1.05867209342e-11,-7.50125457005e-12,-4.21646348945e-05,0.999999999111
1303116000000,64330,1303116000000,map,-1.65015166183e-05,-2.54447747837e-05,0.039996101972,-5.21726224211e-09,-2.04866935246e-05,-4.21652535749e-05,0.999999998901
1303126000000,64331,1303126000000,map,-1.24855245956e-05,-2.54462670828e-05,0.0399940583314,3.35437637747e-09,2.97045406577e-05,-4.21662033005e-05,0.99999999867
1303136000000,64332,1303136000000,map,-1.4861978062e-05,-2.54461603672e-05,0.0399999991374,1.05867353239e-11,-7.50124593709e-12,-4.21671477964e-05,0.999999999111
1303146000000,64333,1303146000000,map,-1.65009201241e-05,-2.54458464689e-05,0.039996101972,-5.21731369003e-09,-2.04866935246e-05,-4.21677664767e-05,0.999999998901
1303156000000,64334,1303156000000,map,-1.24849281014e-05,-2.54473387881e-05,0.0399940583314,3.35445100169e-09,2.97045406576e-05,-4.21687162023e-05,0.99999999867
1303166000000,64335,1303166000000,map,-1.48613815678e-05,-2.54472320606e-05,0.0399999991374,1.05867336365e-11,-7.50124849513e-12,-4.21696606981e-05,0.999999999111
1303176000000,64336,1303176000000,map,-1.65003236299e-05,-2.54469181541e-05,0.039996101972,-5.21736513235e-09,-2.04866935246e-05,-4.21702793784e-05,0.999999998901
1303186000000,64337,1303186000000,map,-1.24843316072e-05,-2.54484104935e-05,0.0399940583314,3.35452562667e-09,2.97045406577e-05,-4.21712291039e-05,0.99999999867
1303196000000,64338,1303196000000,map,-1.48607850736e-05,-2.5448303754e-05,0.0399999991374,1.0586717709e-11,-7.50126668262e-12,-4.21721735997e-05,0.999999999111
1303206000000,64339,1303206000000,map,-1.64997271357e-05,-2.54479898393e-05,0.039996101972,-5.21741658808e-09,-2.04866935246e-05,-4.217279228e-05,0.999999998901
1303216000000,64340,1303216000000,map,-1.2483735113e-05,-2.54494821989e-05,0.0399940583314,3.35460027084e-09,2.97045406577e-05,-4.21737420055e-05,0.99999999867
1303226000000,64341,1303226000000,map,-1.48601885794e-05,-2.54493754475e-05,0.0399999991374,1.05867284593e-11,-7.50126903398e-12,-4.21746865013e-05,0.999999999111
1303236000000,64342,1303236000000,map,-1.64991306415e-05,-2.54490615245e-05,0.039996101972,-5.21746802685e-09,-2.04866935245e-05,-4.21753051815e-05,0.999999998901
1303246000000,64343,1303246000000,map,-1.24831386188e-05,-2.54505539043e-05,0.0399940583314,3.35467488216e-09,2.97045406577e-05,-4.21762549069e-05,0.999999998669
1303256000000,64344,1303256000000,map,-1.48595920852e-05,-2.54504471409e-05,0.0399999991374,1.05867197154e-11,-7.50125773795e-12,-4.21771994027e-05,0.999999999111
1303266000000,64345,1303266000000,map,-1.64985341473e-05,-2.54501332097e-05,0.039996101972,-5.2175194893e-09,-2.04866935246e-05,-4.21778180829e-05,0.999999998901
1303276000000,64346,1303276000000,map,-1.24825421246e-05,-2.54516256096e-05,0.0399940583314,3.35474951708e-09,2.97045406577e-05,-4.21787678083e-05,0.999999998669
1303286000000,64347,1303286000000,map,-1.4858995591e-05,-2.54515188343e-05,0.0399999991374,1.0586716566e-11,-7.50126580848e-12,-4.2179712304e-05,0.99999999911
1303296000000,64348,1303296000000,map,-1.64979376531e-05,-2.54512048949e-05,0.039996101972,-5.2175709232e-09,-2.04866935245e-05,-4.21803309841e-05,0.999999998901
1303306000000,64349,1303306000000,map,-1.24819456304e-05,-2.5452697315e-05,0.0399940583314,3.35482414774e-09,2.97045406578e-05,-4.21812807095e-05,0.999999998669
1303316000000,64350,1303316000000,map,-1.48583990968e-05,-2.54525905278e-05,0.0399999991374,1.05867238352e-11,-7.50125622007e-12,-4.21822252051e-05,0.99999999911
1303326000000,64351,1303326000000,map,-1.64973411589e-05,-2.54522765801e-05,0.039996101972,-5.21762237988e-09,-2.04866935245e-05,-4.21828438853e-05,0.9999999989
1303336000000,64352,1303336000000,map,-1.24813491362e-05,-2.54537690204e-05,0.0399940583314,3.35489877309e-09,2.97045406578e-05,-4.21837936106e-05,0.999999998669
1303346000000,64353,1303346000000,map,-1.48578026026e-05,-2.54536622212e-05,0.0399999991374,1.05867321e-11,-7.50125945912e-12,-4.21847381062e-05,0.99999999911
1303356000000,64354,1303356000000,map,-1.64967446647e-05,-2.54533482653e-05,0.039996101972,-5.21767382232e-09,-2.04866935245e-05,-4.21853567863e-05,0.9999999989
1303366000000,64355,1303366000000,map,-1.2480752642e-05,-2.54548407258e-05,0.0399940583314,3.35497340306e-09,2.97045406578e-05,-4.21863065116e-05,0.999999998669
1303376000000,64356,1303376000000,map,-1.48572061084e-05,-2.54547339147e-05,0.0399999991374,1.05867285232e-11,-7.50126204427e-12,-4.21872510072e-05,0.99999999911
1303386000000,64357,1303386000000,map,-1.64961481705e-05,-2.54544199505e-05,0.039996101972,-5.217725271e-09,-2.04866935245e-05,-4.21878696872e-05,0.9999999989
1303396000000,64358,1303396000000,map,-1.24801561478e-05,-2.54559124312e-05,0.0399940583314,3.35504802541e-09,2.97045406578e-05,-4.21888194125e-05,0.999999998669
1303406000000,64359,1303406000000,map,-1.48566096142e-05,-2.54558056081e-05,0.0399999991374,1.05867361092e-11,-7.5012461065e-12,-4.2189763908e-05,0.99999999911
1303416000000,64360,1303416000000,map,-1.64955516763e-05,-2.54554916357e-05,0.039996101972,-5.21777671746e-09,-2.04866935245e-05,-4.2190382588e-05,0.9999999989
1303426000000,64361,1303426000000,map,-1.24795596536e-05,-2.54569841366e-05,0.0399940583314,3.35512265492e-09,2.97045406578e-05,-4.21913323133e-05,0.999999998669
1303436000000,64362,1303436000000,map,-1.485601312e-05,-2.54568773016e-05,0.0399999991374,1.05867218662e-11,-7.50126851221e-12,-4.21922768087e-05,0.99999999911
1303446000000,64363,1303446000000,map,-1.64949551821e-05,-2.5456563321e-05,0.039996101972,-5.21782816083e-09,-2.04866935244e-05,-4.21928954887e-05,0.9999999989
1303456000000,64364,1303456000000,map,-1.24789631594e-05,-2.5458055842e-05,0.0399940583314,3.35519728353e-09,2.97045406578e-05,-4.21938452139e-05,0.999999998669
1303466000000,64365,1303466000000,map,-1.48554166258e-05,-2.54579489951e-05,0.0399999991374,1.05867255079e-11,-7.50125014854e-12,-4.21947897094e-05,0.99999999911
1303476000000,64366,1303476000000,map,-1.64943586878e-05,-2.54576350062e-05,0.039996101972,-5.21787960658e-09,-2.04866935244e-05,-4.21954083893e-05,0.9999999989
1303486000000,64367,1303486000000,map,-1.24783666652e-05,-2.54591275474e-05,0.0399940583314,3.3552719135e-09,2.97045406579e-05,-4.21963581145e-05,0.999999998669
1303496000000,64368,1303496000000,map,-1.48548201316e-05,-2.54590206885e-05,0.0399999991374,1.05867220087e-11,-7.50125642675e-12,-4.21973026099e-05,0.99999999911
1303506000000,64369,1303506000000,map,-1.64937621936e-05,-2.54587066914e-05,0.039996101972,-5.21793105989e-09,-2.04866935244e-05,-4.21979212898e-05,0.9999999989
1303516000000,64370,1303516000000,map,-1.2477770171e-05,-2.54601992528e-05,0.0399940583314,3.35534655147e-09,2.97045406579e-05,-4.21988710149e-05,0.999999998668
1303526000000,64371,1303526000000,map,-1.48542236374e-05,-2.5460092382e-05,0.0399999991374,1.05867305121e-11,-7.50126023501e-12,-4.21998155103e-05,0.99999999911
1303536000000,64372,1303536000000,map,-1.64931656994e-05,-2.54597783767e-05,0.039996101972,-5.21798251124e-09,-2.04866935244e-05,-4.22004341901e-05,0.9999999989
1303546000000,64373,1303546000000,map,-1.24771736768e-05,-2.54612709582e-05,0.0399940583314,3.35542116767e-09,2.97045406579e-05,-4.22013839152e-05,0.999999998668
1303556000000,64374,1303556000000,map,-1.48536271432e-05,-2.54611640755e-05,0.0399999991374,1.05867213608e-11,-7.50124678073e-12,-4.22023284105e-05,0.999999999109
1303566000000,64375,1303566000000,map,-1.64925692052e-05,-2.54608500619e-05,0.039996101972,-5.21803396334e-09,-2.04866935244e-05,-4.22029470903e-05,0.9999999989
1303576000000,64376,1303576000000,map,-1.24765771826e-05,-2.54623426637e-05,0.0399940583314,3.3554957998e-09,2.97045406579e-05,-4.22038968154e-05,0.999999998668
1303586000000,64377,1303586000000,map,-1.4853030649e-05,-2.5462235769e-05,0.0399999991374,1.05867253381e-11,-7.50125245924e-12,-4.22048413107e-05,0.999999999109
1303596000000,64378,1303596000000,map,-1.6491972711e-05,-2.54619217472e-05,0.039996101972,-5.21808541196e-09,-2.04866935244e-05,-4.22054599905e-05,0.999999998899
1303606000000,64379,1303606000000,map,-1.24759806884e-05,-2.54634143691e-05,0.0399940583314,3.35557042629e-09,2.97045406579e-05,-4.22064097155e-05,0.999999998668
1303616000000,64380,1303616000000,map,-1.48524341548e-05,-2.54633074624e-05,0.0399999991374,1.05867210654e-11,-7.5012654595e-12,-4.22073542107e-05,0.999999999109
1303626000000,64381,1303626000000,map,-1.64913762168e-05,-2.54629934324e-05,0.039996101972,-5.21813686563e-09,-2.04866935244e-05,-4.22079728905e-05,0.999999998899
1303636000000,64382,1303636000000,map,-1.24753841942e-05,-2.54644860745e-05,0.0399940583314,3.35564506178e-09,2.97045406579e-05,-4.22089226155e-05,0.999999998668
1303646000000,64383,1303646000000,map,-1.48518376606e-05,-2.54643791559e-05,0.0399999991374,1.05867211337e-11,-7.50124786832e-12,-4.22098671107e-05,0.999999999109
1303656000000,64384,1303656000000,map,-1.64907797226e-05,-2.54640651177e-05,0.039996101972,-5.21818830499e-09,-2.04866935244e-05,-4.22104857904e-05,0.999999998899
1303666000000,64385,1303666000000,map,-1.24747877e-05,-2.546555778e-05,0.0399940583314,3.3557196823e-09,2.97045406579e-05,-4.22114355153e-05,0.999999998668
1303676000000,64386,1303676000000,map,-1.48512411664e-05,-2.54654508494e-05,0.0399999991374,1.05867185803e-11,-7.50126742123e-12,-4.22123800105e-05,0.999999999109
1303686000000,64387,1303686000000,map,-1.64901832284e-05,-2.54651368029e-05,0.039996101972,-5.21823976229e-09,-2.04866935243e-05,-4.22129986902e-05,0.999999998899
1303696000000,64388,1303696000000,map,-1.24741912058e-05,-2.54666294854e-05,0.0399940583314,3.35579431271e-09,2.9704540658e-05,-4.22139484151e-05,0.999999998668
1303706000000,64389,1303706000000,map,-1.48506446722e-05,-2.54665225429e-05,0.0399999991374,1.05867174861e-11,-7.5012565826e-12,-4.22148929102e-05,0.999999999109
1303716000000,64390,1303716000000,map,-1.64895867342e-05,-2.54662084882e-05,0.039996101972,-5.21829120337e-09,-2.04866935243e-05,-4.22155115898e-05,0.999999998899
1303726000000,64391,1303726000000,map,-1.24735947116e-05,-2.54677011908e-05,0.0399940583314,3.3558689374e-09,2.9704540658e-05,-4.22164613147e-05,0.999999998668
1303736000000,64392,1303736000000,map,-1.4850048178e-05,-2.54675942364e-05,0.0399999991374,1.0586730412e-11,-7.50126062803e-12,-4.22174058098e-05,0.999999999109
1303746000000,64393,1303746000000,map,-1.648899024e-05,-2.54672801735e-05,0.039996101972,-5.21834265245e-09,-2.04866935243e-05,-4.22180244894e-05,0.999999998899
1303756000000,64394,1303756000000,map,-1.24729982174e-05,-2.54687728963e-05,0.0399940583314,3.35594356428e-09,2.9704540658e-05,-4.22189742142e-05,0.999999998668
1303766000000,64395,1303766000000,map,-1.48494516838e-05,-2.54686659299e-05,0.0399999991374,1.05867186919e-11,-7.50126568312e-12,-4.22199187093e-05,0.999999999109
1303776000000,64396,1303776000000,map,-1.64883937458e-05,-2.54683518588e-05,0.039996101972,-5.21839410147e-09,-2.04866935243e-05,-4.22205373888e-05,0.999999998899
1303786000000,64397,1303786000000,map,-1.24724017232e-05,-2.54698446017e-05,0.0399940583314,3.35601818296e-09,2.9704540658e-05,-4.22214871137e-05,0.999999998667
1303796000000,64398,1303796000000,map,-1.48488551896e-05,-2.54697376234e-05,0.0399999991374,1.05867255288e-11,-7.50126199006e-12,-4.22224316087e-05,0.999999999109
1303806000000,64399,1303806000000,map,-1.64877972516e-05,-2.5469423544e-05,0.039996101972,-5.21844554523e-09,-2.04866935243e-05,-4.22230502882e-05,0.999999998899
1303816000000,64400,1303816000000,map,-1.2471805229e-05,-2.54709163072e-05,0.0399940583314,3.35609282414e-09,2.9704540658e-05,-4.2224000013e-05,0.999999998667
1303826000000,64401,1303826000000,map,-1.48482586954e-05,-2.5470809317e-05,0.0399999991374,1.05867125842e-11,-7.50126839024e-12,-4.22249445079e-05,0.999999999109
1303836000000,64402,1303836000000,map,-1.64872007573e-05,-2.54704952293e-05,0.039996101972,-5.21849699454e-09,-2.04866935243e-05,-4.22255631874e-05,0.999999998899
1303846000000,64403,1303846000000,map,-1.24712087348e-05,-2.54719880127e-05,0.0399940583314,3.35616744513e-09,2.97045406581e-05,-4.22265129121e-05,0.999999998667
1303856000000,64404,1303856000000,map,-1.48476622012e-05,-2.54718810105e-05,0.0399999991374,1.05867257041e-11,-7.50125460054e-12,-4.22274574071e-05,0.999999999108
1303866000000,64405,1303866000000,map,-1.64866042631e-05,-2.54715669146e-05,0.039996101972,-5.21854845435e-09,-2.04866935242e-05,-4.22280760865e-05,0.999999998899
1303876000000,64406,1303876000000,map,-1.24706122405e-05,-2.54730597181e-05,0.0399940583314,3.35624207916e-09,2.97045406581e-05,-4.22290258112e-05,0.999999998667
1303886000000,64407,1303886000000,map,-1.48470657069e-05,-2.5472952704e-05,0.0399999991374,1.05867175033e-11,-7.50126882731e-12,-4.22299703061e-05,0.999999999108
1303896000000,64408,1303896000000,map,-1.64860077689e-05,-2.54726385999e-05,0.039996101972,-5.2185998965e-09,-2.04866935242e-05,-4.22305889855e-05,0.999999998898
1303906000000,64409,1303906000000,map,-1.24700157463e-05,-2.54741314236e-05,0.0399940583314,3.35631670022e-09,2.97045406581e-05,-4.22315387102e-05,0.999999998667
1303916000000,64410,1303916000000,map,-1.48464692127e-05,-2.54740243975e-05,0.0399999991374,1.0586725484e-11,-7.50125236776e-12,-4.2232483205e-05,0.999999999108
1303926000000,64411,1303926000000,map,-1.64854112747e-05,-2.54737102852e-05,0.039996101972,-5.21865133999e-09,-2.04866935242e-05,-4.22331018844e-05,0.999999998898
1303936000000,64412,1303936000000,map,-1.24694192521e-05,-2.54752031291e-05,0.0399940583314,3.35639134187e-09,2.97045406581e-05,-4.2234051609e-05,0.999999998667
1303946000000,64413,1303946000000,map,-1.48458727185e-05,-2.54750960911e-05,0.0399999991374,1.05867229192e-11,-7.5012661168e-12,-4.22349961038e-05,0.999999999108
1303956000000,64414,1303956000000,map,-1.64848147805e-05,-2.54747819705e-05,0.039996101972,-5.21870279878e-09,-2.04866935242e-05,-4.22356147832e-05,0.999999998898
1303966000000,64415,1303966000000,map,-1.24688227579e-05,-2.54762748345e-05,0.0399940583314,3.35646597199e-09,2.97045406582e-05,-4.22365645077e-05,0.999999998667
1303976000000,64416,1303976000000,map,-1.48452762243e-05,-2.54761677846e-05,0.0399999991374,1.05867111832e-11,-7.50126540868e-12,-4.22375090025e-05,0.999999999108
1303986000000,64417,1303986000000,map,-1.64842182863e-05,-2.54758536558e-05,0.039996101972,-5.21875423905e-09,-2.04866935242e-05,-4.22381276818e-05,0.999999998898
1303996000000,64418,1303996000000,map,-1.24682262637e-05,-2.547734654e-05,0.0399940583314,3.35654058482e-09,2.97045406582e-05,-4.22390774064e-05,0.999999998667
1304006000000,64419,1304006000000,map,-1.48446797301e-05,-2.54772394781e-05,0.0399999991374,1.05867240632e-11,-7.50125887636e-12,-4.22400219011e-05,0.999999999108
1304016000000,64420,1304016000000,map,-1.6483621792e-05,-2.54769253411e-05,0.039996101972,-5.2188056833e-09,-2.04866935242e-05,-4.22406405803e-05,0.999999998898
1304026000000,64421,1304026000000,map,-1.24676297695e-05,-2.54784182455e-05,0.0399940583314,3.35661522416e-09,2.97045406582e-05,-4.22415903049e-05,0.999999998667
1304036000000,64422,1304036000000,map,-1.48440832359e-05,-2.54783111717e-05,0.0399999991374,1.05867206005e-11,-7.50126145134e-12,-4.22425347996e-05,0.999999999108
1304046000000,64423,1304046000000,map,-1.64830252978e-05,-2.54779970264e-05,0.039996101972,-5.21885713546e-09,-2.04866935241e-05,-4.22431534788e-05,0.999999998898
1304056000000,64424,1304056000000,map,-1.24670332753e-05,-2.5479489951e-05,0.0399940583314,3.35668984697e-09,2.97045406582e-05,-4.22441032033e-05,0.999999998667
1304066000000,64425,1304066000000,map,-1.48434867417e-05,-2.54793828652e-05,0.0399999991374,1.05867201139e-11,-7.5012510159e-12,-4.22450476979e-05,0.999999999108
1304076000000,64426,1304076000000,map,-1.64824288036e-05,-2.54790687117e-05,0.039996101972,-5.21890858204e-09,-2.04866935241e-05,-4.22456663771e-05,0.999999998898
1304086000000,64427,1304086000000,map,-1.2466436781e-05,-2.54805616565e-05,0.0399940583314,3.35676447341e-09,2.97045406582e-05,-4.22466161015e-05,0.999999998666
1304096000000,64428,1304096000000,map,-1.48428902474e-05,-2.54804545588e-05,0.0399999991374,1.05867213532e-11,-7.50125652839e-12,-4.22475605962e-05,0.999999999108
1304106000000,64429,1304106000000,map,-1.64818323094e-05,-2.54801403971e-05,0.039996101972,-5.21896004503e-09,-2.04866935241e-05,-4.22481792753e-05,0.999999998898
1304116000000,64430,1304116000000,map,-1.24658402868e-05,-2.5481633362e-05,0.0399940583314,3.35683910993e-09,2.97045406583e-05,-4.22491289997e-05,0.999999998666
1304126000000,64431,1304126000000,map,-1.48422937532e-05,-2.54815262523e-05,0.0399999991374,1.05867151447e-11,-7.50126350455e-12,-4.22500734943e-05,0.999999999107
1304136000000,64432,1304136000000,map,-1.64812358152e-05,-2.54812120824e-05,0.039996101972,-5.21901146928e-09,-2.04866935241e-05,-4.22506921734e-05,0.999999998898
1304146000000,64433,1304146000000,map,-1.24652437926e-05,-2.54827050675e-05,0.0399940583314,3.35691372712e-09,2.97045406583e-05,-4.22516418978e-05,0.999999998666
1304156000000,64434,1304156000000,map,-1.4841697259e-05,-2.54825979459e-05,0.0399999991374,1.05867210963e-11,-7.50126544595e-12,-4.22525863923e-05,0.999999999107
1304166000000,64435,1304166000000,map,-1.64806393209e-05,-2.54822837677e-05,0.039996101972,-5.21906292282e-09,-2.04866935241e-05,-4.22532050714e-05,0.999999998897
1304176000000,64436,1304176000000,map,-1.24646472984e-05,-2.5483776773e-05,0.0399940583314,3.35698835569e-09,2.97045406583e-05,-4.22541547957e-05,0.999999998666
1304186000000,64437,1304186000000,map,-1.48411007648e-05,-2.54836696395e-05,0.0399999991374,1.05867287398e-11,-7.50125694852e-12,-4.22550992902e-05,0.999999999107
1304196000000,64438,1304196000000,map,-1.64800428267e-05,-2.5483355453e-05,0.039996101972,-5.21911436659e-09,-2.04866935241e-05,-4.22557179692e-05,0.999999998897
1304206000000,64439,1304206000000,map,-1.24640508042e-05,-2.54848484785e-05,0.0399940583314,3.35706298763e-09,2.97045406583e-05,-4.22566676935e-05,0.999999998666
1304216000000,64440,1304216000000,map,-1.48405042706e-05,-2.5484741333e-05,0.0399999991374,1.05867280705e-11,-7.50125835459e-12,-4.2257612188e-05,0.999999999107
1304226000000,64441,1304226000000,map,-1.64794463325e-05,-2.54844271384e-05,0.039996101972,-5.21916582272e-09,-2.04866935241e-05,-4.2258230867e-05,0.999999998897
1304236000000,64442,1304236000000,map,-1.24634543099e-05,-2.5485920184e-05,0.0399940583314,3.35713761068e-09,2.97045406583e-05,-4.22591805912e-05,0.999999998666
1304246000000,64443,1304246000000,map,-1.48399077763e-05,-2.54858130266e-05,0.0399999991374,1.05867132634e-11,-7.50126265752e-12,-4.22601250857e-05,0.999999999107
1304256000000,64444,1304256000000,map,-1.64788498383e-05,-2.54854988237e-05,0.039996101972,-5.21921726501e-09,-2.0486693524e-05,-4.22607437646e-05,0.999999998897
1304266000000,64445,1304266000000,map,-1.24628578157e-05,-2.54869918895e-05,0.0399940583314,3.35721223274e-09,2.97045406583e-05,-4.22616934888e-05,0.999999998666
1304276000000,64446,1304276000000,map,-1.48393112821e-05,-2.54868847202e-05,0.0399999991374,1.05867283279e-11,-7.50125706371e-12,-4.22626379832e-05,0.999999999107
1304286000000,64447,1304286000000,map,-1.6478253344e-05,-2.54865705091e-05,0.039996101972,-5.21926871289e-09,-2.0486693524e-05,-4.22632566621e-05,0.999999998897
1304296000000,64448,1304296000000,map,-1.24622613215e-05,-2.54880635951e-05,0.0399940583314,3.35728686485e-09,2.97045406583e-05,-4.22642063863e-05,0.999999998666
1304306000000,64449,1304306000000,map,-1.48387147879e-05,-2.54879564138e-05,0.0399999991374,1.05867248662e-11,-7.50125342825e-12,-4.22651508807e-05,0.999999999107
1304316000000,64450,1304316000000,map,-1.64776568498e-05,-2.54876421944e-05,0.039996101972,-5.21932017395e-09,-2.0486693524e-05,-4.22657695595e-05,0.999999998897
1304326000000,64451,1304326000000,map,-1.24616648273e-05,-2.54891353006e-05,0.0399940583314,3.35736149446e-09,2.97045406584e-05,-4.22667192837e-05,0.999999998666
1304336000000,64452,1304336000000,map,-1.48381182937e-05,-2.54890281074e-05,0.0399999991374,1.05867234367e-11,-7.50126048912e-12,-4.2267663778e-05,0.999999999107
1304346000000,64453,1304346000000,map,-1.64770603556e-05,-2.54887138798e-05,0.039996101972,-5.21937163028e-09,-2.0486693524e-05,-4.22682824568e-05,0.999999998897
1304356000000,64454,1304356000000,map,-1.24610683331e-05,-2.54902070061e-05,0.0399940583314,3.35743612632e-09,2.97045406584e-05,-4.2269232181e-05,0.999999998665
1304366000000,64455,1304366000000,map,-1.48375217995e-05,-2.5490099801e-05,0.0399999991374,1.05867164557e-11,-7.50126580171e-12,-4.22701766753e-05,0.999999999107
1304376000000,64456,1304376000000,map,-1.64764638614e-05,-2.54897855651e-05,0.039996101972,-5.21942306287e-09,-2.0486693524e-05,-4.2270795354e-05,0.999999998897
1304386000000,64457,1304386000000,map,-1.24604718388e-05,-2.54912787117e-05,0.0399940583314,3.35751074957e-09,2.97045406584e-05,-4.22717450781e-05,0.999999998665
1304396000000,64458,1304396000000,map,-1.48369253052e-05,-2.54911714945e-05,0.0399999991374,1.05867202512e-11,-7.5012670892e-12,-4.22726895724e-05,0.999999999107
1304406000000,64459,1304406000000,map,-1.64758673671e-05,-2.54908572505e-05,0.039996101972,-5.21947450972e-09,-2.04866935239e-05,-4.22733082511e-05,0.999999998897
1304416000000,64460,1304416000000,map,-1.24598753446e-05,-2.54923504172e-05,0.0399940583314,3.35758538278e-09,2.97045406584e-05,-4.22742579752e-05,0.999999998665
1304426000000,64461,1304426000000,map,-1.4836328811e-05,-2.54922431881e-05,0.0399999991374,1.05867208053e-11,-7.50126934569e-12,-4.22752024694e-05,0.999999999106
1304436000000,64462,1304436000000,map,-1.64752708729e-05,-2.54919289359e-05,0.039996101972,-5.21952596498e-09,-2.04866935239e-05,-4.2275821148e-05,0.999999998897
1304446000000,64463,1304446000000,map,-1.24592788504e-05,-2.54934221227e-05,0.0399940583314,3.35766001691e-09,2.97045406584e-05,-4.22767708721e-05,0.999999998665
1304456000000,64464,1304456000000,map,-1.48357323168e-05,-2.54933148817e-05,0.0399999991374,1.05867262897e-11,-7.50124808517e-12,-4.22777153662e-05,0.999999999106
1304466000000,64465,1304466000000,map,-1.64746743787e-05,-2.54930006212e-05,0.039996101972,-5.21957740444e-09,-2.04866935239e-05,-4.22783340449e-05,0.999999998896
1304476000000,64466,1304476000000,map,-1.24586823562e-05,-2.54944938283e-05,0.0399940583314,3.35773463721e-09,2.97045406584e-05,-4.22792837689e-05,0.999999998665
1304486000000,64467,1304486000000,map,-1.48351358225e-05,-2.54943865754e-05,0.0399999991374,1.05867207568e-11,-7.50126406359e-12,-4.2280228263e-05,0.999999999106
1304496000000,64468,1304496000000,map,-1.64740778845e-05,-2.54940723066e-05,0.039996101972,-5.2196288506e-09,-2.04866935239e-05,-4.22808469416e-05,0.999999998896
1304506000000,64469,1304506000000,map,-1.24580858619e-05,-2.54955655338e-05,0.0399940583314,3.35780926757e-09,2.97045406585e-05,-4.22817966656e-05,0.999999998665
1304516000000,64470,1304516000000,map,-1.48345393283e-05,-2.5495458269e-05,0.0399999991374,1.0586715474e-11,-7.5012613497e-12,-4.22827411597e-05,0.999999999106
1304526000000,64471,1304526000000,map,-1.64734813902e-05,-2.5495143992e-05,0.039996101972,-5.21968030549e-09,-2.04866935239e-05,-4.22833598382e-05,0.999999998896
1304536000000,64472,1304536000000,map,-1.24574893677e-05,-2.54966372394e-05,0.0399940583314,3.35788388198e-09,2.97045406585e-05,-4.22843095622e-05,0.999999998665
1304546000000,64473,1304546000000,map,-1.48339428341e-05,-2.54965299626e-05,0.0399999991374,1.05867151504e-11,-7.5012725407e-12,-4.22852540562e-05,0.999999999106
1304556000000,64474,1304556000000,map,-1.6472884896e-05,-2.54962156774e-05,0.039996101972,-5.21973175647e-09,-2.04866935239e-05,-4.22858727347e-05,0.999999998896
1304566000000,64475,1304566000000,map,-1.24568928735e-05,-2.5497708945e-05,0.0399940583314,3.35795852419e-09,2.97045406585e-05,-4.22868224586e-05,0.999999998665
1304576000000,64476,1304576000000,map,-1.48333463399e-05,-2.54976016562e-05,0.0399999991374,1.05867304416e-11,-7.50125234405e-12,-4.22877669526e-05,0.999999999106
1304586000000,64477,1304586000000,map,-1.64722884018e-05,-2.54972873628e-05,0.039996101972,-5.21978319966e-09,-2.04866935239e-05,-4.22883856311e-05,0.999999998896
1304596000000,64478,1304596000000,map,-1.24562963792e-05,-2.54987806505e-05,0.0399940583314,3.35803314312e-09,2.97045406585e-05,-4.2289335355e-05,0.999999998665
1304606000000,64479,1304606000000,map,-1.48327498456e-05,-2.54986733498e-05,0.0399999991374,1.0586720908e-11,-7.50126185453e-12,-4.2290279849e-05,0.999999999106
1304616000000,64480,1304616000000,map,-1.64716919075e-05,-2.54983590481e-05,0.039996101972,-5.21983464546e-09,-2.04866935238e-05,-4.22908985274e-05,0.999999998896
1304626000000,64481,1304626000000,map,-1.2455699885e-05,-2.54998523561e-05,0.0399940583314,3.35810777487e-09,2.97045406585e-05,-4.22918482512e-05,0.999999998665
1304636000000,64482,1304636000000,map,-1.48321533514e-05,-2.54997450435e-05,0.0399999991374,1.05867175872e-11,-7.50126964046e-12,-4.22927927452e-05,0.999999999106
1304646000000,64483,1304646000000,map,-1.64710954133e-05,-2.54994307335e-05,0.039996101972,-5.21988610242e-09,-2.04866935238e-05,-4.22934114236e-05,0.999999998896
1304656000000,64484,1304656000000,map,-1.24551033908e-05,-2.55009240617e-05,0.0399940583314,3.3581823949e-09,2.97045406586e-05,-4.22943611474e-05,0.999999998664
1304666000000,64485,1304666000000,map,-1.48315568572e-05,-2.55008167371e-05,0.0399999991374,1.05867233974e-11,-7.50127124982e-12,-4.22953056413e-05,0.999999999106
1304676000000,64486,1304676000000,map,-1.64704989191e-05,-2.55005024189e-05,0.039996101972,-5.2199375612e-09,-2.04866935238e-05,-4.22959243196e-05,0.999999998896
1304686000000,64487,1304686000000,map,-1.24545068965e-05,-2.55019957672e-05,0.0399940583314,3.35825703478e-09,2.97045406585e-05,-4.22968740434e-05,0.999999998664
1304696000000,64488,1304696000000,map,-1.48309603629e-05,-2.55018884307e-05,0.0399999991374,1.05867245777e-11,-7.50124723813e-12,-4.22978185372e-05,0.999999999105
1304706000000,64489,1304706000000,map,-1.64699024248e-05,-2.55015741043e-05,0.039996101972,-5.21998900176e-09,-2.04866935238e-05,-4.22984372156e-05,0.999999998896
1304716000000,64490,1304716000000,map,-1.24539104023e-05,-2.55030674728e-05,0.0399940583314,3.3583316585e-09,2.97045406586e-05,-4.22993869393e-05,0.999999998664
1304726000000,64491,1304726000000,map,-1.48303638687e-05,-2.55029601244e-05,0.0399999991374,1.05867169301e-11,-7.50126147506e-12,-4.23003314331e-05,0.999999999105
1304736000000,64492,1304736000000,map,-1.64693059306e-05,-2.55026457897e-05,0.039996101972,-5.22004044057e-09,-2.04866935238e-05,-4.23009501114e-05,0.999999998895
1304746000000,64493,1304746000000,map,-1.24533139081e-05,-2.55041391784e-05,0.0399940583314,3.35840628957e-09,2.97045406586e-05,-4.23018998351e-05,0.999999998664
1304756000000,64494,1304756000000,map,-1.48297673745e-05,-2.5504031818e-05,0.0399999991374,1.05867287672e-11,-7.50124316899e-12,-4.23028443289e-05,0.999999999105
1304766000000,64495,1304766000000,map,-1.64687094363e-05,-2.55037174752e-05,0.039996101972,-5.22009189604e-09,-2.04866935238e-05,-4.23034630071e-05,0.999999998895
1304776000000,64496,1304776000000,map,-1.24527174138e-05,-2.5505210884e-05,0.0399940583314,3.35848092384e-09,2.97045406586e-05,-4.23044127308e-05,0.999999998664
1304786000000,64497,1304786000000,map,-1.48291708802e-05,-2.55051035117e-05,0.0399999991374,1.05867235206e-11,-7.50125489531e-12,-4.23053572245e-05,0.999999999105
1304796000000,64498,1304796000000,map,-1.64681129421e-05,-2.55047891606e-05,0.039996101972,-5.22014334518e-09,-2.04866935238e-05,-4.23059759027e-05,0.999999998895
1304806000000,64499,1304806000000,map,-1.24521209196e-05,-2.55062825896e-05,0.0399940583314,3.35855553573e-09,2.97045406587e-05,-4.23069256263e-05,0.999999998664
1304816000000,64500,1304816000000,map,-1.4828574386e-05,-2.55061752053e-05,0.0399999991374,1.0586731542e-11,-7.5012538416e-12,-4.230787012e-05,0.999999999105
1304826000000,64501,1304826000000,map,-1.64675164479e-05,-2.5505860846e-05,0.039996101972,-5.22019479345e-09,-2.04866935237e-05,-4.23084887982e-05,0.999999998895
1304836000000,64502,1304836000000,map,-1.24515244254e-05,-2.55073542952e-05,0.0399940583314,3.35863018303e-09,2.97045406586e-05,-4.23094385218e-05,0.999999998664
1304846000000,64503,1304846000000,map,-1.48279778918e-05,-2.5507246899e-05,0.0399999991374,1.05867103918e-11,-7.50126701805e-12,-4.23103830154e-05,0.999999999105
1304856000000,64504,1304856000000,map,-1.64669199536e-05,-2.55069325314e-05,0.039996101972,-5.22024623294e-09,-2.04866935237e-05,-4.23110016936e-05,0.999999998895
1304866000000,64505,1304866000000,map,-1.24509279311e-05,-2.55084260008e-05,0.0399940583314,3.35870479686e-09,2.97045406587e-05,-4.23119514171e-05,0.999999998664
1304876000000,64506,1304876000000,map,-1.48273813975e-05,-2.55083185926e-05,0.0399999991374,1.05867202001e-11,-7.5012694304e-12,-4.23128959107e-05,0.999999999105
1304886000000,64507,1304886000000,map,-1.64663234594e-05,-2.55080042169e-05,0.039996101972,-5.2202976968e-09,-2.04866935237e-05,-4.23135145888e-05,0.999999998895
1304896000000,64508,1304896000000,map,-1.24503314369e-05,-2.55094977064e-05,0.0399940583314,3.35877942698e-09,2.97045406587e-05,-4.23144643123e-05,0.999999998664
1304906000000,64509,1304906000000,map,-1.48267849033e-05,-2.55093902863e-05,0.0399999991374,1.05867077556e-11,-7.50127132436e-12,-4.23154088059e-05,0.999999999105
1304916000000,64510,1304916000000,map,-1.64657269651e-05,-2.55090759023e-05,0.039996101972,-5.22034913091e-09,-2.04866935237e-05,-4.2316027484e-05,0.999999998895
1304926000000,64511,1304926000000,map,-1.24497349426e-05,-2.5510569412e-05,0.0399940583314,3.35885405337e-09,2.97045406587e-05,-4.23169772075e-05,0.999999998663
1304936000000,64512,1304936000000,map,-1.4826188409e-05,-2.551046198e-05,0.0399999991374,1.05867277682e-11,-7.50125363831e-12,-4.2317921701e-05,0.999999999105
1304946000000,64513,1304946000000,map,-1.64651304709e-05,-2.55101475877e-05,0.039996101972,-5.22040058495e-09,-2.04866935237e-05,-4.2318540379e-05,0.999999998895
1304956000000,64514,1304956000000,map,-1.24491384484e-05,-2.55116411176e-05,0.0399940583314,3.35892867807e-09,2.97045406587e-05,-4.23194901025e-05,0.999999998663
1304966000000,64515,1304966000000,map,-1.48255919148e-05,-2.55115336736e-05,0.0399999991374,1.0586714711e-11,-7.50127048072e-12,-4.2320434596e-05,0.999999999104
1304976000000,64516,1304976000000,map,-1.64645339767e-05,-2.55112192732e-05,0.039996101972,-5.2204520276e-09,-2.04866935236e-05,-4.23210532739e-05,0.999999998895
1304986000000,64517,1304986000000,map,-1.24485419542e-05,-2.55127128232e-05,0.0399940583314,3.35900329938e-09,2.97045406588e-05,-4.23220029973e-05,0.999999998663
1304996000000,64518,1304996000000,map,-1.48249954206e-05,-2.55126053673e-05,0.0399999991374,1.0586720039e-11,-7.5012576668e-12,-4.23229474908e-05,0.999999999104
1305006000000,64519,1305006000000,map,-1.64639374824e-05,-2.55122909586e-05,0.039996101972,-5.22050348451e-09,-2.04866935236e-05,-4.23235661687e-05,0.999999998895
1305016000000,64520,1305016000000,map,-1.24479454599e-05,-2.55137845289e-05,0.0399940583314,3.35907793665e-09,2.97045406588e-05,-4.23245158921e-05,0.999999998663
1305026000000,64521,1305026000000,map,-1.48243989263e-05,-2.5513677061e-05,0.0399999991374,1.05867304e-11,-7.50125388565e-12,-4.23254603855e-05,0.999999999104
1305036000000,64522,1305036000000,map,-1.64633409882e-05,-2.55133626441e-05,0.039996101972,-5.22055492759e-09,-2.04866935236e-05,-4.23260790634e-05,0.999999998894
1305046000000,64523,1305046000000,map,-1.24473489657e-05,-2.55148562345e-05,0.0399940583314,3.35915256662e-09,2.97045406588e-05,-4.23270287868e-05,0.999999998663
1305056000000,64524,1305056000000,map,-1.48238024321e-05,-2.55147487547e-05,0.0399999991374,1.05867289663e-11,-7.50125613198e-12,-4.23279732802e-05,0.999999999104
1305066000000,64525,1305066000000,map,-1.64627444939e-05,-2.55144343295e-05,0.039996101972,-5.22060636872e-09,-2.04866935236e-05,-4.2328591958e-05,0.999999998894
1305076000000,64526,1305076000000,map,-1.24467524714e-05,-2.55159279401e-05,0.0399940583314,3.35922720004e-09,2.97045406588e-05,-4.23295416813e-05,0.999999998663
1305086000000,64527,1305086000000,map,-1.48232059378e-05,-2.55158204484e-05,0.0399999991374,1.05867310104e-11,-7.50125446502e-12,-4.23304861747e-05,0.999999999104
1305096000000,64528,1305096000000,map,-1.64621479997e-05,-2.5515506015e-05,0.039996101972,-5.22065781806e-09,-2.04866935236e-05,-4.23311048525e-05,0.999999998894
1305106000000,64529,1305106000000,map,-1.24461559772e-05,-2.55169996458e-05,0.0399940583314,3.35930182148e-09,2.97045406588e-05,-4.23320545758e-05,0.999999998663
1305116000000,64530,1305116000000,map,-1.48226094436e-05,-2.55168921421e-05,0.0399999991374,1.05867214293e-11,-7.50126940329e-12,-4.23329990691e-05,0.999999999104
1305126000000,64531,1305126000000,map,-1.64615515054e-05,-2.55165777004e-05,0.039996101972,-5.22070927383e-09,-2.04866935236e-05,-4.23336177468e-05,0.999999998894
1305136000000,64532,1305136000000,map,-1.2445559483e-05,-2.55180713514e-05,0.0399940583314,3.35937645339e-09,2.97045406588e-05,-4.23345674701e-05,0.999999998663
1305146000000,64533,1305146000000,map,-1.48220129493e-05,-2.55179638358e-05,0.0399999991374,1.05867249723e-11,-7.50126076017e-12,-4.23355119633e-05,0.999999999104
1305156000000,64534,1305156000000,map,-1.64609550112e-05,-2.55176493859e-05,0.039996101972,-5.22076072615e-09,-2.04866935236e-05,-4.23361306411e-05,0.999999998894
1305166000000,64535,1305166000000,map,-1.24449629887e-05,-2.5519143057e-05,0.0399940583314,3.35945106778e-09,2.97045406589e-05,-4.23370803643e-05,0.999999998663
1305176000000,64536,1305176000000,map,-1.48214164551e-05,-2.55190355295e-05,0.0399999991374,1.0586718878e-11,-7.50127270333e-12,-4.23380248575e-05,0.999999999104
1305186000000,64537,1305186000000,map,-1.64603585169e-05,-2.55187210714e-05,0.039996101972,-5.22081216633e-09,-2.04866935235e-05,-4.23386435352e-05,0.999999998894
1305196000000,64538,1305196000000,map,-1.24443664945e-05,-2.55202147627e-05,0.0399940583314,3.35952569987e-09,2.97045406589e-05,-4.23395932584e-05,0.999999998662
1305206000000,64539,1305206000000,map,-1.48208199608e-05,-2.55201072232e-05,0.0399999991374,1.05867110623e-11,-7.50126806159e-12,-4.23405377516e-05,0.999999999104
1305216000000,64540,1305216000000,map,-1.64597620227e-05,-2.55197927568e-05,0.039996101972,-5.22086361727e-09,-2.04866935235e-05,-4.23411564292e-05,0.999999998894
1305226000000,64541,1305226000000,map,-1.24437700002e-05,-2.55212864683e-05,0.0399940583314,3.35960033881e-09,2.97045406589e-05,-4.23421061524e-05,0.999999998662
