%time,field.header.seq,field.header.stamp,field.header.frame_id,field.pose.position.x,field.pose.position.y,field.pose.position.z,field.pose.orientation.x,field.pose.orientation.y,field.pose.orientation.z,field.pose.orientation.w
709777000000,93,709777000000,world,5.87774820815e-06,1.33702505991e-05,-3.8601065171e-06,5.32267449663e-06,-1.26454460767e-06,1.20446168237e-06,0.999999999984
710165000000,94,710165000000,world,5.16786849403e-06,4.02435180149e-05,-7.52750156607e-06,-7.12816381545e-06,-1.53227426831e-06,1.79287405894e-06,0.999999999972
710385000000,95,710385000000,world,5.40167784493e-05,4.40246112703e-05,-1.93662326637e-05,3.19452897149e-06,-1.75995592115e-05,-2.92580693847e-06,0.999999999836
710594000000,96,710594000000,world,0.000161127434694,1.99496971618e-05,-8.11627105577e-05,-4.06551443083e-05,-5.39242426948e-05,-9.78922978442e-06,0.999999997672
710806000000,97,710806000000,world,2.11050473808e-06,5.05579009769e-06,4.57954729427e-06,3.81297263627e-06,-6.3053448684e-07,-6.10808854158e-07,0.999999999992
711009000000,98,711009000000,world,5.42704983673e-05,4.41355914518e-05,-1.94108943106e-05,3.24715847401e-06,-1.76864887151e-05,-2.95594782025e-06,0.999999999834
711409000000,99,711409000000,world,-2.04634147849e-06,1.07044263586e-06,-3.30133116222e-06,-2.03221134142e-07,1.34832930598e-06,1.85381691153e-06,0.999999999997
711775000000,100,711775000000,world,-2.52775930676e-06,-2.5716732921e-07,-3.33204093295e-06,-8.37528659756e-07,1.48483297834e-06,1.91464141607e-06,0.999999999997
712188000000,101,712188000000,world,5.43310234207e-05,4.44366778538e-05,-1.93265877897e-05,3.39302778173e-06,-1.77167566987e-05,-2.95589938965e-06,0.999999999833
712647000000,102,712647000000,world,5.43109745195e-05,4.41263255198e-05,-1.93374817172e-05,3.2620259839e-06,-1.7714657585e-05,-2.98744816924e-06,0.999999999833
712937000000,103,712937000000,world,0.000113707777928,2.01048096642e-05,-6.58408316667e-05,-3.1747662395e-05,-3.67034298974e-05,-7.16811017857e-06,0.999999998797
713194000000,104,713194000000,world,2.1229475351e-06,5.39498478247e-06,4.61997296952e-06,3.94743847206e-06,-6.24338611028e-07,-6.09063818042e-07,0.999999999992
713438000000,105,713438000000,world,0.000161173738888,2.02225619432e-05,-8.13405640656e-05,-4.05571662635e-05,-5.39094324834e-05,-9.73831899967e-06,0.999999997677
713833000000,106,713833000000,world,-2.32454635807e-06,1.65376391692e-07,-3.28630426338e-06,-6.6215721972e-07,1.4139977793e-06,1.90937475963e-06,0.999999999997
714289000000,107,714289000000,world,-2.25615167437e-06,1.82524260595e-07,-3.32731246999e-06,-6.45117950169e-07,1.38359780521e-06,1.92367110685e-06,0.999999999997
714644000000,108,714644000000,world,0.000161391828442,1.99803471332e-05,-8.14047671156e-05,-4.06724065175e-05,-5.40018626102e-05,-9.78072146146e-06,0.999999997667
715068000000,109,715068000000,world,4.99266971019e-05,4.63433971163e-05,-1.90966311493e-05,3.04986951917e-06,-1.572833389e-05,-5.22000527707e-06,0.999999999858
715478000000,110,715478000000,world,0.000161093776114,2.01938855753e-05,-8.13719816506e-05,-4.05353565807e-05,-5.38828170306e-05,-9.78453042538e-06,0.999999997679
715811000000,111,715811000000,world,0.000114845628559,1.99291607714e-05,-6.62591628497e-05,-3.19690406804e-05,-3.71152236312e-05,-7.23522952307e-06,0.999999998774
716119000000,112,716119000000,world,6.11082532487e-06,1.33076646307e-05,-4.21799768446e-06,5.20721687273e-06,-1.27425460048e-06,1.21215884972e-06,0.999999999985
716443000000,113,716443000000,world,6.11082532487e-06,1.33076646307e-05,-4.21799768446e-06,5.20721687273e-06,-1.27425460048e-06,1.21215884972e-06,0.999999999985
716826000000,114,716826000000,world,4.9917583965e-05,4.6363187721e-05,-1.91326271306e-05,3.05627167975e-06,-1.57243648551e-05,-5.19745026321e-06,0.999999999858
717131000000,115,717131000000,world,0.000115015667689,2.09149729926e-05,-6.60961813992e-05,-3.14409589538e-05,-3.71824207381e-05,-7.27849555033e-06,0.999999998788
717487000000,116,717487000000,world,6.10560528003e-06,1.33073663164e-05,-4.19252182837e-06,5.20852927358e-06,-1.27164764761e-06,1.21043001398e-06,0.999999999985
717860000000,117,717860000000,world,0.000166590354638,1.81065679499e-05,-8.14669328975e-05,-4.01681753766e-05,-5.62691092003e-05,-7.69954929594e-06,0.999999997581
718119000000,118,718119000000,world,5.06234209752e-05,4.63957439933e-05,-1.92039224203e-05,3.06794663585e-06,-1.59558039717e-05,-5.23912649365e-06,0.999999999854
718345000000,119,718345000000,world,-1.86313934591e-06,2.72130569101e-06,-3.52651727553e-06,5.68442601433e-07,1.3309802398e-06,1.71991132447e-06,0.999999999997
718578000000,120,718578000000,world,5.0703794841e-05,4.61513154733e-05,-1.92722618522e-05,2.92992422103e-06,-1.5988716766e-05,-5.2288710314e-06,0.999999999854
718807000000,121,718807000000,world,6.03101489105e-06,1.3411634427e-05,-4.15537579102e-06,5.26742087451e-06,-1.25214319267e-06,1.22954543256e-06,0.999999999985
719122000000,122,719122000000,world,6.03101489105e-06,1.3411634427e-05,-4.15537579102e-06,5.26742087451e-06,-1.25214319267e-06,1.22954543256e-06,0.999999999985
719493000000,123,719493000000,world,5.069125109e-05,4.61837444163e-05,-1.9267834432e-05,2.94716210149e-06,-1.59811952448e-05,-5.23345033722e-06,0.999999999854
719888000000,124,719888000000,world,0.00016631023027,1.82934636541e-05,-8.13963706605e-05,-4.0090606393e-05,-5.61839295652e-05,-7.62633952016e-06,0.999999997589
720315000000,125,720315000000,world,5.04371491843e-05,4.62876087113e-05,-1.92257612071e-05,2.98518102639e-06,-1.58938146319e-05,-5.15658893999e-06,0.999999999856
720560000000,126,720560000000,world,0.000166364770848,1.8305841877e-05,-8.14100858406e-05,-4.0088892905e-05,-5.62025159988e-05,-7.62415491388e-06,0.999999997588
720772000000,127,720772000000,world,-2.34249682762e-06,6.82335530655e-06,1.7634604319e-06,4.03794319932e-06,1.55740247008e-06,1.16227886336e-06,0.99999999999
721013000000,128,721013000000,world,0.000114167421998,2.0275820134e-05,-6.60406585666e-05,-3.17523044557e-05,-3.68912551048e-05,-7.08657534285e-06,0.99999999879
721267000000,129,721267000000,world,-1.8146866978e-06,7.91587694948e-07,-4.20027208747e-06,-4.29383305799e-07,1.33388789436e-06,2.04444859264e-06,0.999999999997
721549000000,130,721549000000,world,-1.62245407864e-06,9.25954225295e-07,-4.08045252698e-06,-3.59137345639e-07,1.24193616102e-06,2.05106061912e-06,0.999999999997
721852000000,131,721852000000,world,-6.37586254015e-06,6.12983512838e-06,2.32239472098e-06,3.83252699971e-06,2.8827819278e-06,1.40124836888e-06,0.999999999988
722155000000,132,722155000000,world,-1.59855812853e-06,3.80033696956e-07,-4.19797470386e-06,-5.91315426844e-07,1.24700522974e-06,2.01127454602e-06,0.999999999997
722454000000,133,722454000000,world,5.00743954035e-05,4.6464469051e-05,-1.91307717614e-05,3.10259861136e-06,-1.57800222928e-05,-5.07953200141e-06,0.999999999858
722783000000,134,722783000000,world,0.000113933201646,2.10393172893e-05,-6.59943034407e-05,-3.13560958228e-05,-3.67885222219e-05,-7.10638095431e-06,0.999999998806
723020000000,135,723020000000,world,0.000165830482729,1.84179625649e-05,-8.11764330138e-05,-3.99906602021e-05,-5.60194674584e-05,-7.50687511774e-06,0.999999997603
723370000000,136,723370000000,world,-6.14907548879e-06,5.81889889872e-06,2.20127890316e-06,3.68357950715e-06,2.82737482845e-06,1.39922519791e-06,0.999999999988
723729000000,137,723729000000,world,5.00299211126e-05,4.65567245556e-05,-1.91336839634e-05,3.13965574561e-06,-1.57549566189e-05,-5.06698370301e-06,0.999999999858
724157000000,138,724157000000,world,0.000113768968731,2.09303307201e-05,-6.59862416796e-05,-3.14177195458e-05,-3.67221072809e-05,-7.07159141778e-06,0.999999998807
724526000000,139,724526000000,world,0.000166030265973,1.827203414e-05,-8.1251069787e-05,-4.007538509e-05,-5.60818624324e-05,-7.48599948585e-06,0.999999997596
724911000000,140,724911000000,world,-0.000431904452853,-0.00287627871148,0.000561439432204,0.00115549736183,0.000314668046132,-0.00170464995841,0.999997829987
725568000000,141,725568000000,world,0.0012713331962,-0.0795088708401,0.00269547360949,0.000476094508989,0.000859631271447,-0.0186727901127,0.999825165355
726311000000,142,726311000000,world,-0.00646140333265,-0.192609831691,0.00266037159599,-0.0286099815829,0.00262067395499,-0.028741130427,0.999173933028
727075000000,143,727075000000,world,-0.00856623936419,-0.205079966687,0.00378068403713,-0.0304074402508,0.00311606815918,-0.0305894994236,0.999064542571
727944000000,144,727944000000,world,-0.008536441809,-0.206842862044,0.00384040657768,-0.0307674072169,0.00307554197173,-0.0308547329891,0.99904549103
728724000000,145,728724000000,world,-0.00802876328896,-0.207850846884,0.00378379112708,-0.0310682130671,0.00290413178926,-0.0309123281715,0.999034914366
729345000000,146,729345000000,world,-0.00821089967754,-0.207559268882,0.00384206350866,-0.0310238079938,0.00300276262385,-0.0309640651878,0.999034400519
730334000000,147,730334000000,world,-0.00814990546519,-0.20767932611,0.00379001815699,-0.0310307269586,0.00299003741082,-0.0310198513557,0.999032493207
731131000000,148,731131000000,world,-0.00770390639577,-0.208213621971,0.00380630196011,-0.0313228144226,0.00285678481917,-0.0309836187807,0.999024892305
731896000000,149,731896000000,world,-0.00753484684689,-0.208212907842,0.00375295272316,-0.0313073704639,0.00280284139674,-0.0309523275371,0.999026499175
732419000000,150,732419000000,world,-0.00291784671981,-0.205559528345,0.00586009990969,-0.0355380850973,0.0041993516598,-0.0334460473074,0.998799665535
732826000000,151,732826000000,world,0.000180280204134,-0.206335990615,0.0110547549723,-0.0335226523845,0.00543445522086,-0.0310971918148,0.998939268992
733417000000,152,733417000000,world,0.00219029404466,-0.205092014886,0.0216262845019,-0.0273719664695,0.000639899291263,-0.0317022539876,0.999122281341
734039000000,153,734039000000,world,0.00221814932772,-0.202991471343,0.0320530074057,-0.0335301267225,-0.00411442885381,-0.0317396638908,0.998925120223
734591000000,154,734591000000,world,0.0025704423834,-0.200396875225,0.0406374213707,-0.0292818421301,-0.0103937111719,-0.0283091190076,0.999116178565
735231000000,155,735231000000,world,0.00537028954401,-0.20127409076,0.0504099753755,-0.0327435583138,-0.0155806213557,-0.0267540030874,0.998984147495
735829000000,156,735829000000,world,0.00417460806009,-0.199704995637,0.0583140368262,-0.033894546068,-0.0167546007237,-0.026693266807,0.998928382122
736329000000,157,736329000000,world,0.0055208973655,-0.199570227512,0.0655402864022,-0.0288726888979,-0.0190864757483,-0.0266551092979,0.99904533402
736729000000,158,736729000000,world,0.0104818012133,-0.199534344773,0.0712792948056,-0.0327064443962,-0.0168478010939,-0.031728875498,0.998819162087
737066000000,159,737066000000,world,0.0126092277377,-0.199597176017,0.0768193691182,-0.0313546814339,-0.0191598421003,-0.0288080041644,0.998909346887
737576000000,160,737576000000,world,0.0158644597517,-0.197859272786,0.0859485249756,-0.0265934376699,-0.0210456714568,-0.0291887413327,0.998998441523
738361000000,161,738361000000,world,0.0227899619931,-0.21519213996,0.0975971313996,-0.0336918172484,-0.0277454625826,-0.0254619394282,0.998722554265
739081000000,162,739081000000,world,0.0270329297967,-0.214583880135,0.107342846941,-0.0424081151502,-0.0307298594883,-0.0258060213312,0.998294183479
739559000000,163,739559000000,world,0.0289370472263,-0.21117788561,0.114268555865,-0.0404324128085,-0.0352633083229,-0.0276450445843,0.998177073765
740185000000,164,740185000000,world,0.0318691899724,-0.209027091813,0.125364446727,-0.0356775277081,-0.0320013593139,-0.0290551476163,0.998428177395
740704000000,165,740704000000,world,0.032048613839,-0.204873646498,0.130892168669,-0.0364663178183,-0.0366021947517,-0.027832419572,0.998276436377
741545000000,166,741545000000,world,0.0370128269578,-0.199175213702,0.143161185997,-0.0402126165368,-0.0352319617253,-0.0223909040182,0.998318737559
741933000000,167,741933000000,world,0.0399962904986,-0.196463888289,0.149105073423,-0.0411955089218,-0.0353068233386,-0.0285777543585,0.998118064272
742482000000,168,742482000000,world,0.0435803620375,-0.192299868104,0.161023564037,-0.0379954226281,-0.0339169577543,-0.023228307786,0.998431987445
742931000000,169,742931000000,world,0.0434255448241,-0.189116654014,0.170719635393,-0.0375191983183,-0.0317465907979,-0.0225448880734,0.998537025729
743285000000,170,743285000000,world,0.0453132753288,-0.186846468555,0.176856642209,-0.0369460948415,-0.0310646384385,-0.0222483872041,0.998586492789
743630000000,171,743630000000,world,0.0443042038631,-0.183652960613,0.184620533396,-0.0360127275639,-0.0291475443141,-0.0220409831338,0.99868298232
743899000000,172,743899000000,world,0.0437032975192,-0.180645337879,0.190626906715,-0.0348951823656,-0.0277695726852,-0.0219247197862,0.998764478615
744270000000,173,744270000000,world,0.0395690111171,-0.181186691732,0.197295024537,-0.025168480246,-0.0310209128554,-0.0220726093514,0.998957982342
744560000000,174,744560000000,world,0.034763979595,-0.181112787873,0.199183853853,-0.0320187986145,-0.0343456116116,-0.0252998902229,0.998576532397
745097000000,175,745097000000,world,0.024505069364,-0.175270223459,0.201099834438,-0.0353440754179,-0.0366822038927,-0.016122776474,0.998571614021
745387000000,176,745387000000,world,0.0195335793463,-0.173439542537,0.201937100274,-0.0375311982626,-0.0390482254329,-0.0197486464408,0.998336935213
745595000000,177,745595000000,world,0.0140766911063,-0.176672136001,0.200725777455,-0.0332372862493,-0.0416815478976,-0.0187276433561,0.998402327092
745805000000,178,745805000000,world,0.00769241058198,-0.171955889807,0.198821337185,-0.0317387172497,-0.0425474966384,-0.0182221452649,0.998423916871
746013000000,179,746013000000,world,0.00652067861889,-0.171933580195,0.199589598174,-0.0384476370705,-0.043270981545,-0.0191796341659,0.99813903991
746284000000,180,746284000000,world,0.00201827131677,-0.166939764137,0.201149700108,-0.0327490362672,-0.0441064610838,-0.0231774968171,0.998220879543
746607000000,181,746607000000,world,-0.00518344956847,-0.168688993673,0.203828460482,-0.0395783670195,-0.0495980373757,-0.0185851829486,0.997811694924
746882000000,182,746882000000,world,-0.00948833715984,-0.161638549508,0.202994142415,-0.0299917995494,-0.0508761933851,-0.0183001168005,0.998086775101
747152000000,183,747152000000,world,-0.0137868228119,-0.164157418875,0.20428935216,-0.0372688337612,-0.0502279745343,-0.0138902225294,0.997945512702
747562000000,184,747562000000,world,-0.0208328819302,-0.162182092295,0.204246249447,-0.0326252953478,-0.0518544159481,-0.0192103845357,0.997936706799
747954000000,185,747954000000,world,-0.0291141568627,-0.160781788081,0.203486472205,-0.0287034579919,-0.0521178431208,-0.0194962876127,0.998037943516
748165000000,186,748165000000,world,-0.0340252276711,-0.161600879129,0.201477669341,-0.0328596174438,-0.0542856741373,-0.019083551824,0.997802149314
748371000000,187,748371000000,world,-0.0380752418597,-0.158195876917,0.202865733507,-0.0360094725896,-0.0562818234622,-0.0246967427237,0.997459645866
748583000000,188,748583000000,world,-0.0444487873642,-0.15989932538,0.201623469116,-0.029549194186,-0.0545957844838,-0.0171160911458,0.997924438454
748794000000,189,748794000000,world,-0.0483447180913,-0.158300550684,0.200106887518,-0.0321866788124,-0.0581446951984,-0.0219632693456,0.997547405854
749147000000,190,749147000000,world,-0.0613910161055,-0.156114003456,0.199110096828,-0.0306512770857,-0.0599707575581,-0.0212689203262,0.997502701991
749467000000,191,749467000000,world,-0.0684538956578,-0.152141359937,0.200272315006,-0.0365351261808,-0.056740628546,-0.0169790880263,0.997575759628
749831000000,192,749831000000,world,-0.0719130724115,-0.153720969729,0.202655424669,-0.0286019216697,-0.0550458514475,-0.0181717090451,0.99790864978
750170000000,193,750170000000,world,-0.0775303368493,-0.155299217216,0.204308061229,-0.0298259047307,-0.0564614680986,-0.0161886775752,0.997827863284
750510000000,194,750510000000,world,-0.0800764477669,-0.154809064056,0.206017256608,-0.0276835406957,-0.0533110014668,-0.0212089741999,0.997968806181
750721000000,195,750721000000,world,-0.0853011958891,-0.154674950256,0.205073597994,-0.0275158944456,-0.0526469803655,-0.0214680897113,0.998003152367
750947000000,196,750947000000,world,-0.0888265656611,-0.1543751053,0.207761455327,-0.0285566166436,-0.0494763933037,-0.0173745000938,0.998215774719
751167000000,197,751167000000,world,-0.0932488652515,-0.157520201799,0.207184613958,-0.0259630434994,-0.0447968013712,-0.0227512571428,0.998399492817
751384000000,198,751384000000,world,-0.0978999112692,-0.155439858752,0.207219535237,-0.0259459736795,-0.0411628390644,-0.0220618370811,0.998571831405
751750000000,199,751750000000,world,-0.0972671611876,-0.15154950847,0.213477843587,-0.0303755189316,-0.0381442161435,-0.019407778219,0.998621892795
752030000000,200,752030000000,world,-0.106159865411,-0.161489478632,0.209899855929,-0.0299932866854,-0.0318896526983,-0.0229793920706,0.998776952249
752448000000,201,752448000000,world,-0.107358526194,-0.153127315708,0.21993649331,-0.0203784476538,-0.0329732709062,-0.0178475627648,0.999089058483
752884000000,202,752884000000,world,-0.113166864596,-0.156965289973,0.218922680495,-0.0264747134885,-0.0240198538472,-0.01920598537,0.999176293901
753100000000,203,753100000000,world,-0.118106784146,-0.159810069797,0.218772863483,-0.0264386615864,-0.0245991528015,-0.0278476338212,0.998959652912
753315000000,204,753315000000,world,-0.12237216674,-0.163151806313,0.219940261053,-0.0277052950225,-0.0230800958442,-0.0183288746049,0.999181554153
753525000000,205,753525000000,world,-0.121867579445,-0.157373495559,0.224523869306,-0.020475615506,-0.0216679898348,-0.0252844212647,0.999235680622
753735000000,206,753735000000,world,-0.125919154246,-0.158547267844,0.223014508243,-0.0237858026079,-0.0190812617123,-0.0197177031593,0.999340459117
754006000000,207,754006000000,world,-0.126509920263,-0.160929832173,0.224852423747,-0.0262613944418,-0.0197147169671,-0.0230068246025,0.999195854234
754351000000,208,754351000000,world,-0.134285214276,-0.16322807389,0.22562196112,-0.0198644702642,-0.0181370292371,-0.0229904806523,0.9993737483
754645000000,209,754645000000,world,-0.137540267938,-0.164684849663,0.223257817436,-0.0228026378168,-0.0139551896985,-0.024649018819,0.999338640432
755062000000,210,755062000000,world,-0.137408139548,-0.159298803925,0.22880065772,-0.0228442044571,-0.0146800455189,-0.0193948635428,0.999443083849
755509000000,211,755509000000,world,-0.144454096309,-0.157605551179,0.225132706644,-0.0170950852761,-0.0136817946946,-0.0254623767445,0.99943595789
755724000000,212,755724000000,world,-0.147646237123,-0.152848564729,0.227776378857,-0.0192909755339,-0.015382753349,-0.0213066779617,0.999468486065
755960000000,213,755960000000,world,-0.147387831835,-0.157361680657,0.223681002327,-0.0325324205444,-0.0144729754888,-0.0229930789985,0.999101342664
756175000000,214,756175000000,world,-0.154366354911,-0.152916245606,0.225190282761,-0.028558506953,-0.0086124957602,-0.0148166482346,0.999445197864
756383000000,215,756383000000,world,-0.155412747934,-0.147625640024,0.227649508426,-0.023815819557,-0.00849924701333,-0.0164190481921,0.999545388862
756730000000,216,756730000000,world,-0.158095587862,-0.151458240603,0.225270591162,-0.0215655591881,-0.00952037135881,-0.0204843914725,0.999512220482
757066000000,217,757066000000,world,-0.160808493949,-0.148622160027,0.228834550246,-0.0200144058667,-0.00923462267426,-0.0175108298631,0.999603679535
757448000000,218,757448000000,world,-0.168104600315,-0.145964169854,0.226490394479,-0.0174680241482,-0.00996257903856,-0.0232556421474,0.999527283399
757910000000,219,757910000000,world,-0.172297831813,-0.147844884318,0.22628452852,-0.0213013078019,-0.0122004118335,-0.0154175470842,0.99957976344
758123000000,220,758123000000,world,-0.178057215316,-0.14843642221,0.221660724236,-0.0207937252566,-0.0100770651845,-0.0260192966904,0.999394351568
758331000000,221,758331000000,world,-0.181378995289,-0.147163624137,0.221667422575,-0.0298178456868,-0.0127339325914,-0.0194452525237,0.999285057025
758557000000,222,758557000000,world,-0.182135797886,-0.147254931011,0.222883137373,-0.0208575932033,-0.0131526321109,-0.0200835985381,0.999494181146
758772000000,223,758772000000,world,-0.187170756211,-0.144045660538,0.220636226995,-0.0240173319713,-0.0123553710798,-0.019827470888,0.999438534362
759098000000,224,759098000000,world,-0.190877693962,-0.14948065349,0.220594792553,-0.0273505270909,-0.010773363791,-0.0158211617412,0.999442631741
759390000000,225,759390000000,world,-0.194165254597,-0.146673712767,0.220221142669,-0.0255409310227,-0.0118941637492,-0.0156339083578,0.9994807505
759813000000,226,759813000000,world,-0.197782298955,-0.144307012902,0.222715418834,-0.0302603240378,-0.0100085240797,-0.0139980563133,0.999393914657
760374000000,227,760374000000,world,-0.202334276218,-0.14327104407,0.224088198352,-0.024100637404,-0.00675435475964,-0.019401043938,0.999498442952
760866000000,228,760866000000,world,-0.202581393316,-0.142469040493,0.23289567951,-0.0246115585777,-0.00676638120527,-0.0189966651408,0.999493678811
761174000000,229,761174000000,world,-0.200477988137,-0.140663237577,0.236307872501,-0.024022354659,-0.00726573503705,-0.0189924574628,0.999504588349
761398000000,230,761398000000,world,-0.203469923245,-0.139328143513,0.238948122709,-0.0235042838001,-0.00554535855341,-0.0185969554435,0.999535367503
761703000000,231,761703000000,world,-0.20861365802,-0.139570760445,0.241122347628,-0.00330779337632,-0.00318288883626,-0.0142390388163,0.999888082485
762039000000,232,762039000000,world,-0.204945604593,-0.139253078691,0.237403423134,-0.0165911688935,-0.000916995681178,-0.0176046132204,0.999706941972
762445000000,233,762445000000,world,-0.205013775899,-0.141972223245,0.234500598385,-0.0253798305446,-0.00568161272758,-0.0205145593383,0.999451217586
762932000000,234,762932000000,world,-0.207650442556,-0.140247344428,0.229008622964,-0.0257475847371,-0.00366899791916,-0.0214473361196,0.99943164454
763156000000,235,763156000000,world,-0.205064494495,-0.142636617989,0.226061625384,-0.0236959961801,-0.00281682082203,-0.0156053260446,0.999593436895
763367000000,236,763367000000,world,-0.20451749474,-0.140617004873,0.221223254331,-0.0292185738623,-0.00482541434465,-0.024035226963,0.999272384379
763579000000,237,763579000000,world,-0.204400263268,-0.141091028048,0.218625840704,-0.0290415351856,-0.00481407126461,-0.0210371544123,0.999345211669
763800000000,238,763800000000,world,-0.2043983268,-0.141830019509,0.215636994492,-0.0199697155178,-0.00395891522078,-0.0194493000647,0.999603552504
764042000000,239,764042000000,world,-0.20473520449,-0.141597622328,0.212045430773,-0.0281948913416,-0.0034814918094,-0.0153591975567,0.999478375137
764405000000,240,764405000000,world,-0.205902429201,-0.144396179662,0.20904074792,-0.0217498703748,-0.00931004056915,-0.0160892013513,0.999590618145
764832000000,241,764832000000,world,-0.209516907578,-0.146937962247,0.200839122399,-0.0272925091697,-0.0118193335091,-0.0204882256196,0.999347614651
765304000000,242,765304000000,world,-0.207823647025,-0.143376158212,0.19700568818,-0.0296668508799,-0.0113999775469,-0.0173657311252,0.999343959732
765548000000,243,765548000000,world,-0.206380690089,-0.139871227007,0.193434815613,-0.0210736206405,-0.0122923551703,-0.0209483502339,0.999482849848
765770000000,244,765770000000,world,-0.209225409072,-0.14719124443,0.189932548651,-0.0286799611236,-0.0150256856341,-0.017254961645,0.999326750818
765984000000,245,765984000000,world,-0.21182075284,-0.139343344486,0.18646538729,-0.0267003591673,-0.0133809813176,-0.0145290872788,0.999448320716
766200000000,246,766200000000,world,-0.209030836145,-0.139821841599,0.183008437299,-0.022990915057,-0.0145641418743,-0.0236788095429,0.99934909695
766463000000,247,766463000000,world,-0.205065747392,-0.139068625199,0.178934242428,-0.0304573781446,-0.0172867334979,-0.0195855071073,0.999194638133
766833000000,248,766833000000,world,-0.20739462649,-0.139434218956,0.173720298213,-0.021207554051,-0.0171945533209,-0.012510746137,0.999548932378
767132000000,249,767132000000,world,-0.204867835405,-0.137699062589,0.167197168438,-0.0204372184715,-0.0154120060062,-0.0199834974611,0.999472585918
767562000000,250,767562000000,world,-0.206111796445,-0.140956588421,0.158525277582,-0.0258639337708,-0.0172656708988,-0.019183424873,0.99933225193
767968000000,251,767968000000,world,-0.205827142876,-0.136981683577,0.153328636757,-0.0297415027146,-0.0169936691032,-0.0198877908556,0.999215259092
768183000000,252,768183000000,world,-0.208712638057,-0.136004288789,0.149500291463,-0.0294764203823,-0.018122157354,-0.0166356827966,0.999262719265
768395000000,253,768395000000,world,-0.210737674619,-0.136701313564,0.147210819509,-0.0259648803744,-0.0204221713649,-0.0180722760003,0.999290824907
768607000000,254,768607000000,world,-0.211858524507,-0.135905725156,0.142060431687,-0.0271138280086,-0.0212242573979,-0.0144787287861,0.999302125306
768823000000,255,768823000000,world,-0.211014853891,-0.135565561957,0.13901553825,-0.0281560526761,-0.0245205553574,-0.0157199625691,0.999179093976
769165000000,256,769165000000,world,-0.211840114243,-0.13379153619,0.135969852283,-0.0253502877386,-0.0201552144692,-0.0137727027016,0.999380529579
769479000000,257,769479000000,world,-0.207317586338,-0.134096037864,0.128944773324,-0.0253851779226,-0.0259472820301,-0.0197840878085,0.999145095152
769769000000,258,769769000000,world,-0.209314267666,-0.133205022616,0.12518482613,-0.0271430030206,-0.0287175796461,-0.0188409174723,0.999041329393
770183000000,259,770183000000,world,-0.210727713457,-0.134505182468,0.116851180777,-0.0230026883898,-0.0337300353115,-0.0159738510855,0.999038536357
770564000000,260,770564000000,world,-0.21270458878,-0.134573710599,0.109169691384,-0.031216721976,-0.0343383697245,-0.0188412167114,0.998744912972
770780000000,261,770780000000,world,-0.213904535366,-0.137040186557,0.103419490005,-0.0294616400911,-0.0344540503068,-0.0142754833672,0.998869931851
770993000000,262,770993000000,world,-0.214770001064,-0.138611157776,0.102185883193,-0.0275255437797,-0.0340375800493,-0.0144901026606,0.998936346575
771210000000,263,771210000000,world,-0.222755415973,-0.137680341376,0.0965632331595,-0.0352003726011,-0.0302051336432,-0.0133971813558,0.998833869671
771447000000,264,771447000000,world,-0.208035472243,-0.135755431231,0.0952048934209,-0.0282189391262,-0.0356629448189,-0.016111151422,0.998835460244
771900000000,265,771900000000,world,-0.207920484232,-0.142029222001,0.0854718752729,-0.029165217738,-0.0320746923177,-0.0121748736991,0.99898567389
772333000000,266,772333000000,world,-0.207147440596,-0.141186989397,0.0776007933592,-0.0341293020116,-0.0343771627144,-0.0177502573825,0.998668278154
772839000000,267,772839000000,world,-0.208278536152,-0.146292866522,0.0693104568925,-0.0304393232641,-0.0347428987704,-0.015959315931,0.998805125547
773054000000,268,773054000000,world,-0.211362191245,-0.1427160703,0.0616554837394,-0.034005504597,-0.0319289402072,-0.0139358825144,0.998814276837
773274000000,269,773274000000,world,-0.210131555291,-0.144484170956,0.0576700695149,-0.026306361148,-0.033681145628,-0.0207605788131,0.998870639352
773493000000,270,773493000000,world,-0.211787879123,-0.14768450458,0.0535496860679,-0.028428630801,-0.0351217066029,-0.017803868749,0.998819954213
773704000000,271,773704000000,world,-0.212730388491,-0.144626104063,0.0476699987739,-0.0357600965279,-0.0351028793122,-0.0166001023759,0.998605748011
774054000000,272,774054000000,world,-0.213647637399,-0.146111543068,0.0405332599518,-0.0273999070193,-0.0303143910733,-0.0182611883327,0.998997903797
774560000000,273,774560000000,world,-0.216586571647,-0.148309500239,0.0280751478512,-0.0405564872828,-0.0304265350772,-0.0228828787615,0.998451686944
774929000000,274,774929000000,world,-0.217116478672,-0.148038628474,0.0258848698627,-0.0332489774352,-0.0303603685681,-0.0192806784315,0.998799784221
775184000000,275,775184000000,world,-0.220843171835,-0.15019378114,0.0231472159791,-0.0230354943411,-0.0318688268801,-0.0143753607043,0.999123162017
775396000000,276,775396000000,world,-0.2220773787,-0.151352820917,0.0203258139956,-0.0303715547642,-0.0330898992171,-0.0162619171516,0.998858437058
775607000000,277,775607000000,world,-0.226694248365,-0.153953838413,0.0142445350131,-0.0368516444241,-0.0333945556303,-0.0154802767723,0.99864263928
775821000000,278,775821000000,world,-0.227000121921,-0.154091957635,0.0127658093403,-0.0331618241944,-0.0339638928224,-0.0206165869217,0.99865995401
776047000000,279,776047000000,world,-0.227956453503,-0.156101098158,0.0109730619774,-0.0292894227882,-0.0384401343642,-0.0195318427838,0.998640572428
776385000000,280,776385000000,world,-0.232086607708,-0.158289452421,0.00803346559106,-0.0325436559995,-0.0393707740874,-0.0149885704129,0.998582092449
776704000000,281,776704000000,world,-0.235318668276,-0.160197996471,0.00184199291611,-0.0337556487641,-0.0409378328923,-0.0211749107306,0.998366802919
777107000000,282,777107000000,world,-0.236888327767,-0.164452907266,-0.00207793524257,-0.0326651516778,-0.039687120322,-0.0195438059367,0.998486835164
777707000000,283,777707000000,world,-0.238998288929,-0.166763002595,-0.00759962018033,-0.030400976252,-0.0253869007284,-0.0216094654185,0.998981639931
778106000000,284,778106000000,world,-0.238702377129,-0.174627894868,-0.00876282023761,-0.033256429023,-0.0175571409564,-0.021131527305,0.999069174424
778413000000,285,778413000000,world,-0.244034752076,-0.178667289511,-0.0156366327344,-0.0331905613781,-0.00847691687925,-0.0222111218665,0.999166249721
778778000000,286,778778000000,world,-0.24889227395,-0.181190869353,-0.0197198785827,-0.0318407634411,0.001110181633,-0.0234567012596,0.999217051719
779072000000,287,779072000000,world,-0.252682339657,-0.186112632584,-0.0247120574596,-0.0374296758855,0.00821567429903,-0.0171374600326,0.999118526263
779399000000,288,779399000000,world,-0.253744588984,-0.187278817315,-0.0268103240684,-0.044668734684,0.00877775395107,-0.009007862231,0.998922676485
779905000000,289,779905000000,world,-0.244142029049,-0.194061480027,-0.0258629184796,-0.0310760055616,0.00962171071363,-0.0207129890377,0.999256061601
780240000000,290,780240000000,world,-0.239374551699,-0.195448749728,-0.0257621055567,-0.0353239488807,0.0108555769956,-0.0230777880929,0.999050444562
780463000000,291,780463000000,world,-0.231810074984,-0.195486179462,-0.0227726616625,-0.0318449779861,0.0125953452384,-0.022907627687,0.999150887128
780682000000,292,780682000000,world,-0.22772334802,-0.197384348938,-0.0252410417022,-0.0325790955915,0.0122286985163,-0.02534954616,0.999072801137
780888000000,293,780888000000,world,-0.224871105885,-0.199985854044,-0.0249097519015,-0.0363938350721,0.0101132727886,-0.0257907049574,0.998953477405
781112000000,294,781112000000,world,-0.220004208996,-0.201953608703,-0.0219680053918,-0.0319094219084,0.00840828839159,-0.0295835076268,0.999017470096
781449000000,295,781449000000,world,-0.21674661454,-0.204699299426,-0.0208021956403,-0.035529397913,0.00404718492116,-0.0181347860953,0.999195882553
781759000000,296,781759000000,world,-0.209732796442,-0.205850128083,-0.0208884451118,-0.0343996071995,0.00415306743379,-0.0275865525189,0.999018719132
782063000000,297,782063000000,world,-0.201596460202,-0.210528263123,-0.0171016331297,-0.0317305386479,-0.00112807759928,-0.0246284223752,0.999192344431
782348000000,298,782348000000,world,-0.196187014868,-0.212467320538,-0.0158740043187,-0.03218649214,-0.00203321275946,-0.0228976257909,0.999217491091
782710000000,299,782710000000,world,-0.183640153882,-0.215332431935,-0.0125922645418,-0.0401112205301,-0.00173561588883,-0.0261385303475,0.99885176821
782922000000,300,782922000000,world,-0.18125424377,-0.214527881369,-0.0157723928544,-0.0352170543263,-0.00383659479407,-0.0294026528742,0.998939699696
783137000000,301,783137000000,world,-0.177230215185,-0.215195976924,-0.0158734089547,-0.0411340947545,-0.00591114540596,-0.0259831965491,0.998798236936
783353000000,302,783353000000,world,-0.172071318842,-0.215973456927,-0.0131380929045,-0.0329812858201,-0.00332416314319,-0.0239082576909,0.99916444089
783567000000,303,783567000000,world,-0.166678255551,-0.216786505582,-0.0102904879282,-0.032979500382,-0.00574886387023,-0.022418574931,0.999188025657
783942000000,304,783942000000,world,-0.157382675144,-0.215507819693,-0.00987511137057,-0.0396681657492,-0.00271680661151,-0.0267232942017,0.998851801387
784246000000,305,784246000000,world,-0.148976685568,-0.22086335927,-0.00976840117859,-0.040392255924,-0.00150915294311,-0.0319753480522,0.998670999497
784587000000,306,784587000000,world,-0.139598508289,-0.220651751224,-0.00695486859104,-0.0283949072149,0.00113598915884,-0.0253424611701,0.999274836286
785133000000,307,785133000000,world,-0.130656485231,-0.216608986654,-0.00826123359915,-0.0331849681106,0.00255251652872,-0.0255842524362,0.999118455729
785358000000,308,785358000000,world,-0.127258371502,-0.214479076548,-0.00843905143037,-0.0377532486069,0.00473747651968,-0.0261811084917,0.998932829621
785609000000,309,785609000000,world,-0.115481618466,-0.212190615286,-0.00530934255825,-0.0289902980438,0.00217710370517,-0.0249874182121,0.99926495574
785831000000,310,785831000000,world,-0.11713812752,-0.210499859869,-0.00771983690235,-0.0294041622823,0.00602958145291,-0.0238368739055,0.999265151414
786056000000,311,786056000000,world,-0.111212089782,-0.209716475927,-0.0075983624085,-0.0370874597849,0.00728008898342,-0.0269256838337,0.998922683785
786448000000,312,786448000000,world,-0.106103186607,-0.206660970317,-0.00748182236767,-0.0304954293335,0.0102925495142,-0.0239191613892,0.999195659485
786788000000,313,786788000000,world,-0.0943075775815,-0.204817405368,-0.00712017399332,-0.0331472049515,0.0105663306167,-0.0250413329923,0.999080851134
787183000000,314,787183000000,world,-0.089060695108,-0.202593984533,-0.00857903327634,-0.0299057064324,0.0114525776483,-0.033726970879,0.998917903846
787679000000,315,787679000000,world,-0.0800554359123,-0.199544808085,-0.0093087571795,-0.035391116923,0.0275018661996,-0.0261574869211,0.998652543218
787905000000,316,787905000000,world,-0.0741316814823,-0.197877663571,-0.00942771768172,-0.0342521391806,0.0300332907331,-0.0257300467987,0.998630440704
788120000000,317,788120000000,world,-0.0708807852857,-0.196590291577,-0.00952172176113,-0.0256102509513,0.0297593537809,-0.0202803084196,0.999023125358
788342000000,318,788342000000,world,-0.066961132264,-0.195027641538,-0.00969004309136,-0.032116327824,0.0350472618776,-0.0220952081876,0.998625071134
788588000000,319,788588000000,world,-0.0598301972535,-0.19362044343,-0.011154811555,-0.029157211429,0.0377705604924,-0.030065936357,0.99840837399
788952000000,320,788952000000,world,-0.0555952611876,-0.192333923698,-0.0118391822188,-0.0251950033616,0.0374552157752,-0.0234485610106,0.998705403812
789314000000,321,789314000000,world,-0.0491201633784,-0.190526156136,-0.0141515283133,-0.0331375996463,0.038804973985,-0.0179843281921,0.998535245959
789629000000,322,789629000000,world,-0.0461528425804,-0.190294081954,-0.015389753844,-0.0328081392337,0.0428457840495,-0.0206920720474,0.99832845444
790025000000,323,790025000000,world,-0.0337539216711,-0.190452948721,-0.0156651299108,-0.0304321519075,0.0485879436892,-0.0257725887023,0.998022479471
790281000000,324,790281000000,world,-0.0277732307987,-0.188258566615,-0.016458295031,-0.0272904903773,0.0535335475368,-0.0220429533821,0.99794964634
790529000000,325,790529000000,world,-0.0228925072402,-0.186780056918,-0.0184556271826,-0.0328655430447,0.0523514924725,-0.0269188387388,0.997724688197
790762000000,326,790762000000,world,-0.0197979355001,-0.185897219273,-0.0202312007862,-0.036922572562,0.0545957811495,-0.0204342654923,0.997616391761
791074000000,327,791074000000,world,-0.0128958956101,-0.18377555328,-0.0212104491228,-0.0280603349735,0.059796308161,-0.0236455700956,0.997535917221
791413000000,328,791413000000,world,-0.00605904283203,-0.181440045754,-0.0234002392497,-0.0319385207017,0.0669849514831,-0.0192617164804,0.997056635026
791797000000,329,791797000000,world,0.00263163886946,-0.178225056322,-0.0243412170359,-0.0278886314061,0.0753731364732,-0.0261526715448,0.996422175741
792302000000,330,792302000000,world,0.0117521671483,-0.17665030907,-0.0266701092031,-0.0239752155429,0.0738216162706,-0.0214002339574,0.996753524196
792611000000,331,792611000000,world,0.0153635610502,-0.174670848233,-0.0302185780039,-0.0288712730689,0.0797680481525,-0.0161388662463,0.996264545732
792832000000,332,792832000000,world,0.0133690710853,-0.17277539601,-0.0313451154294,-0.0239793488982,0.0822886992578,-0.0209097788107,0.996100568191
793059000000,333,793059000000,world,0.0209506015775,-0.171137330499,-0.0319811637375,-0.0276342467806,0.0818364541716,-0.0254566831349,0.995937297453
793284000000,334,793284000000,world,0.0305226810504,-0.170278952711,-0.0325208775203,-0.0278458818497,0.0821999075798,-0.0209394157724,0.996006688193
793552000000,335,793552000000,world,0.0359231355069,-0.168034948434,-0.0352480646254,-0.0323544594596,0.0863538338932,-0.0183913853025,0.995569164484
793880000000,336,793880000000,world,0.0480475941212,-0.164790831078,-0.0354687915941,-0.0208217845363,0.0902819347648,-0.0221619992056,0.995451893029
794308000000,337,794308000000,world,0.0553939077969,-0.162702317983,-0.0402073714039,-0.0298977665357,0.0915047060266,-0.0208489386844,0.995137344333
794930000000,338,794930000000,world,0.0683701927695,-0.160285138734,-0.0438860815919,-0.0260260383895,0.0833972343165,-0.0192087221976,0.995991250778
795402000000,339,795402000000,world,0.0699563540608,-0.159261477244,-0.0472986863576,-0.0274740828564,0.067243128322,-0.0190307601016,0.9971766978
795814000000,340,795814000000,world,0.0743465838102,-0.157973189369,-0.0489156114402,-0.0277986766312,0.0519699093391,-0.0186764375659,0.998086946504
796189000000,341,796189000000,world,0.0791254970346,-0.157153243312,-0.0504559039432,-0.0282855950587,0.0375471943501,-0.0183113409607,0.998726603281
796551000000,342,796551000000,world,0.0795916020701,-0.155577004667,-0.0533459977684,-0.0266438929889,0.0255397015981,-0.0206405831126,0.9991054964
797084000000,343,797084000000,world,0.081345067862,-0.154714503518,-0.0578012034479,-0.0266197353011,0.0177537542829,-0.0214295790824,0.999258208393
797684000000,344,797684000000,world,0.0801740197299,-0.154106830023,-0.0623424127027,-0.0251955970561,0.0101634214982,-0.0198340396919,0.999434088683
798042000000,345,798042000000,world,0.0808655981022,-0.153448173596,-0.0641838965606,-0.0238778596548,0.00466804029596,-0.0201404841022,0.999501084601
798366000000,346,798366000000,world,0.0820058491514,-0.153769835175,-0.0667458904573,-0.0231679257591,-0.00063184387145,-0.0209180157747,0.999512523486
798715000000,347,798715000000,world,0.0814443363555,-0.152378353172,-0.0684293765787,-0.0228309258703,-0.00503117218342,-0.0207537920522,0.999511238679
799059000000,348,799059000000,world,0.0847951490842,-0.154291050212,-0.0691157725817,-0.0308287280969,-0.011232842795,-0.0160733515363,0.999332307162
799428000000,349,799428000000,world,0.0877531238016,-0.128934655223,-0.0741259121407,-0.0299227924155,-0.0178341373636,-0.0144004975439,0.999289345339
799990000000,350,799990000000,world,0.0830592787154,-0.0606036551123,-0.0835171586366,-0.0316857477566,-0.0236667282528,-0.00706426961659,0.999192671839
800241000000,351,800241000000,world,0.083861650148,-0.0599929170733,-0.0821148113645,-0.0252574976117,-0.024108100667,-0.00717442656172,0.999364491014
800506000000,352,800506000000,world,0.0838362523751,-0.0600877563328,-0.0821390964985,-0.0252853780961,-0.0240911647948,-0.00722637288508,0.999363820122
800770000000,353,800770000000,world,0.0839738798416,-0.0594217817215,-0.0820436363887,-0.0249720874959,-0.0241519228654,-0.0072788082581,0.999369850665
801114000000,354,801114000000,world,0.0839967260496,-0.059092360608,-0.0820149691561,-0.0248390193683,-0.0241637112244,-0.00728460850302,0.999372839663
801555000000,355,801555000000,world,0.0841174346059,-0.0586713132538,-0.0819209234058,-0.0246398978724,-0.0242218533594,-0.00732339402223,0.999376077937
801925000000,356,801925000000,world,0.0841445770432,-0.0584949180198,-0.0819027052487,-0.0245333446685,-0.0242324907615,-0.00736241957862,0.999378154739
802171000000,357,802171000000,world,0.0842097947109,-0.0583901294166,-0.0818729197306,-0.0244824699493,-0.0242582879529,-0.00740981264001,0.999378426227
802527000000,358,802527000000,world,0.0841996670751,-0.0583648992005,-0.0818744362484,-0.0244952344382,-0.0242536322987,-0.00741381245013,0.999378196778
802768000000,359,802768000000,world,0.0842389091704,-0.0580766732021,-0.0818529087071,-0.0243414103779,-0.0242687913837,-0.00744272566972,0.99938137232
803027000000,360,803027000000,world,0.08429215023,-0.058080338113,-0.0818212411739,-0.0244011172521,-0.024292623239,-0.00745161476483,0.999379271033
803289000000,361,803289000000,world,0.0842486732658,-0.0578496566148,-0.0818585004937,-0.0242675194237,-0.0242629148064,-0.00748780118655,0.99938297529
803591000000,362,803591000000,world,0.0843104745264,-0.0578542324583,-0.0817896717335,-0.0243011827089,-0.0242987356799,-0.00747590678872,0.999381376043
803905000000,363,803905000000,world,0.0843330590811,-0.0573679141334,-0.0817803100895,-0.0240232103875,-0.0243013056869,-0.00753421718006,0.999387596219
804250000000,364,804250000000,world,0.0843720128526,-0.0572322040465,-0.0817538029168,-0.0239620814711,-0.0243181610146,-0.00755721013024,0.999388480157
804570000000,365,804570000000,world,0.0844010514006,-0.0572011678222,-0.0817267761325,-0.0239673279748,-0.0243335132951,-0.00755430019578,0.999388002664
804914000000,366,804914000000,world,0.0844359336675,-0.0572571955835,-0.081705347089,-0.0240154124856,-0.0243505568191,-0.00755510763879,0.999386427111
805165000000,367,805165000000,world,0.0844556698291,-0.0569341668177,-0.0817136049686,-0.0238269374824,-0.0243513474023,-0.00761799474851,0.999390441762
805414000000,368,805414000000,world,0.0844784828172,-0.0568277903266,-0.081699422603,-0.0237793176879,-0.0243608301619,-0.00763424197884,0.999391220871
805648000000,369,805648000000,world,0.0845049466605,-0.0567197786447,-0.0817017440132,-0.0237299047211,-0.0243681709117,-0.00765488071372,0.999392058538
805811000000,370,805811000000,world,0.0845540632623,-0.0568855673587,-0.0816203438124,-0.0238534572959,-0.0244044660615,-0.00762863150697,0.999388432289
806256000000,371,806256000000,world,0.0845679261462,-0.0566069819588,-0.0816203773894,-0.0236950792175,-0.0244043950193,-0.00767608249072,0.999391838311
806637000000,372,806637000000,world,0.0845927885053,-0.0565099637225,-0.0816155992655,-0.0236512554795,-0.0244129288922,-0.00769069952597,0.999392555585
806924000000,373,806924000000,world,0.0846187821375,-0.0565174416632,-0.0815893962181,-0.0236763730055,-0.024427383002,-0.00768349124749,0.999391663105
807145000000,374,807145000000,world,0.0846246520737,-0.0562360280606,-0.0816155649706,-0.0235121986349,-0.0244209184563,-0.00773250413778,0.999395318999
807354000000,375,807354000000,world,0.0846493029179,-0.0562884233832,-0.0816032129715,-0.0235552391344,-0.0244331891279,-0.00772878180236,0.999394034358
