header: 
  seq: 137
  stamp: 
    secs: 21663
    nsecs:  34000000
  frame_id: "world"
pose: 
  position: 
    x: -2.76328755717e-05
    y: -9.34321542445e-06
    z: 9.94328274828e-06
  orientation: 
    x: 3.66488916302e-06
    y: 1.18584712232e-05
    z: 1.46724669294e-05
    w: 0.999999999815
---
header: 
  seq: 138
  stamp: 
    secs: 21663
    nsecs: 321000000
  frame_id: "world"
pose: 
  position: 
    x: -1.92278002942e-05
    y: -4.26352698923e-06
    z: 2.26863016906e-06
  orientation: 
    x: -2.54907172337e-06
    y: 8.73314729652e-06
    z: 1.65926437028e-07
    w: 0.999999999959
---
header: 
  seq: 139
  stamp: 
    secs: 21663
    nsecs: 703000000
  frame_id: "world"
pose: 
  position: 
    x: -1.62250344147e-05
    y: -6.93672382113e-06
    z: 2.16493699554e-05
  orientation: 
    x: 2.96460029808e-06
    y: 6.16024544692e-06
    z: 1.71342107904e-05
    w: 0.99999999983
---
header: 
  seq: 140
  stamp: 
    secs: 21663
    nsecs: 921000000
  frame_id: "world"
pose: 
  position: 
    x: 1.88582725968e-05
    y: 2.58171603491e-05
    z: 1.28554429466e-05
  orientation: 
    x: 8.1477473922e-06
    y: -9.98442555777e-06
    z: 1.73960597708e-05
    w: 0.999999999766
---
header: 
  seq: 141
  stamp: 
    secs: 21664
    nsecs: 136000000
  frame_id: "world"
pose: 
  position: 
    x: 1.58251646099e-06
    y: 1.06770958155e-05
    z: 2.94161200145e-05
  orientation: 
    x: 9.87963266092e-06
    y: -3.68681844141e-06
    z: 4.4100135665e-05
    w: 0.999999998972
---
header: 
  seq: 142
  stamp: 
    secs: 21664
    nsecs: 408000000
  frame_id: "world"
pose: 
  position: 
    x: -2.74095655186e-05
    y: -1.74771666934e-05
    z: 1.66395911947e-05
  orientation: 
    x: -1.87776026861e-06
    y: 1.0002409906e-05
    z: 1.93374908076e-05
    w: 0.999999999761
---
header: 
  seq: 143
  stamp: 
    secs: 21664
    nsecs: 660000000
  frame_id: "world"
pose: 
  position: 
    x: -2.74389221886e-05
    y: -1.75702916749e-05
    z: 1.65731689776e-05
  orientation: 
    x: -1.92614788784e-06
    y: 1.00188062764e-05
    z: 1.93347241247e-05
    w: 0.999999999761
---
header: 
  seq: 144
  stamp: 
    secs: 21664
    nsecs: 964000000
  frame_id: "world"
pose: 
  position: 
    x: 4.28090752393e-05
    y: 2.83519311779e-05
    z: 6.68417924317e-05
  orientation: 
    x: 2.0772711615e-05
    y: -2.78027600397e-05
    z: 4.6924189439e-05
    w: 0.999999998297
---
header: 
  seq: 145
  stamp: 
    secs: 21665
    nsecs: 489000000
  frame_id: "world"
pose: 
  position: 
    x: -3.56467680831e-05
    y: -9.02173360373e-06
    z: 2.89486306428e-05
  orientation: 
    x: 4.06715662244e-06
    y: 1.34565398135e-05
    z: 2.31487629123e-05
    w: 0.999999999633
---
header: 
  seq: 146
  stamp: 
    secs: 21665
    nsecs: 822000000
  frame_id: "world"
pose: 
  position: 
    x: 3.78736490347e-06
    y: 2.36564246734e-05
    z: 1.59011087817e-05
  orientation: 
    x: 1.66284134854e-05
    y: -5.43345003555e-06
    z: 4.50266160826e-05
    w: 0.999999998833
---
header: 
  seq: 147
  stamp: 
    secs: 21666
    nsecs:  18000000
  frame_id: "world"
pose: 
  position: 
    x: -8.74059242051e-06
    y: 2.29982906603e-05
    z: -1.09754658695e-07
  orientation: 
    x: 6.67426502287e-06
    y: 4.78298807106e-06
    z: -8.27046642315e-06
    w: 0.999999999932
---
header: 
  seq: 148
  stamp: 
    secs: 21666
    nsecs: 254000000
  frame_id: "world"
pose: 
  position: 
    x: 2.49522381637e-05
    y: 1.80344995897e-05
    z: 2.81428710878e-05
  orientation: 
    x: 1.26828863207e-05
    y: -1.64748616756e-05
    z: 4.42768213741e-05
    w: 0.999999998804
---
header: 
  seq: 149
  stamp: 
    secs: 21666
    nsecs: 587000000
  frame_id: "world"
pose: 
  position: 
    x: -4.1298862925e-05
    y: 3.7524112031e-06
    z: 1.61100597325e-05
  orientation: 
    x: 1.03316069678e-05
    y: 1.60683302891e-05
    z: 2.37195636036e-05
    w: 0.999999999536
---
header: 
  seq: 150
  stamp: 
    secs: 21666
    nsecs: 953000000
  frame_id: "world"
pose: 
  position: 
    x: -4.16189432144e-05
    y: 7.03467662788e-07
    z: 1.65839028341e-05
  orientation: 
    x: 7.73815736191e-06
    y: 1.65241817681e-05
    z: 1.93990399497e-05
    w: 0.999999999645
---
header: 
  seq: 151
  stamp: 
    secs: 21667
    nsecs: 329000000
  frame_id: "world"
pose: 
  position: 
    x: 1.76109133463e-05
    y: 5.86396481594e-06
    z: 1.2151734154e-05
  orientation: 
    x: -1.56408543688e-06
    y: -9.53372091142e-06
    z: 1.65199835434e-05
    w: 0.999999999817
---
header: 
  seq: 152
  stamp: 
    secs: 21667
    nsecs: 551000000
  frame_id: "world"
pose: 
  position: 
    x: 3.88396983908e-05
    y: 6.62070760882e-06
    z: 2.61215427599e-05
  orientation: 
    x: -3.59127829867e-06
    y: -2.20717993102e-05
    z: 2.2980520941e-05
    w: 0.999999999486
---
header: 
  seq: 153
  stamp: 
    secs: 21667
    nsecs: 903000000
  frame_id: "world"
pose: 
  position: 
    x: -3.04674922518e-05
    y: 1.2831606e-06
    z: 1.87252626347e-05
  orientation: 
    x: 9.14725296525e-06
    y: 1.45169615244e-05
    z: 1.42668732188e-05
    w: 0.999999999751
---
header: 
  seq: 154
  stamp: 
    secs: 21668
    nsecs:  73000000
  frame_id: "world"
pose: 
  position: 
    x: -1.63421027537e-05
    y: 2.71177418654e-06
    z: 2.06254662771e-06
  orientation: 
    x: 2.18762443176e-06
    y: 6.76561739946e-06
    z: 2.6964080461e-06
    w: 0.999999999971
---
header: 
  seq: 155
  stamp: 
    secs: 21668
    nsecs: 264000000
  frame_id: "world"
pose: 
  position: 
    x: 2.19145258598e-05
    y: -1.71743504325e-05
    z: 4.44124088972e-05
  orientation: 
    x: -6.19711499142e-07
    y: -1.46714719271e-05
    z: 4.70370541163e-05
    w: 0.999999998786
---
header: 
  seq: 156
  stamp: 
    secs: 21668
    nsecs: 446000000
  frame_id: "world"
pose: 
  position: 
    x: -3.29694630636e-05
    y: -9.27179189603e-06
    z: 1.3044111256e-05
  orientation: 
    x: 3.81550580551e-06
    y: 1.50687646929e-05
    z: 1.52501961529e-05
    w: 0.999999999763
---
header: 
  seq: 157
  stamp: 
    secs: 21668
    nsecs: 615000000
  frame_id: "world"
pose: 
  position: 
    x: -2.38471129705e-05
    y: 1.27251805679e-05
    z: 2.51219789789e-05
  orientation: 
    x: 1.73248063132e-05
    y: 9.36837568113e-06
    z: 2.50057619142e-05
    w: 0.999999999493
---
header: 
  seq: 158
  stamp: 
    secs: 21668
    nsecs: 819000000
  frame_id: "world"
pose: 
  position: 
    x: -2.39259697992e-05
    y: 1.27409421111e-05
    z: 2.51412566286e-05
  orientation: 
    x: 1.73331391037e-05
    y: 9.40408608108e-06
    z: 2.50105767791e-05
    w: 0.999999999493
---
header: 
  seq: 159
  stamp: 
    secs: 21669
    nsecs:  66000000
  frame_id: "world"
pose: 
  position: 
    x: -4.47929960501e-06
    y: 2.4363729608e-05
    z: -3.19405160099e-07
  orientation: 
    x: 7.78362573278e-06
    y: 3.30258922055e-06
    z: -7.62301442542e-06
    w: 0.999999999935
---
header: 
  seq: 160
  stamp: 
    secs: 21669
    nsecs: 332000000
  frame_id: "world"
pose: 
  position: 
    x: 3.13395066769e-05
    y: 4.59747070636e-06
    z: 4.6613462473e-05
  orientation: 
    x: 7.99015923656e-06
    y: -1.9591927386e-05
    z: 4.6888970184e-05
    w: 0.999999998677
---
header: 
  seq: 161
  stamp: 
    secs: 21669
    nsecs: 523000000
  frame_id: "world"
pose: 
  position: 
    x: -3.30239199684e-05
    y: 1.2827442788e-06
    z: 8.8423366833e-06
  orientation: 
    x: 8.69774430396e-06
    y: 1.40594665901e-05
    z: 1.49566794752e-05
    w: 0.999999999751
---
header: 
  seq: 162
  stamp: 
    secs: 21669
    nsecs: 771000000
  frame_id: "world"
pose: 
  position: 
    x: 3.59855876013e-05
    y: 1.54424014909e-06
    z: 9.61816658673e-06
  orientation: 
    x: -5.214754763e-06
    y: -1.78650352544e-05
    z: 1.95084176014e-05
    w: 0.999999999637
---
header: 
  seq: 163
  stamp: 
    secs: 21670
    nsecs:  45000000
  frame_id: "world"
pose: 
  position: 
    x: -1.45402409544e-05
    y: -1.34857637022e-05
    z: 2.93129050988e-06
  orientation: 
    x: 9.64989723597e-08
    y: 5.78098706631e-06
    z: 1.21090097298e-05
    w: 0.99999999991
---
header: 
  seq: 164
  stamp: 
    secs: 21670
    nsecs: 355000000
  frame_id: "world"
pose: 
  position: 
    x: -1.45402409544e-05
    y: -1.34857637022e-05
    z: 2.93129050988e-06
  orientation: 
    x: 9.64989723597e-08
    y: 5.78098706631e-06
    z: 1.21090097298e-05
    w: 0.99999999991
---
header: 
  seq: 165
  stamp: 
    secs: 21670
    nsecs: 550000000
  frame_id: "world"
pose: 
  position: 
    x: 3.25955079461e-05
    y: 4.87522947878e-06
    z: 4.91757309646e-05
  orientation: 
    x: 7.95512095316e-06
    y: -1.99818714198e-05
    z: 4.68722973269e-05
    w: 0.99999999867
---
header: 
  seq: 166
  stamp: 
    secs: 21670
    nsecs: 716000000
  frame_id: "world"
pose: 
  position: 
    x: 5.24477172803e-06
    y: 3.44747750205e-05
    z: -2.12333566196e-06
  orientation: 
    x: 1.26092418199e-05
    y: -1.28234671578e-06
    z: -7.92962055041e-06
    w: 0.999999999888
---
header: 
  seq: 167
  stamp: 
    secs: 21670
    nsecs: 886000000
  frame_id: "world"
pose: 
  position: 
    x: 3.88947864849e-06
    y: 2.48171254498e-05
    z: 2.42619535129e-05
  orientation: 
    x: 1.97233457399e-05
    y: -3.62902596522e-06
    z: 3.83949299798e-05
    w: 0.999999999062
---
header: 
  seq: 168
  stamp: 
    secs: 21671
    nsecs:  39000000
  frame_id: "world"
pose: 
  position: 
    x: 2.76919108728e-05
    y: -4.59728335045e-06
    z: 5.09737510583e-05
  orientation: 
    x: 1.486375366e-06
    y: -1.67540729119e-05
    z: 4.43405005582e-05
    w: 0.999999998876
---
header: 
  seq: 169
  stamp: 
    secs: 21671
    nsecs: 250000000
  frame_id: "world"
pose: 
  position: 
    x: -1.58323400683e-05
    y: 2.58481468336e-05
    z: 3.53283780896e-06
  orientation: 
    x: 8.67347898664e-06
    y: 8.0502504708e-06
    z: -7.18436058309e-06
    w: 0.999999999904
---
header: 
  seq: 170
  stamp: 
    secs: 21671
    nsecs: 544000000
  frame_id: "world"
pose: 
  position: 
    x: -4.73805948786e-06
    y: 3.11884941766e-05
    z: -6.29190253676e-06
  orientation: 
    x: 1.0770913831e-05
    y: 2.1758080491e-06
    z: -7.19340096049e-06
    w: 0.999999999914
---
header: 
  seq: 171
  stamp: 
    secs: 21671
    nsecs: 909000000
  frame_id: "world"
pose: 
  position: 
    x: 3.88083426515e-05
    y: 9.19875958516e-07
    z: 4.33960994997e-05
  orientation: 
    x: 4.63843115853e-06
    y: -2.24639406663e-05
    z: 4.52216626728e-05
    w: 0.999999998714
---
header: 
  seq: 172
  stamp: 
    secs: 21672
    nsecs: 303000000
  frame_id: "world"
pose: 
  position: 
    x: 2.98667146126e-05
    y: 1.10196288006e-05
    z: 1.10733817564e-05
  orientation: 
    x: 9.15658631322e-07
    y: -1.50156483826e-05
    z: 1.85795433883e-05
    w: 0.999999999714
---
header: 
  seq: 173
  stamp: 
    secs: 21672
    nsecs: 627000000
  frame_id: "world"
pose: 
  position: 
    x: 2.99351049762e-05
    y: 8.50232208904e-06
    z: 7.73232477513e-06
  orientation: 
    x: 4.06498884218e-07
    y: -1.57539052408e-05
    z: 1.75107579659e-05
    w: 0.999999999723
---
header: 
  seq: 174
  stamp: 
    secs: 21672
    nsecs: 902000000
  frame_id: "world"
pose: 
  position: 
    x: -1.23655172501e-05
    y: 3.76050957129e-05
    z: 2.43572631007e-05
  orientation: 
    x: 2.4901823026e-05
    y: 2.73412638007e-06
    z: 3.96670038317e-05
    w: 0.999999998899
---
header: 
  seq: 175
  stamp: 
    secs: 21673
    nsecs: 162000000
  frame_id: "world"
pose: 
  position: 
    x: -1.3138691429e-05
    y: -2.13007497223e-05
    z: 1.35379077619e-05
  orientation: 
    x: -2.61938771446e-06
    y: 7.61619730761e-06
    z: 1.17504705474e-05
    w: 0.999999999899
---
header: 
  seq: 176
  stamp: 
    secs: 21673
    nsecs: 426000000
  frame_id: "world"
pose: 
  position: 
    x: -1.31160013552e-05
    y: -2.13161201827e-05
    z: 1.3527588635e-05
  orientation: 
    x: -2.62695311877e-06
    y: 7.6058222468e-06
    z: 1.17501785996e-05
    w: 0.999999999899
---
header: 
  seq: 177
  stamp: 
    secs: 21673
    nsecs: 847000000
  frame_id: "world"
pose: 
  position: 
    x: -1.31160013552e-05
    y: -2.13161201827e-05
    z: 1.3527588635e-05
  orientation: 
    x: -2.62695311877e-06
    y: 7.6058222468e-06
    z: 1.17501785996e-05
    w: 0.999999999899
---
header: 
  seq: 178
  stamp: 
    secs: 21674
    nsecs: 183000000
  frame_id: "world"
pose: 
  position: 
    x: -1.32713985295e-05
    y: -1.65445344464e-05
    z: 3.60581834684e-05
  orientation: 
    x: -5.13959002775e-06
    y: 6.82801373541e-06
    z: 2.83983063002e-05
    w: 0.99999999956
---
header: 
  seq: 179
  stamp: 
    secs: 21674
    nsecs: 539000000
  frame_id: "world"
pose: 
  position: 
    x: -1.73830721906e-05
    y: -5.36142897545e-06
    z: 8.40278880787e-06
  orientation: 
    x: 4.97857945381e-06
    y: 8.04173760009e-06
    z: 1.331606836e-05
    w: 0.999999999867
---
header: 
  seq: 180
  stamp: 
    secs: 21674
    nsecs: 857000000
  frame_id: "world"
pose: 
  position: 
    x: -1.7379228666e-05
    y: -5.34620585313e-06
    z: 8.39429048938e-06
  orientation: 
    x: 4.98740700938e-06
    y: 8.04388218859e-06
    z: 1.33146850185e-05
    w: 0.999999999867
---
header: 
  seq: 181
  stamp: 
    secs: 21675
    nsecs: 158000000
  frame_id: "world"
pose: 
  position: 
    x: -1.73792304849e-05
    y: -5.34620585313e-06
    z: 8.39429048938e-06
  orientation: 
    x: 4.98740700938e-06
    y: 8.04388218859e-06
    z: 1.33146850185e-05
    w: 0.999999999867
---
header: 
  seq: 182
  stamp: 
    secs: 21675
    nsecs: 566000000
  frame_id: "world"
pose: 
  position: 
    x: 2.55156901403e-05
    y: 7.77067725721e-06
    z: 3.96540926886e-05
  orientation: 
    x: 9.0325456646e-06
    y: -1.7599006218e-05
    z: 4.79373192585e-05
    w: 0.999999998655
---
header: 
  seq: 183
  stamp: 
    secs: 21675
    nsecs: 983000000
  frame_id: "world"
pose: 
  position: 
    x: -1.26330442072e-05
    y: 1.5976589566e-05
    z: 3.31768496835e-05
  orientation: 
    x: 1.27969633346e-05
    y: 1.87378043214e-06
    z: 4.17325754426e-05
    w: 0.999999999046
---
header: 
  seq: 184
  stamp: 
    secs: 21676
    nsecs: 267000000
  frame_id: "world"
pose: 
  position: 
    x: -4.04587044613e-05
    y: -1.90795890376e-05
    z: 1.41113623613e-05
  orientation: 
    x: -1.74512444976e-06
    y: 1.81871964688e-05
    z: 1.60468680358e-05
    w: 0.999999999704
---
header: 
  seq: 185
  stamp: 
    secs: 21676
    nsecs: 587000000
  frame_id: "world"
pose: 
  position: 
    x: 1.79267171916e-05
    y: 2.3178939955e-05
    z: 1.19513460959e-05
  orientation: 
    x: 7.01445878647e-06
    y: -9.49332570387e-06
    z: 1.75055047254e-05
    w: 0.999999999777
---
header: 
  seq: 186
  stamp: 
    secs: 21676
    nsecs: 761000000
  frame_id: "world"
pose: 
  position: 
    x: -1.21071489048e-05
    y: 4.15454860558e-06
    z: -7.01751514498e-06
  orientation: 
    x: 1.81595453339e-06
    y: 3.98553629561e-06
    z: 1.71864712682e-06
    w: 0.999999999989
---
header: 
  seq: 187
  stamp: 
    secs: 21676
    nsecs: 960000000
  frame_id: "world"
pose: 
  position: 
    x: -1.21071489048e-05
    y: 4.15454860558e-06
    z: -7.01751514498e-06
  orientation: 
    x: 1.81595453339e-06
    y: 3.98553629561e-06
    z: 1.71864712682e-06
    w: 0.999999999989
---
header: 
  seq: 188
  stamp: 
    secs: 21677
    nsecs: 158000000
  frame_id: "world"
pose: 
  position: 
    x: -1.21071489048e-05
    y: 4.15454860558e-06
    z: -7.01751514498e-06
  orientation: 
    x: 1.81595453339e-06
    y: 3.98553629561e-06
    z: 1.71864712682e-06
    w: 0.999999999989
---
header: 
  seq: 189
  stamp: 
    secs: 21677
    nsecs: 346000000
  frame_id: "world"
pose: 
  position: 
    x: 5.57573366677e-06
    y: 3.02577136608e-05
    z: 4.04974480261e-06
  orientation: 
    x: 1.07157111405e-05
    y: -3.61791251146e-07
    z: -8.58406929102e-06
    w: 0.999999999906
---
header: 
  seq: 190
  stamp: 
    secs: 21677
    nsecs: 567000000
  frame_id: "world"
pose: 
  position: 
    x: 2.7250547646e-05
    y: -1.06735205918e-05
    z: 5.36849438504e-05
  orientation: 
    x: -1.89563286047e-06
    y: -1.81159339009e-05
    z: 4.97060427037e-05
    w: 0.999999998599
---
header: 
  seq: 191
  stamp: 
    secs: 21677
    nsecs: 778000000
  frame_id: "world"
pose: 
  position: 
    x: -9.2748177849e-06
    y: 1.37690076372e-05
    z: 5.78460185352e-06
  orientation: 
    x: 1.92601032713e-06
    y: 6.12266603609e-06
    z: -7.43074588136e-06
    w: 0.999999999952
---
header: 
  seq: 192
  stamp: 
    secs: 21677
    nsecs: 991000000
  frame_id: "world"
pose: 
  position: 
    x: 1.90241116798e-05
    y: 3.35857221216e-05
    z: 1.12277575681e-05
  orientation: 
    x: 1.1998503393e-05
    y: -1.02206749916e-05
    z: 1.67435100549e-05
    w: 0.999999999736
---
header: 
  seq: 193
  stamp: 
    secs: 21678
    nsecs: 295000000
  frame_id: "world"
pose: 
  position: 
    x: -2.16402077058e-05
    y: -5.7207212194e-06
    z: 7.63731077313e-06
  orientation: 
    x: 4.3037480276e-06
    y: 9.29928955758e-06
    z: 1.28406936693e-05
    w: 0.999999999865
---
header: 
  seq: 194
  stamp: 
    secs: 21678
    nsecs: 584000000
  frame_id: "world"
pose: 
  position: 
    x: -3.44496911566e-05
    y: 5.36018933417e-06
    z: 2.19717639993e-05
  orientation: 
    x: 1.49717625322e-05
    y: 1.47238642899e-05
    z: 2.18855257016e-05
    w: 0.99999999954
---
header: 
  seq: 195
  stamp: 
    secs: 21678
    nsecs: 776000000
  frame_id: "world"
pose: 
  position: 
    x: -3.4739565308e-05
    y: 6.40661301077e-06
    z: 2.5390087103e-05
  orientation: 
    x: 1.38374361942e-05
    y: 1.53474884369e-05
    z: 1.84054260828e-05
    w: 0.999999999617
---
header: 
  seq: 196
  stamp: 
    secs: 21678
    nsecs: 963000000
  frame_id: "world"
pose: 
  position: 
    x: 3.55136362487e-05
    y: 9.05685592443e-05
    z: -2.0454515834e-05
  orientation: 
    x: 4.25995930986e-05
    y: -1.73349016948e-05
    z: -6.90951480189e-07
    w: 0.999999998942
---
header: 
  seq: 197
  stamp: 
    secs: 21679
    nsecs: 140000000
  frame_id: "world"
pose: 
  position: 
    x: 3.55136362487e-05
    y: 9.05685592443e-05
    z: -2.0454515834e-05
  orientation: 
    x: 4.25995930986e-05
    y: -1.73349016948e-05
    z: -6.90951480189e-07
    w: 0.999999998942
---
header: 
  seq: 198
  stamp: 
    secs: 21679
    nsecs: 337000000
  frame_id: "world"
pose: 
  position: 
    x: 3.55136362487e-05
    y: 9.05685592443e-05
    z: -2.0454515834e-05
  orientation: 
    x: 4.25995930986e-05
    y: -1.73349016948e-05
    z: -6.90951480189e-07
    w: 0.999999998942
---
header: 
  seq: 199
  stamp: 
    secs: 21679
    nsecs: 517000000
  frame_id: "world"
pose: 
  position: 
    x: 3.70645357179e-05
    y: 9.09297014005e-05
    z: -1.30088537844e-05
  orientation: 
    x: 4.23951423286e-05
    y: -1.66764966534e-05
    z: 1.76776029364e-06
    w: 0.999999998961
---
header: 
  seq: 200
  stamp: 
    secs: 21679
    nsecs: 708000000
  frame_id: "world"
pose: 
  position: 
    x: 3.70645357179e-05
    y: 9.09297014005e-05
    z: -1.30088537844e-05
  orientation: 
    x: 4.23951423286e-05
    y: -1.66764966534e-05
    z: 1.76776029364e-06
    w: 0.999999998961
---
header: 
  seq: 201
  stamp: 
    secs: 21679
    nsecs: 907000000
  frame_id: "world"
pose: 
  position: 
    x: 3.85621842725e-06
    y: 1.80603092303e-05
    z: 3.42067105521e-05
  orientation: 
    x: 1.49022689449e-05
    y: -4.59485454068e-06
    z: 3.9660029834e-05
    w: 0.999999999092
---
header: 
  seq: 202
  stamp: 
    secs: 21680
    nsecs:  87000000
  frame_id: "world"
pose: 
  position: 
    x: 3.81730751542e-06
    y: 1.80874012585e-05
    z: 3.41785416822e-05
  orientation: 
    x: 1.49149600339e-05
    y: -4.57666191817e-06
    z: 3.966311484e-05
    w: 0.999999999092
---
header: 
  seq: 203
  stamp: 
    secs: 21680
    nsecs: 415000000
  frame_id: "world"
pose: 
  position: 
    x: -6.18030981059e-06
    y: -4.92781600769e-06
    z: -1.98874568014e-06
  orientation: 
    x: -1.83002316588e-06
    y: 2.17445017368e-06
    z: 2.5670767627e-06
    w: 0.999999999993
---
header: 
  seq: 204
  stamp: 
    secs: 21680
    nsecs: 498000000
  frame_id: "world"
pose: 
  position: 
    x: -3.33200478053e-05
    y: 1.08409822133e-05
    z: 2.32150832744e-05
  orientation: 
    x: 1.87827572418e-05
    y: 1.41854234168e-05
    z: 2.2475147477e-05
    w: 0.99999999947
---
header: 
  seq: 205
  stamp: 
    secs: 21680
    nsecs: 782000000
  frame_id: "world"
pose: 
  position: 
    x: -3.97392432205e-05
    y: -1.21756547742e-05
    z: 2.09964309761e-05
  orientation: 
    x: 1.41726945876e-06
    y: 1.82658877701e-05
    z: 1.34161191419e-05
    w: 0.999999999742
---
header: 
  seq: 206
  stamp: 
    secs: 21680
    nsecs: 984000000
  frame_id: "world"
pose: 
  position: 
    x: 7.3078317655e-06
    y: -1.63175991474e-06
    z: 3.02368334815e-05
  orientation: 
    x: 1.0872779053e-05
    y: -5.35117760367e-06
    z: 2.63202382374e-05
    w: 0.99999999958
---
header: 
  seq: 207
  stamp: 
    secs: 21681
    nsecs: 164000000
  frame_id: "world"
pose: 
  position: 
    x: 7.30532110538e-06
    y: -1.64972288985e-06
    z: 3.02428652503e-05
  orientation: 
    x: 1.08629610577e-05
    y: -5.35066237492e-06
    z: 2.63230212912e-05
    w: 0.99999999958
---
header: 
  seq: 208
  stamp: 
    secs: 21681
    nsecs: 351000000
  frame_id: "world"
pose: 
  position: 
    x: 1.45294075082e-06
    y: 2.01487055165e-05
    z: 2.32875322581e-06
  orientation: 
    x: 9.24395771975e-06
    y: -8.38359539974e-07
    z: 2.31349417835e-06
    w: 0.999999999954
---
header: 
  seq: 209
  stamp: 
    secs: 21681
    nsecs: 548000000
  frame_id: "world"
pose: 
  position: 
    x: -1.81634859473e-05
    y: -1.79537073564e-05
    z: 2.72394154308e-05
  orientation: 
    x: 2.92699667083e-07
    y: 6.40286952866e-06
    z: 2.3602411595e-05
    w: 0.999999999701
---
header: 
  seq: 210
  stamp: 
    secs: 21681
    nsecs: 764000000
  frame_id: "world"
pose: 
  position: 
    x: -1.44425466715e-05
    y: -3.46077467839e-05
    z: 2.6160498237e-05
  orientation: 
    x: -4.96011943843e-06
    y: 3.90148716015e-06
    z: 2.82750843207e-05
    w: 0.99999999958
---
header: 
  seq: 211
  stamp: 
    secs: 21682
    nsecs: 113000000
  frame_id: "world"
pose: 
  position: 
    x: -9.1869278549e-06
    y: 3.46260549122e-06
    z: -7.25024449366e-07
  orientation: 
    x: 2.19154685508e-07
    y: 3.53737254952e-06
    z: 1.7034050188e-06
    w: 0.999999999992
---
header: 
  seq: 212
  stamp: 
    secs: 21682
    nsecs: 446000000
  frame_id: "world"
pose: 
  position: 
    x: 2.93556950055e-05
    y: 2.66714523605e-05
    z: 9.01928615349e-06
  orientation: 
    x: 4.6186296451e-06
    y: -1.43072556943e-05
    z: 9.90218813807e-06
    w: 0.999999999838
---
header: 
  seq: 213
  stamp: 
    secs: 21682
    nsecs: 703000000
  frame_id: "world"
pose: 
  position: 
    x: -2.63597144112e-06
    y: 7.25469999452e-06
    z: 3.97620933654e-05
  orientation: 
    x: 7.66618904244e-06
    y: -1.33305570559e-06
    z: 4.03207595469e-05
    w: 0.999999999157
---
header: 
  seq: 214
  stamp: 
    secs: 21682
    nsecs: 916000000
  frame_id: "world"
pose: 
  position: 
    x: -2.88594378617e-06
    y: -2.44800630753e-05
    z: 3.9024369471e-05
  orientation: 
    x: 2.52116137661e-07
    y: 2.75323145524e-07
    z: 2.57768278885e-05
    w: 0.999999999668
---
header: 
  seq: 215
  stamp: 
    secs: 21683
    nsecs: 118000000
  frame_id: "world"
pose: 
  position: 
    x: 4.50564111816e-05
    y: 2.98919749184e-05
    z: 1.14615268103e-05
  orientation: 
    x: 7.175884546e-06
    y: -2.01733127998e-05
    z: 8.54827157809e-06
    w: 0.999999999734
---
header: 
  seq: 216
  stamp: 
    secs: 21683
    nsecs: 328000000
  frame_id: "world"
pose: 
  position: 
    x: 4.05524260714e-05
    y: 3.09446222673e-05
    z: 1.36997805384e-05
  orientation: 
    x: 7.65041295212e-06
    y: -1.7757409292e-05
    z: 8.24956532415e-06
    w: 0.999999999779
---
header: 
  seq: 217
  stamp: 
    secs: 21683
    nsecs: 547000000
  frame_id: "world"
pose: 
  position: 
    x: -1.73719581653e-05
    y: -2.26217480304e-06
    z: -2.12198010274e-08
  orientation: 
    x: -1.1330229199e-06
    y: 7.01895260117e-06
    z: 1.92480683831e-06
    w: 0.999999999973
---
header: 
  seq: 218
  stamp: 
    secs: 21683
    nsecs: 873000000
  frame_id: "world"
pose: 
  position: 
    x: -2.93753998903e-07
    y: 1.74198612513e-05
    z: 3.42625498888e-05
  orientation: 
    x: 1.57209396825e-05
    y: -2.88516298172e-06
    z: 4.47051169836e-05
    w: 0.999999998873
---
header: 
  seq: 219
  stamp: 
    secs: 21684
    nsecs: 104000000
  frame_id: "world"
pose: 
  position: 
    x: -3.28096357407e-05
    y: 4.0466406972e-06
    z: 2.0940477043e-05
  orientation: 
    x: 1.27063203718e-05
    y: 1.42717444709e-05
    z: 1.85914141118e-05
    w: 0.999999999645
---
header: 
  seq: 220
  stamp: 
    secs: 21684
    nsecs: 407000000
  frame_id: "world"
pose: 
  position: 
    x: -3.28096357407e-05
    y: 4.0466406972e-06
    z: 2.0940477043e-05
  orientation: 
    x: 1.27063203718e-05
    y: 1.42717444709e-05
    z: 1.85914141118e-05
    w: 0.999999999645
---
header: 
  seq: 221
  stamp: 
    secs: 21684
    nsecs: 672000000
  frame_id: "world"
pose: 
  position: 
    x: 2.87307993858e-05
    y: 3.37311248586e-05
    z: 2.17108681682e-05
  orientation: 
    x: 9.52296886536e-06
    y: -1.19868218444e-05
    z: 8.345728928e-06
    w: 0.999999999848
---
header: 
  seq: 222
  stamp: 
    secs: 21684
    nsecs: 847000000
  frame_id: "world"
pose: 
  position: 
    x: -3.67676948372e-05
    y: -3.59395380656e-05
    z: 1.55622565217e-05
  orientation: 
    x: -9.29451289004e-06
    y: 1.66169429529e-05
    z: 1.42650078447e-05
    w: 0.999999999717
---
header: 
  seq: 223
  stamp: 
    secs: 21685
    nsecs:  38000000
  frame_id: "world"
pose: 
  position: 
    x: 4.02331788791e-05
    y: 3.06022593577e-05
    z: 1.76590401679e-05
  orientation: 
    x: 7.12741802811e-06
    y: -1.77242454764e-05
    z: 1.28347164684e-05
    w: 0.999999999735
---
header: 
  seq: 224
  stamp: 
    secs: 21685
    nsecs: 197000000
  frame_id: "world"
pose: 
  position: 
    x: -2.51629553532e-05
    y: -7.71181566961e-06
    z: 1.19255128084e-06
  orientation: 
    x: -3.82345069713e-06
    y: 1.0552087587e-05
    z: 2.69279780678e-06
    w: 0.999999999933
---
header: 
  seq: 225
  stamp: 
    secs: 21685
    nsecs: 388000000
  frame_id: "world"
pose: 
  position: 
    x: -2.64682985289e-05
    y: -2.99294042634e-05
    z: 3.73333168682e-05
  orientation: 
    x: -1.89544618849e-06
    y: 1.1050545249e-05
    z: 2.77068120216e-05
    w: 0.999999999553
---
header: 
  seq: 226
  stamp: 
    secs: 21685
    nsecs: 585000000
  frame_id: "world"
pose: 
  position: 
    x: -1.59774554049e-05
    y: -2.56926396105e-05
    z: 8.14660506876e-06
  orientation: 
    x: -4.21520189718e-06
    y: 6.54956102064e-06
    z: 1.44980695021e-05
    w: 0.999999999865
---
header: 
  seq: 227
  stamp: 
    secs: 21685
    nsecs: 998000000
  frame_id: "world"
pose: 
  position: 
    x: 4.95712956763e-05
    y: 1.29779073177e-05
    z: 1.26252143673e-05
  orientation: 
    x: -1.81942004867e-06
    y: -2.18848508592e-05
    z: 1.40477513876e-05
    w: 0.99999999966
---
header: 
  seq: 228
  stamp: 
    secs: 21686
    nsecs: 369000000
  frame_id: "world"
pose: 
  position: 
    x: -1.90060254681e-05
    y: -2.00253816729e-05
    z: 2.7074767786e-05
  orientation: 
    x: 1.20076936084e-06
    y: 5.57548173471e-06
    z: 2.63604797414e-05
    w: 0.999999999636
---
header: 
  seq: 229
  stamp: 
    secs: 21686
    nsecs: 693000000
  frame_id: "world"
pose: 
  position: 
    x: -1.77449219336e-05
    y: -1.98983470909e-05
    z: 3.0384369893e-05
  orientation: 
    x: 1.46456284198e-06
    y: 4.8832480369e-06
    z: 2.756316643e-05
    w: 0.999999999607
---
header: 
  seq: 230
  stamp: 
    secs: 21686
    nsecs: 873000000
  frame_id: "world"
pose: 
  position: 
    x: 5.39636721442e-06
    y: 4.37750804849e-06
    z: 3.9746719267e-05
  orientation: 
    x: 5.56863596488e-06
    y: -5.25530321698e-06
    z: 4.27141821599e-05
    w: 0.999999999058
---
header: 
  seq: 231
  stamp: 
    secs: 21687
    nsecs:  81000000
  frame_id: "world"
pose: 
  position: 
    x: -1.90824121091e-05
    y: 5.21967479017e-07
    z: -3.12299249572e-07
  orientation: 
    x: -6.22867389645e-07
    y: 8.16946521781e-06
    z: 5.30051295282e-07
    w: 0.999999999966
---
header: 
  seq: 232
  stamp: 
    secs: 21687
    nsecs: 287000000
  frame_id: "world"
pose: 
  position: 
    x: -3.06592555717e-05
    y: 3.49014680978e-06
    z: 1.96681558009e-05
  orientation: 
    x: 1.4029041262e-05
    y: 1.29134305049e-05
    z: 1.99159749097e-05
    w: 0.99999999962
---
header: 
  seq: 233
  stamp: 
    secs: 21687
    nsecs: 500000000
  frame_id: "world"
pose: 
  position: 
    x: -1.06808292912e-05
    y: -9.78728439804e-06
    z: 2.68780513579e-05
  orientation: 
    x: 7.4369399927e-06
    y: 2.95225549855e-06
    z: 2.56734292541e-05
    w: 0.999999999638
---
header: 
  seq: 234
  stamp: 
    secs: 21687
    nsecs: 812000000
  frame_id: "world"
pose: 
  position: 
    x: -2.261742884e-05
    y: 9.78135403784e-07
    z: 2.08448200283e-05
  orientation: 
    x: 1.28805486339e-05
    y: 9.1555393706e-06
    z: 2.09577719871e-05
    w: 0.999999999656
---
header: 
  seq: 235
  stamp: 
    secs: 21688
    nsecs:  28000000
  frame_id: "world"
pose: 
  position: 
    x: -2.83668996417e-05
    y: 1.82532551207e-06
    z: 2.22814323934e-05
  orientation: 
    x: 1.14527992956e-05
    y: 1.2026816872e-05
    z: 1.86875295127e-05
    w: 0.999999999687
---
header: 
  seq: 236
  stamp: 
    secs: 21688
    nsecs: 364000000
  frame_id: "world"
pose: 
  position: 
    x: -2.83827412204e-05
    y: 1.81137181698e-06
    z: 2.22566195589e-05
  orientation: 
    x: 1.14455788171e-05
    y: 1.20339764143e-05
    z: 1.8689022903e-05
    w: 0.999999999687
---
header: 
  seq: 237
  stamp: 
    secs: 21688
    nsecs: 773000000
  frame_id: "world"
pose: 
  position: 
    x: -1.70952480403e-05
    y: 4.44562374469e-06
    z: 6.45477393846e-06
  orientation: 
    x: 1.74713863992e-06
    y: 8.5114234022e-06
    z: 1.07091409514e-07
    w: 0.999999999962
---
header: 
  seq: 238
  stamp: 
    secs: 21688
    nsecs: 994000000
  frame_id: "world"
pose: 
  position: 
    x: -1.41979771797e-05
    y: -1.27704288388e-05
    z: 2.55333743553e-05
  orientation: 
    x: 4.04342108482e-06
    y: 4.76881677835e-06
    z: 2.28334156354e-05
    w: 0.99999999972
---
header: 
  seq: 239
  stamp: 
    secs: 21689
    nsecs: 180000000
  frame_id: "world"
pose: 
  position: 
    x: -1.09349703052e-05
    y: -2.19871362788e-05
    z: 2.13518414967e-05
  orientation: 
    x: 1.85233474731e-07
    y: 3.47720151601e-06
    z: 2.29038560003e-05
    w: 0.999999999732
---
header: 
  seq: 240
  stamp: 
    secs: 21689
    nsecs: 372000000
  frame_id: "world"
pose: 
  position: 
    x: -8.22940000944e-06
    y: -1.33201353947e-06
    z: 1.11698855108e-05
  orientation: 
    x: 1.03964384796e-05
    y: 6.30917838627e-07
    z: 2.5254395941e-05
    w: 0.999999999627
---
header: 
  seq: 241
  stamp: 
    secs: 21689
    nsecs: 582000000
  frame_id: "world"
pose: 
  position: 
    x: -1.0991061572e-05
    y: -8.94872118806e-06
    z: 1.96932505787e-05
  orientation: 
    x: 6.1522173363e-06
    y: 2.29275747116e-06
    z: 2.42071764584e-05
    w: 0.999999999685
---
header: 
  seq: 242
  stamp: 
    secs: 21689
    nsecs: 740000000
  frame_id: "world"
pose: 
  position: 
    x: -3.49807087332e-05
    y: -1.89699076145e-05
    z: 8.69643736223e-06
  orientation: 
    x: -2.4052908424e-06
    y: 1.5251600413e-05
    z: 1.45151252549e-05
    w: 0.999999999775
---
header: 
  seq: 243
  stamp: 
    secs: 21689
    nsecs: 910000000
  frame_id: "world"
pose: 
  position: 
    x: 2.99394159811e-05
    y: 5.4417487263e-05
    z: 1.65013352671e-05
  orientation: 
    x: 1.77427791594e-05
    y: -1.31532815396e-05
    z: 6.31192824418e-06
    w: 0.999999999736
---
header: 
  seq: 244
  stamp: 
    secs: 21690
    nsecs: 224000000
  frame_id: "world"
pose: 
  position: 
    x: -3.01209747704e-05
    y: 2.40920553551e-06
    z: 2.65470898739e-05
  orientation: 
    x: 1.2619283548e-05
    y: 1.24939924674e-05
    z: 1.93589057677e-05
    w: 0.999999999655
---
header: 
  seq: 245
  stamp: 
    secs: 21690
    nsecs: 614000000
  frame_id: "world"
pose: 
  position: 
    x: -1.77197380253e-05
    y: 5.46205001228e-06
    z: 2.65217222477e-05
  orientation: 
    x: 1.51941585443e-05
    y: 6.34258276239e-06
    z: 2.19228240812e-05
    w: 0.999999999624
---
header: 
  seq: 246
  stamp: 
    secs: 21690
    nsecs: 830000000
  frame_id: "world"
pose: 
  position: 
    x: -2.19528665184e-05
    y: 5.86976227623e-07
    z: 1.8763834305e-05
  orientation: 
    x: 1.25041360618e-05
    y: 8.2194901523e-06
    z: 2.17579545203e-05
    w: 0.999999999651
---
header: 
  seq: 247
  stamp: 
    secs: 21691
    nsecs:   5000000
  frame_id: "world"
pose: 
  position: 
    x: -2.0777575628e-05
    y: 6.35182459519e-06
    z: -2.36307960222e-06
  orientation: 
    x: 3.41223744711e-06
    y: 8.12849157192e-06
    z: 3.27194038604e-06
    w: 0.999999999956
---
header: 
  seq: 248
  stamp: 
    secs: 21691
    nsecs: 161000000
  frame_id: "world"
pose: 
  position: 
    x: -2.08371620829e-05
    y: 6.33641093373e-06
    z: -2.36491791838e-06
  orientation: 
    x: 3.4038921511e-06
    y: 8.15550538355e-06
    z: 3.27484076464e-06
    w: 0.999999999956
---
header: 
  seq: 249
  stamp: 
    secs: 21691
    nsecs: 339000000
  frame_id: "world"
pose: 
  position: 
    x: -1.41023856486e-05
    y: 4.40748817709e-06
    z: 6.79484401189e-06
  orientation: 
    x: 1.00736342557e-05
    y: 4.82956511323e-06
    z: 1.4640650986e-05
    w: 0.99999999983
---
header: 
  seq: 250
  stamp: 
    secs: 21691
    nsecs: 508000000
  frame_id: "world"
pose: 
  position: 
    x: -6.96220149621e-06
    y: -1.30424650706e-05
    z: 2.22027647396e-05
  orientation: 
    x: 5.74218256457e-06
    y: 5.70342876796e-07
    z: 2.05849883012e-05
    w: 0.999999999771
---
header: 
  seq: 251
  stamp: 
    secs: 21691
    nsecs: 844000000
  frame_id: "world"
pose: 
  position: 
    x: -1.71290957951e-05
    y: 1.16578585221e-05
    z: 1.99113273993e-05
  orientation: 
    x: 1.78468853773e-05
    y: 5.68515360775e-06
    z: 2.18219847648e-05
    w: 0.999999999586
---
header: 
  seq: 252
  stamp: 
    secs: 21692
    nsecs:  43000000
  frame_id: "world"
pose: 
  position: 
    x: -7.43955115468e-06
    y: 4.28623861808e-05
    z: -1.4943271708e-05
  orientation: 
    x: 2.5150267892e-05
    y: 5.10762128921e-06
    z: 1.17495583207e-05
    w: 0.999999999602
---
header: 
  seq: 253
  stamp: 
    secs: 21692
    nsecs: 329000000
  frame_id: "world"
pose: 
  position: 
    x: -7.43955115468e-06
    y: 4.28623861808e-05
    z: -1.4943271708e-05
  orientation: 
    x: 2.5150267892e-05
    y: 5.10762128921e-06
    z: 1.17495583207e-05
    w: 0.999999999602
---
header: 
  seq: 254
  stamp: 
    secs: 21692
    nsecs: 654000000
  frame_id: "world"
pose: 
  position: 
    x: -7.43955115468e-06
    y: 4.28623861808e-05
    z: -1.4943271708e-05
  orientation: 
    x: 2.5150267892e-05
    y: 5.10762128921e-06
    z: 1.17495583207e-05
    w: 0.999999999602
---
header: 
  seq: 255
  stamp: 
    secs: 21692
    nsecs: 846000000
  frame_id: "world"
pose: 
  position: 
    x: -7.43955115468e-06
    y: 4.28623861808e-05
    z: -1.4943271708e-05
  orientation: 
    x: 2.5150267892e-05
    y: 5.10762128921e-06
    z: 1.17495583207e-05
    w: 0.999999999602
---
header: 
  seq: 256
  stamp: 
    secs: 21693
    nsecs:  41000000
  frame_id: "world"
pose: 
  position: 
    x: -3.71410387743e-05
    y: -8.00523807243e-08
    z: 1.75080531335e-05
  orientation: 
    x: 1.21969014749e-05
    y: 1.52581751473e-05
    z: 2.09882164113e-05
    w: 0.999999999589
---
header: 
  seq: 257
  stamp: 
    secs: 21693
    nsecs: 216000000
  frame_id: "world"
pose: 
  position: 
    x: -1.25443903016e-05
    y: 3.28653113684e-05
    z: 4.51982805316e-06
  orientation: 
    x: 1.04491409717e-05
    y: 6.71131374397e-06
    z: -8.7247653927e-06
    w: 0.999999999885
---
header: 
  seq: 258
  stamp: 
    secs: 21693
    nsecs: 408000000
  frame_id: "world"
pose: 
  position: 
    x: 2.00500016945e-06
    y: 4.2685889639e-05
    z: 4.65440143671e-06
  orientation: 
    x: 1.65789097053e-05
    y: 6.94119876121e-07
    z: -8.84764904029e-06
    w: 0.999999999823
---
header: 
  seq: 259
  stamp: 
    secs: 21693
    nsecs: 629000000
  frame_id: "world"
pose: 
  position: 
    x: 2.00500016945e-06
    y: 4.2685889639e-05
    z: 4.65440143671e-06
  orientation: 
    x: 1.65789097053e-05
    y: 6.94119876121e-07
    z: -8.84764904029e-06
    w: 0.999999999823
---
header: 
  seq: 260
  stamp: 
    secs: 21694
    nsecs:   4000000
  frame_id: "world"
pose: 
  position: 
    x: 2.00500016945e-06
    y: 4.2685889639e-05
    z: 4.65440143671e-06
  orientation: 
    x: 1.65789097053e-05
    y: 6.94119876121e-07
    z: -8.84764904029e-06
    w: 0.999999999823
---
header: 
  seq: 261
  stamp: 
    secs: 21694
    nsecs: 361000000
  frame_id: "world"
pose: 
  position: 
    x: 2.00500016945e-06
    y: 4.2685889639e-05
    z: 4.65440143671e-06
  orientation: 
    x: 1.65789097053e-05
    y: 6.94119876121e-07
    z: -8.84764904029e-06
    w: 0.999999999823
---
header: 
  seq: 262
  stamp: 
    secs: 21694
    nsecs: 621000000
  frame_id: "world"
pose: 
  position: 
    x: -2.9213129892e-05
    y: -2.25339881581e-05
    z: 1.01851228465e-05
  orientation: 
    x: -4.03298963546e-06
    y: 1.28502806514e-05
    z: 1.79219641678e-05
    w: 0.999999999749
---
header: 
  seq: 263
  stamp: 
    secs: 21694
    nsecs: 831000000
  frame_id: "world"
pose: 
  position: 
    x: -3.17936865031e-05
    y: -8.6202944658e-06
    z: 1.44190025821e-05
  orientation: 
    x: 3.38865333949e-06
    y: 1.38066970949e-05
    z: 1.38516161287e-05
    w: 0.999999999803
---
header: 
  seq: 264
  stamp: 
    secs: 21695
    nsecs:  24000000
  frame_id: "world"
pose: 
  position: 
    x: -5.77657883696e-05
    y: -1.06493544081e-05
    z: 2.54165806837e-05
  orientation: 
    x: 6.413245952e-06
    y: 2.60693159215e-05
    z: 2.02329883791e-05
    w: 0.999999999435
---
header: 
  seq: 265
  stamp: 
    secs: 21695
    nsecs: 218000000
  frame_id: "world"
pose: 
  position: 
    x: -3.16837940773e-05
    y: -8.4791381596e-06
    z: 1.43669958561e-05
  orientation: 
    x: 3.4390354806e-06
    y: 1.37614715614e-05
    z: 1.38593386482e-05
    w: 0.999999999803
---
header: 
  seq: 266
  stamp: 
    secs: 21695
    nsecs: 427000000
  frame_id: "world"
pose: 
  position: 
    x: -1.85085973499e-05
    y: -4.52437916465e-06
    z: -2.33212904277e-06
  orientation: 
    x: -2.78139032151e-06
    y: 7.15623536934e-06
    z: 4.41570455206e-06
    w: 0.999999999961
---
header: 
  seq: 267
  stamp: 
    secs: 21695
    nsecs: 609000000
  frame_id: "world"
pose: 
  position: 
    x: -4.61641247966e-05
    y: -2.81874345092e-05
    z: 2.46696072281e-05
  orientation: 
    x: -1.11136137045e-06
    y: 2.10413691003e-05
    z: 2.03332638106e-05
    w: 0.999999999571
---
header: 
  seq: 268
  stamp: 
    secs: 21695
    nsecs: 845000000
  frame_id: "world"
pose: 
  position: 
    x: -2.7984211556e-05
    y: -3.23141830449e-05
    z: 7.79358379077e-06
  orientation: 
    x: -7.43224745595e-06
    y: 1.20896765996e-05
    z: 1.44280165812e-05
    w: 0.999999999795
---
header: 
  seq: 269
  stamp: 
    secs: 21696
    nsecs: 187000000
  frame_id: "world"
pose: 
  position: 
    x: -2.80057556665e-05
    y: -3.23961285176e-05
    z: 7.78424600867e-06
  orientation: 
    x: -7.47011972482e-06
    y: 1.21021666903e-05
    z: 1.4429937434e-05
    w: 0.999999999795
---
header: 
  seq: 270
  stamp: 
    secs: 21696
    nsecs: 510000000
  frame_id: "world"
pose: 
  position: 
    x: 2.10820462598e-06
    y: 1.11321705845e-05
    z: -2.28221821885e-07
  orientation: 
    x: 1.26236568571e-06
    y: -1.17713675247e-07
    z: -8.96698020333e-06
    w: 0.999999999959
---
header: 
  seq: 271
  stamp: 
    secs: 21696
    nsecs: 805000000
  frame_id: "world"
pose: 
  position: 
    x: -2.94612254947e-05
    y: -1.56819642143e-05
    z: 1.15854054457e-05
  orientation: 
    x: 4.50255214362e-07
    y: 1.29671525404e-05
    z: 1.42252993074e-05
    w: 0.999999999815
---
header: 
  seq: 272
  stamp: 
    secs: 21696
    nsecs: 990000000
  frame_id: "world"
pose: 
  position: 
    x: -3.07114123643e-06
    y: 6.05614741289e-06
    z: -2.30548721447e-06
  orientation: 
    x: -4.13141236767e-07
    y: 1.88209185121e-06
    z: -6.49013827555e-06
    w: 0.999999999977
---
header: 
  seq: 273
  stamp: 
    secs: 21697
    nsecs: 163000000
  frame_id: "world"
pose: 
  position: 
    x: -4.39220966655e-05
    y: -3.86868377973e-05
    z: 2.45428527705e-05
  orientation: 
    x: -6.17890873134e-06
    y: 1.93491741728e-05
    z: 2.11987135026e-05
    w: 0.999999999569
---
header: 
  seq: 274
  stamp: 
    secs: 21697
    nsecs: 346000000
  frame_id: "world"
pose: 
  position: 
    x: -4.92474719067e-05
    y: -5.33131560587e-06
    z: 2.15722047869e-05
  orientation: 
    x: 9.3575454184e-06
    y: 2.09728350353e-05
    z: 2.12006780099e-05
    w: 0.999999999512
---
header: 
  seq: 275
  stamp: 
    secs: 21697
    nsecs: 536000000
  frame_id: "world"
pose: 
  position: 
    x: -7.03066916685e-06
    y: 1.1050541616e-05
    z: 1.86285512882e-06
  orientation: 
    x: 5.2221093935e-07
    y: 4.28251132664e-06
    z: -9.87426301378e-06
    w: 0.999999999942
---
header: 
  seq: 276
  stamp: 
    secs: 21697
    nsecs: 757000000
  frame_id: "world"
pose: 
  position: 
    x: -4.10241082136e-05
    y: 5.47188028577e-06
    z: 2.57591145782e-05
  orientation: 
    x: 1.46096381215e-05
    y: 1.62473916055e-05
    z: 2.22613252737e-05
    w: 0.999999999514
---
header: 
  seq: 277
  stamp: 
    secs: 21697
    nsecs: 995000000
  frame_id: "world"
pose: 
  position: 
    x: 1.15570355774e-05
    y: -8.36509025248e-06
    z: 7.4932336247e-06
  orientation: 
    x: -9.56099483842e-06
    y: -6.68311122224e-06
    z: 1.5912713931e-05
    w: 0.999999999805
---
header: 
  seq: 278
  stamp: 
    secs: 21698
    nsecs: 340000000
  frame_id: "world"
pose: 
  position: 
    x: -1.81816358236e-05
    y: 2.19895446207e-06
    z: -1.43013721754e-06
  orientation: 
    x: -3.44159752762e-06
    y: 8.20441073247e-06
    z: -7.34962122757e-06
    w: 0.999999999933
---
header: 
  seq: 279
  stamp: 
    secs: 21698
    nsecs: 627000000
  frame_id: "world"
pose: 
  position: 
    x: -5.70476768189e-05
    y: -3.08834969474e-05
    z: 2.34694707615e-05
  orientation: 
    x: -4.11420432787e-06
    y: 2.55966678967e-05
    z: 2.03759354807e-05
    w: 0.999999999456
---
header: 
  seq: 280
  stamp: 
    secs: 21698
    nsecs: 847000000
  frame_id: "world"
pose: 
  position: 
    x: 7.24050232748e-06
    y: -4.6410625032e-07
    z: 8.47405317472e-06
  orientation: 
    x: -4.82699624555e-06
    y: -4.6976883816e-06
    z: 1.58164602885e-05
    w: 0.999999999852
---
header: 
  seq: 281
  stamp: 
    secs: 21699
    nsecs:  14000000
  frame_id: "world"
pose: 
  position: 
    x: -5.44183203601e-05
    y: -2.02158389584e-05
    z: 3.04704080918e-05
  orientation: 
    x: 2.3147140369e-06
    y: 2.49969525469e-05
    z: 2.26227839319e-05
    w: 0.999999999429
---
header: 
  seq: 282
  stamp: 
    secs: 21699
    nsecs: 263000000
  frame_id: "world"
pose: 
  position: 
    x: -3.12942174787e-05
    y: -3.33537573169e-05
    z: 3.33358293574e-05
  orientation: 
    x: -3.81453219135e-06
    y: 1.07550858929e-05
    z: 1.9630540914e-05
    w: 0.999999999742
---
header: 
  seq: 283
  stamp: 
    secs: 21699
    nsecs: 444000000
  frame_id: "world"
pose: 
  position: 
    x: -8.92911430128e-06
    y: -1.08155682028e-05
    z: -4.31550643043e-06
  orientation: 
    x: -9.40647623717e-06
    y: 4.14659962156e-06
    z: -7.41078520091e-06
    w: 0.99999999992
---
header: 
  seq: 284
  stamp: 
    secs: 21699
    nsecs: 645000000
  frame_id: "world"
pose: 
  position: 
    x: 1.27405219246e-05
    y: 6.10673851043e-06
    z: 8.14143641037e-06
  orientation: 
    x: -1.55893871994e-06
    y: -7.32620264713e-06
    z: 2.12054110253e-05
    w: 0.999999999747
---
header: 
  seq: 285
  stamp: 
    secs: 21699
    nsecs: 834000000
  frame_id: "world"
pose: 
  position: 
    x: -6.19600768914e-06
    y: 6.11844870946e-06
    z: -3.85252087653e-06
  orientation: 
    x: -1.22189112513e-06
    y: 2.78896686714e-06
    z: -7.39143797522e-06
    w: 0.999999999968
---
header: 
  seq: 286
  stamp: 
    secs: 21700
    nsecs:  46000000
  frame_id: "world"
pose: 
  position: 
    x: -6.19600768914e-06
    y: 6.11844870946e-06
    z: -3.85252087653e-06
  orientation: 
    x: -1.22189112513e-06
    y: 2.78896686714e-06
    z: -7.39143797522e-06
    w: 0.999999999968
---
header: 
  seq: 287
  stamp: 
    secs: 21700
    nsecs: 335000000
  frame_id: "world"
pose: 
  position: 
    x: 1.18075076898e-05
    y: 1.07110254248e-05
    z: 1.01373043435e-05
  orientation: 
    x: -1.02082628901e-06
    y: -7.3205783318e-06
    z: 2.18657241872e-05
    w: 0.999999999734
---
header: 
  seq: 288
  stamp: 
    secs: 21700
    nsecs: 549000000
  frame_id: "world"
pose: 
  position: 
    x: -3.62933787983e-05
    y: -5.78173467147e-06
    z: 2.17685519601e-05
  orientation: 
    x: 6.45861564223e-06
    y: 1.68791393614e-05
    z: 1.56318965265e-05
    w: 0.999999999715
---
header: 
  seq: 289
  stamp: 
    secs: 21700
    nsecs: 710000000
  frame_id: "world"
pose: 
  position: 
    x: 4.95167978443e-06
    y: 1.71033771039e-05
    z: -2.24446330321e-06
  orientation: 
    x: 4.90920729116e-06
    y: -1.51311905932e-06
    z: -7.013990398e-06
    w: 0.999999999962
---
header: 
  seq: 290
  stamp: 
    secs: 21701
    nsecs:  46000000
  frame_id: "world"
pose: 
  position: 
    x: 2.33452065004e-05
    y: 2.78864590655e-05
    z: 1.69107424881e-05
  orientation: 
    x: 5.20842013374e-06
    y: -1.03960092008e-05
    z: 8.73196586234e-06
    w: 0.999999999894
---
header: 
  seq: 291
  stamp: 
    secs: 21701
    nsecs: 219000000
  frame_id: "world"
pose: 
  position: 
    x: -4.29922183685e-05
    y: -3.2493728213e-05
    z: 2.40530807787e-05
  orientation: 
    x: -4.01327679202e-06
    y: 2.02026949332e-05
    z: 1.84644286421e-05
    w: 0.999999999617
---
header: 
  seq: 292
  stamp: 
    secs: 21701
    nsecs: 421000000
  frame_id: "world"
pose: 
  position: 
    x: 2.8723552532e-05
    y: 2.58973850578e-05
    z: 1.16758264994e-05
  orientation: 
    x: 6.7689056753e-06
    y: -1.38362047387e-05
    z: 2.20037309112e-05
    w: 0.999999999639
---
header: 
  seq: 293
  stamp: 
    secs: 21701
    nsecs: 575000000
  frame_id: "world"
pose: 
  position: 
    x: -3.31130977429e-05
    y: 3.83197448173e-06
    z: 1.74840479303e-05
  orientation: 
    x: 1.10806222405e-05
    y: 1.49009774715e-05
    z: 1.5720184815e-05
    w: 0.999999999704
---
header: 
  seq: 294
  stamp: 
    secs: 21701
    nsecs: 748000000
  frame_id: "world"
pose: 
  position: 
    x: -2.91521041618e-06
    y: 2.78507195617e-05
    z: 5.37552432434e-06
  orientation: 
    x: 1.03814500099e-05
    y: 2.43741192188e-06
    z: -6.77759726332e-06
    w: 0.99999999992
---
header: 
  seq: 295
  stamp: 
    secs: 21701
    nsecs: 965000000
  frame_id: "world"
pose: 
  position: 
    x: -3.8007459807e-05
    y: 1.38224568218e-05
    z: 1.85988392332e-05
  orientation: 
    x: 1.55575416949e-05
    y: 1.74460201309e-05
    z: 1.60303716192e-05
    w: 0.999999999598
---
header: 
  seq: 296
  stamp: 
    secs: 21702
    nsecs: 297000000
  frame_id: "world"
pose: 
  position: 
    x: 2.54995939031e-05
    y: 2.00163194677e-05
    z: 7.31083036953e-06
  orientation: 
    x: 6.49715366122e-06
    y: -1.29966720087e-05
    z: 1.89697675469e-05
    w: 0.999999999715
---
header: 
  seq: 297
  stamp: 
    secs: 21702
    nsecs: 770000000
  frame_id: "world"
pose: 
  position: 
    x: 2.54995939031e-05
    y: 2.00163194677e-05
    z: 7.31083036953e-06
  orientation: 
    x: 6.49715366122e-06
    y: -1.29966720087e-05
    z: 1.89697675469e-05
    w: 0.999999999715
---
header: 
  seq: 298
  stamp: 
    secs: 21702
    nsecs: 873000000
  frame_id: "world"
pose: 
  position: 
    x: 2.54995939031e-05
    y: 2.00163194677e-05
    z: 7.31083036953e-06
  orientation: 
    x: 6.49715366122e-06
    y: -1.29966720087e-05
    z: 1.89697675469e-05
    w: 0.999999999715
---
header: 
  seq: 299
  stamp: 
    secs: 21703
    nsecs: 234000000
  frame_id: "world"
pose: 
  position: 
    x: -2.67844407063e-05
    y: 1.59718274517e-05
    z: 1.88486883417e-05
  orientation: 
    x: 1.69171034885e-05
    y: 1.19311262057e-05
    z: 1.52049924459e-05
    w: 0.99999999967
---
header: 
  seq: 300
  stamp: 
    secs: 21703
    nsecs: 493000000
  frame_id: "world"
pose: 
  position: 
    x: -5.59524414712e-06
    y: -2.52704353443e-06
    z: 4.08178420912e-05
  orientation: 
    x: 1.29674426677e-05
    y: -6.85947156644e-07
    z: 2.09939371352e-05
    w: 0.999999999695
---
header: 
  seq: 301
  stamp: 
    secs: 21703
    nsecs: 689000000
  frame_id: "world"
pose: 
  position: 
    x: -0.0012995514553
    y: 0.00534114195034
    z: 0.000467534933705
  orientation: 
    x: 0.00335163440315
    y: 0.000547290630907
    z: 0.000170925592919
    w: 0.999994218885
---
header: 
  seq: 302
  stamp: 
    secs: 21703
    nsecs: 858000000
  frame_id: "world"
pose: 
  position: 
    x: 0.00145919481292
    y: -0.0040853661485
    z: -0.000820356595796
  orientation: 
    x: 0.00525030006034
    y: -0.000285025353918
    z: -0.00449882428833
    w: 0.999976056558
---
header: 
  seq: 303
  stamp: 
    secs: 21704
    nsecs:  84000000
  frame_id: "world"
pose: 
  position: 
    x: -0.00935991108418
    y: -0.0440242290497
    z: -0.00782900769264
  orientation: 
    x: -0.00117507026605
    y: 0.00549131104739
    z: -0.0142892194764
    w: 0.999882134514
---
header: 
  seq: 304
  stamp: 
    secs: 21704
    nsecs: 296000000
  frame_id: "world"
pose: 
  position: 
    x: -0.00359100778587
    y: -0.0602481588721
    z: -0.00692131277174
  orientation: 
    x: -0.00909488983371
    y: 0.00112298033247
    z: 0.00420329888792
    w: 0.999949175795
---
header: 
  seq: 305
  stamp: 
    secs: 21704
    nsecs: 513000000
  frame_id: "world"
pose: 
  position: 
    x: -0.0031689084135
    y: -0.0650109797716
    z: -0.00806412380189
  orientation: 
    x: -0.00412635350619
    y: 0.00103919087887
    z: 0.00337785353809
    w: 0.999985241588
---
header: 
  seq: 306
  stamp: 
    secs: 21704
    nsecs: 793000000
  frame_id: "world"
pose: 
  position: 
    x: -0.00582409836352
    y: -0.0778301283717
    z: -0.011752220802
  orientation: 
    x: -0.00440329167677
    y: 0.00234444645816
    z: 0.00330210076875
    w: 0.999982105202
---
header: 
  seq: 307
  stamp: 
    secs: 21705
    nsecs:  48000000
  frame_id: "world"
pose: 
  position: 
    x: -0.00705667724833
    y: -0.0983934178948
    z: -0.0148880099878
  orientation: 
    x: -0.00956551671782
    y: 0.00273833127609
    z: 0.00551936229261
    w: 0.999935267441
---
header: 
  seq: 308
  stamp: 
    secs: 21705
    nsecs: 404000000
  frame_id: "world"
pose: 
  position: 
    x: -0.00292827771045
    y: -0.101756408811
    z: -0.012841260992
  orientation: 
    x: -0.0101336237801
    y: 0.000825743108557
    z: 0.0045322169154
    w: 0.999938041494
---
header: 
  seq: 309
  stamp: 
    secs: 21705
    nsecs: 872000000
  frame_id: "world"
pose: 
  position: 
    x: -0.00299077876844
    y: -0.101038113236
    z: -0.0127140050754
  orientation: 
    x: -0.00829331724699
    y: 0.000835347765573
    z: 0.00452740981707
    w: 0.99995501181
---
header: 
  seq: 310
  stamp: 
    secs: 21706
    nsecs:  63000000
  frame_id: "world"
pose: 
  position: 
    x: -0.00292363902554
    y: -0.100349128246
    z: -0.0117530664429
  orientation: 
    x: -0.00782039007646
    y: 0.000829266782325
    z: 0.00409069652702
    w: 0.999960709237
---
header: 
  seq: 311
  stamp: 
    secs: 21706
    nsecs: 256000000
  frame_id: "world"
pose: 
  position: 
    x: -0.00292259640992
    y: -0.100348711014
    z: -0.0117394849658
  orientation: 
    x: -0.0078188358433
    y: 0.000829633273054
    z: 0.00408908494874
    w: 0.999960727678
---
header: 
  seq: 312
  stamp: 
    secs: 21706
    nsecs: 450000000
  frame_id: "world"
pose: 
  position: 
    x: -0.00283442880027
    y: -0.0991757586598
    z: -0.0125877149403
  orientation: 
    x: -0.00718231112881
    y: 0.000821042964775
    z: 0.00425569285853
    w: 0.999964814068
---
header: 
  seq: 313
  stamp: 
    secs: 21706
    nsecs: 783000000
  frame_id: "world"
pose: 
  position: 
    x: -0.00264242105186
    y: -0.098732277751
    z: -0.0116980103776
  orientation: 
    x: -0.00652538876418
    y: 0.000793087046175
    z: 0.00368836440475
    w: 0.999971592738
---
header: 
  seq: 314
  stamp: 
    secs: 21707
    nsecs:  96000000
  frame_id: "world"
pose: 
  position: 
    x: -0.00264134211466
    y: -0.0987318456173
    z: -0.0117137692869
  orientation: 
    x: -0.00652559854722
    y: 0.000793540512445
    z: 0.00369426795847
    w: 0.999971569216
---
header: 
  seq: 315
  stamp: 
    secs: 21707
    nsecs: 480000000
  frame_id: "world"
pose: 
  position: 
    x: -0.00265556154773
    y: -0.0985430553555
    z: -0.0108109377325
  orientation: 
    x: -0.00640257217993
    y: 0.000769675538129
    z: 0.00353920926993
    w: 0.999972943967
---
header: 
  seq: 316
  stamp: 
    secs: 21707
    nsecs: 898000000
  frame_id: "world"
pose: 
  position: 
    x: -0.00044150010217
    y: -0.101839311421
    z: -0.011406253092
  orientation: 
    x: -0.00818287380378
    y: -0.000204174019022
    z: 0.0034046819759
    w: 0.999960702743
---
header: 
  seq: 317
  stamp: 
    secs: 21708
    nsecs: 312000000
  frame_id: "world"
pose: 
  position: 
    x: -0.0022533047013
    y: -0.101472109556
    z: -0.0117737306282
  orientation: 
    x: -0.00439789834041
    y: 0.000546552693292
    z: 0.0119882521114
    w: 0.999918317455
---
header: 
  seq: 318
  stamp: 
    secs: 21708
    nsecs: 500000000
  frame_id: "world"
pose: 
  position: 
    x: -0.00171960378066
    y: -0.0988082066178
    z: -0.0127542717382
  orientation: 
    x: -0.00316349686622
    y: 0.000805578518988
    z: 0.00811274510962
    w: 0.999961762618
---
header: 
  seq: 319
  stamp: 
    secs: 21708
    nsecs: 696000000
  frame_id: "world"
pose: 
  position: 
    x: -0.00105949433055
    y: -0.0950291901827
    z: -0.0155407721177
  orientation: 
    x: -0.00331508216358
    y: 0.00139873050595
    z: 0.00851348290562
    w: 0.999957286284
---
header: 
  seq: 320
  stamp: 
    secs: 21708
    nsecs: 913000000
  frame_id: "world"
pose: 
  position: 
    x: -0.00854026898742
    y: -0.123196944594
    z: -0.0153215033934
  orientation: 
    x: -0.0141477385597
    y: 0.00641316112285
    z: 0.00221735815363
    w: 0.999876890512
---
header: 
  seq: 321
  stamp: 
    secs: 21709
    nsecs:  85000000
  frame_id: "world"
pose: 
  position: 
    x: -0.00152500753757
    y: -0.131449341774
    z: -0.0143031105399
  orientation: 
    x: -0.0184379769274
    y: 0.00344274314956
    z: 0.00598361871017
    w: 0.999806173632
---
header: 
  seq: 322
  stamp: 
    secs: 21709
    nsecs: 321000000
  frame_id: "world"
pose: 
  position: 
    x: -0.00426670582965
    y: -0.127456024289
    z: -0.013389213942
  orientation: 
    x: -0.0167496851942
    y: 0.00615203318004
    z: 0.00567594668022
    w: 0.999824676712
---
header: 
  seq: 323
  stamp: 
    secs: 21709
    nsecs: 639000000
  frame_id: "world"
pose: 
  position: 
    x: 0.00467050774023
    y: -0.138097971678
    z: -0.0176636781543
  orientation: 
    x: -0.0192596388782
    y: 0.0001454099095
    z: 0.00752493032581
    w: 0.999786187437
---
header: 
  seq: 324
  stamp: 
    secs: 21710
    nsecs:  42000000
  frame_id: "world"
pose: 
  position: 
    x: 0.00269148498774
    y: -0.137406393886
    z: -0.0160469561815
  orientation: 
    x: -0.018828664317
    y: -0.000898645536107
    z: 0.00801059352729
    w: 0.999790230112
---
header: 
  seq: 325
  stamp: 
    secs: 21710
    nsecs: 262000000
  frame_id: "world"
pose: 
  position: 
    x: 0.00841810461134
    y: -0.157899096608
    z: -0.0176908615977
  orientation: 
    x: -0.0287836392973
    y: -0.00352073104286
    z: 0.0100931215805
    w: 0.999528506576
---
header: 
  seq: 326
  stamp: 
    secs: 21710
    nsecs: 542000000
  frame_id: "world"
pose: 
  position: 
    x: -0.00355301541276
    y: -0.155760720372
    z: -0.0175027605146
  orientation: 
    x: -0.025810766473
    y: -0.00146154614173
    z: 0.00711670504353
    w: 0.999640445723
---
header: 
  seq: 327
  stamp: 
    secs: 21710
    nsecs: 785000000
  frame_id: "world"
pose: 
  position: 
    x: 0.00658101122826
    y: -0.135910287499
    z: -0.0176025703549
  orientation: 
    x: -0.0138465377593
    y: -0.0092672613789
    z: 0.00843222086716
    w: 0.999825629252
---
header: 
  seq: 328
  stamp: 
    secs: 21710
    nsecs: 987000000
  frame_id: "world"
pose: 
  position: 
    x: 0.0116829304025
    y: -0.170177593827
    z: -0.023204728961
  orientation: 
    x: -0.0291008957638
    y: -0.0122550488782
    z: 0.0146957900778
    w: 0.999393308661
---
header: 
  seq: 329
  stamp: 
    secs: 21711
    nsecs: 153000000
  frame_id: "world"
pose: 
  position: 
    x: 0.00414138799533
    y: -0.209220573306
    z: -0.029012484476
  orientation: 
    x: -0.0479689354117
    y: -0.00945335556937
    z: 0.0126227242883
    w: 0.998724327397
---
header: 
  seq: 330
  stamp: 
    secs: 21711
    nsecs: 365000000
  frame_id: "world"
pose: 
  position: 
    x: -0.00232020579278
    y: -0.209002286196
    z: -0.0270656608045
  orientation: 
    x: -0.0423653681283
    y: -0.00825808842805
    z: 0.00524168364379
    w: 0.999054304986
---
header: 
  seq: 331
  stamp: 
    secs: 21711
    nsecs: 542000000
  frame_id: "world"
pose: 
  position: 
    x: -0.00171238207258
    y: -0.208217442036
    z: -0.0285061039031
  orientation: 
    x: -0.0422442099369
    y: -0.00786004943748
    z: 0.00804075581542
    w: 0.999044039367
---
header: 
  seq: 332
  stamp: 
    secs: 21711
    nsecs: 842000000
  frame_id: "world"
pose: 
  position: 
    x: -0.00502501428127
    y: -0.249590069056
    z: -0.0340165197849
  orientation: 
    x: -0.0626591111363
    y: -0.00705968642707
    z: 0.00716550096384
    w: 0.997984294573
---
header: 
  seq: 333
  stamp: 
    secs: 21712
    nsecs: 284000000
  frame_id: "world"
pose: 
  position: 
    x: -0.00471716746688
    y: -0.246622547507
    z: -0.0317556932569
  orientation: 
    x: -0.0605938514557
    y: -0.00725338104296
    z: 0.00326628616632
    w: 0.998130805558
---
header: 
  seq: 334
  stamp: 
    secs: 21712
    nsecs: 720000000
  frame_id: "world"
pose: 
  position: 
    x: -0.0072493487969
    y: -0.2495444417
    z: -0.0376368053257
  orientation: 
    x: -0.056252093732
    y: -0.00811875301602
    z: 0.0142728308434
    w: 0.998281560533
---
header: 
  seq: 335
  stamp: 
    secs: 21712
    nsecs: 954000000
  frame_id: "world"
pose: 
  position: 
    x: -0.00662526488304
    y: -0.246792852879
    z: -0.0346738509834
  orientation: 
    x: -0.0553946657625
    y: -0.00787095505602
    z: 0.0176023144196
    w: 0.998278336737
---
header: 
  seq: 336
  stamp: 
    secs: 21713
    nsecs: 150000000
  frame_id: "world"
pose: 
  position: 
    x: -0.00610059080645
    y: -0.246646374464
    z: -0.0360888652503
  orientation: 
    x: -0.0553006935505
    y: -0.00769064104091
    z: 0.0167515164866
    w: 0.998299591319
---
header: 
  seq: 337
  stamp: 
    secs: 21713
    nsecs: 346000000
  frame_id: "world"
pose: 
  position: 
    x: -0.00503985118121
    y: -0.24551011622
    z: -0.0364315211773
  orientation: 
    x: -0.0550974683199
