header: 
  seq: 622
  stamp: 
    secs: 1275
    nsecs: 915000000
  frame_id: "world"
pose: 
  position: 
    x: -0.000192820953089
    y: 5.28970376763e-05
    z: 6.22315783403e-05
  orientation: 
    x: 7.40432874885e-05
    y: 7.3245900746e-05
    z: 1.22113296367e-05
    w: 0.999999994502
---
header: 
  seq: 623
  stamp: 
    secs: 1276
    nsecs: 191000000
  frame_id: "world"
pose: 
  position: 
    x: -0.000192820967641
    y: 5.28970376763e-05
    z: 6.22315783403e-05
  orientation: 
    x: 7.40432874885e-05
    y: 7.3245900746e-05
    z: 1.22113296367e-05
    w: 0.999999994502
---
header: 
  seq: 624
  stamp: 
    secs: 1276
    nsecs: 543000000
  frame_id: "world"
pose: 
  position: 
    x: -8.20024433779e-05
    y: 4.11606088164e-05
    z: -4.6277191359e-06
  orientation: 
    x: 2.95138106267e-05
    y: 3.5633154727e-05
    z: 8.54638255041e-06
    w: 0.999999998893
---
header: 
  seq: 625
  stamp: 
    secs: 1276
    nsecs: 936000000
  frame_id: "world"
pose: 
  position: 
    x: -3.66298263543e-05
    y: 1.22492347145e-05
    z: -2.34726830968e-05
  orientation: 
    x: 5.31019986618e-06
    y: 1.97257286301e-05
    z: 5.76898628294e-06
    w: 0.999999999775
---
header: 
  seq: 626
  stamp: 
    secs: 1277
    nsecs: 310000000
  frame_id: "world"
pose: 
  position: 
    x: -0.000197501838556
    y: 4.44059442088e-05
    z: 6.23331725365e-05
  orientation: 
    x: 7.07407521813e-05
    y: 7.50017202842e-05
    z: 1.20692483765e-05
    w: 0.999999994612
---
header: 
  seq: 627
  stamp: 
    secs: 1277
    nsecs: 564000000
  frame_id: "world"
pose: 
  position: 
    x: -0.000139417912578
    y: 2.36322357523e-05
    z: 1.79816324817e-05
  orientation: 
    x: 3.92698419944e-05
    y: 5.6729142531e-05
    z: 1.26214963219e-05
    w: 0.99999999754
---
header: 
  seq: 628
  stamp: 
    secs: 1277
    nsecs: 830000000
  frame_id: "world"
pose: 
  position: 
    x: -3.67205539078e-05
    y: 1.22725450638e-05
    z: -2.34864673985e-05
  orientation: 
    x: 5.33033380514e-06
    y: 1.97637873453e-05
    z: 5.77727041542e-06
    w: 0.999999999774
---
header: 
  seq: 629
  stamp: 
    secs: 1278
    nsecs:  90000000
  frame_id: "world"
pose: 
  position: 
    x: -0.000197619243409
    y: 4.45426630904e-05
    z: 6.24249005341e-05
  orientation: 
    x: 7.08195289733e-05
    y: 7.50623071822e-05
    z: 1.20401418176e-05
    w: 0.999999994603
---
header: 
  seq: 630
  stamp: 
    secs: 1278
    nsecs: 358000000
  frame_id: "world"
pose: 
  position: 
    x: -3.67063039448e-05
    y: 1.23044192151e-05
    z: -2.3499076633e-05
  orientation: 
    x: 5.34476612181e-06
    y: 1.975904524e-05
    z: 5.77496257262e-06
    w: 0.999999999774
---
header: 
  seq: 631
  stamp: 
    secs: 1278
    nsecs: 666000000
  frame_id: "world"
pose: 
  position: 
    x: -0.000197689936613
    y: 4.44927936769e-05
    z: 6.2412378611e-05
  orientation: 
    x: 7.07982176935e-05
    y: 7.50905451735e-05
    z: 1.20366730048e-05
    w: 0.999999994602
---
header: 
  seq: 632
  stamp: 
    secs: 1278
    nsecs: 948000000
  frame_id: "world"
pose: 
  position: 
    x: -0.000197689936613
    y: 4.44927936769e-05
    z: 6.2412378611e-05
  orientation: 
    x: 7.07982176935e-05
    y: 7.50905451735e-05
    z: 1.20366730048e-05
    w: 0.999999994602
---
header: 
  seq: 633
  stamp: 
    secs: 1279
    nsecs: 304000000
  frame_id: "world"
pose: 
  position: 
    x: -0.000139459196362
    y: 2.36095602304e-05
    z: 1.80399038072e-05
  orientation: 
    x: 3.92850305559e-05
    y: 5.67373498111e-05
    z: 1.2562019916e-05
    w: 0.99999999754
---
header: 
  seq: 634
  stamp: 
    secs: 1279
    nsecs: 653000000
  frame_id: "world"
pose: 
  position: 
    x: -0.0001946757111
    y: 5.38076492376e-05
    z: 6.23622909188e-05
  orientation: 
    x: 7.44963540842e-05
    y: 7.39612146806e-05
    z: 1.23172348361e-05
    w: 0.999999994414
---
header: 
  seq: 635
  stamp: 
    secs: 1279
    nsecs: 900000000
  frame_id: "world"
pose: 
  position: 
    x: -3.65991363651e-05
    y: 1.23274166981e-05
    z: -2.34879480558e-05
  orientation: 
    x: 5.3517633193e-06
    y: 1.97071203685e-05
    z: 5.77393893634e-06
    w: 0.999999999775
---
header: 
  seq: 636
  stamp: 
    secs: 1280
    nsecs: 142000000
  frame_id: "world"
pose: 
  position: 
    x: -0.00019785031327
    y: 4.51538980997e-05
    z: 6.25556349405e-05
  orientation: 
    x: 7.11096796076e-05
    y: 7.51255425276e-05
    z: 1.2085811184e-05
    w: 0.999999994577
---
header: 
  seq: 637
  stamp: 
    secs: 1280
    nsecs: 393000000
  frame_id: "world"
pose: 
  position: 
    x: -0.000139959694934
    y: 2.42411988438e-05
    z: 1.81327814062e-05
  orientation: 
    x: 3.9558359178e-05
    y: 5.69239235525e-05
    z: 1.26930098898e-05
    w: 0.999999997517
---
header: 
  seq: 638
  stamp: 
    secs: 1280
    nsecs: 644000000
  frame_id: "world"
pose: 
  position: 
    x: -3.67350621673e-05
    y: 1.28255633172e-05
    z: -2.33683967963e-05
  orientation: 
    x: 5.58335886908e-06
    y: 1.97347599124e-05
    z: 5.82603433808e-06
    w: 0.999999999773
---
header: 
  seq: 639
  stamp: 
    secs: 1281
    nsecs:  20000000
  frame_id: "world"
pose: 
  position: 
    x: -0.000139918614877
    y: 2.42316418735e-05
    z: 1.8125607312e-05
  orientation: 
    x: 3.95537243931e-05
    y: 5.69071270044e-05
    z: 1.26902714013e-05
    w: 0.999999997518
---
header: 
  seq: 640
  stamp: 
    secs: 1281
    nsecs: 376000000
  frame_id: "world"
pose: 
  position: 
    x: -3.6792614992e-05
    y: 1.27680596052e-05
    z: -2.33762311836e-05
  orientation: 
    x: 5.54681036975e-06
    y: 1.97644130777e-05
    z: 5.83689052159e-06
    w: 0.999999999772
---
header: 
  seq: 641
  stamp: 
    secs: 1281
    nsecs: 620000000
  frame_id: "world"
pose: 
  position: 
    x: -0.000139969459269
    y: 2.42229143623e-05
    z: 1.81083432835e-05
  orientation: 
    x: 3.95478345054e-05
    y: 5.69316033257e-05
    z: 1.2693839349e-05
    w: 0.999999997517
---
header: 
  seq: 642
  stamp: 
    secs: 1281
    nsecs: 990000000
  frame_id: "world"
pose: 
  position: 
    x: -0.000198625624762
    y: 4.52496642538e-05
    z: 6.26934197498e-05
  orientation: 
    x: 7.11667667689e-05
    y: 7.53963027349e-05
    z: 1.21306792856e-05
    w: 0.999999994552
---
header: 
  seq: 643
  stamp: 
    secs: 1282
    nsecs: 217000000
  frame_id: "world"
pose: 
  position: 
    x: -0.000140423406265
    y: 2.32179936575e-05
    z: 1.81508112291e-05
  orientation: 
    x: 3.90910753537e-05
    y: 5.7072866043e-05
    z: 1.26738131853e-05
    w: 0.999999997527
---
header: 
  seq: 644
  stamp: 
    secs: 1282
    nsecs: 472000000
  frame_id: "world"
pose: 
  position: 
    x: -0.00014048149751
    y: 2.31835128943e-05
    z: 1.81593459274e-05
  orientation: 
    x: 3.90703388746e-05
    y: 5.71000817624e-05
    z: 1.26769873218e-05
    w: 0.999999997526
---
header: 
  seq: 645
  stamp: 
    secs: 1282
    nsecs: 737000000
  frame_id: "world"
pose: 
  position: 
    x: -0.000194656953681
    y: 5.42807356396e-05
    z: 6.26873079455e-05
  orientation: 
    x: 7.47173903983e-05
    y: 7.39093007224e-05
    z: 1.23240533177e-05
    w: 0.999999994401
---
header: 
  seq: 646
  stamp: 
    secs: 1283
    nsecs:  39000000
  frame_id: "world"
pose: 
  position: 
    x: -0.000140365766129
    y: 2.32238962781e-05
    z: 1.81337672984e-05
  orientation: 
    x: 3.90936255769e-05
    y: 5.70488153653e-05
    z: 1.26711238095e-05
    w: 0.999999997528
---
header: 
  seq: 647
  stamp: 
    secs: 1283
    nsecs: 311000000
  frame_id: "world"
pose: 
  position: 
    x: -8.145551692e-05
    y: 3.99827949877e-05
    z: -4.88356818096e-06
  orientation: 
    x: 2.89007493535e-05
    y: 3.54546100041e-05
    z: 8.63937838377e-06
    w: 0.999999998917
---
header: 
  seq: 648
  stamp: 
    secs: 1283
    nsecs: 598000000
  frame_id: "world"
pose: 
  position: 
    x: -0.000198375419131
    y: 4.48459686595e-05
    z: 6.26121254754e-05
  orientation: 
    x: 7.09452720701e-05
    y: 7.52892006412e-05
    z: 1.21539832685e-05
    w: 0.999999994575
---
header: 
  seq: 649
  stamp: 
    secs: 1283
    nsecs: 914000000
  frame_id: "world"
pose: 
  position: 
    x: -3.67774409824e-05
    y: 1.28577257783e-05
    z: -2.33438822761e-05
  orientation: 
    x: 5.56609665965e-06
    y: 1.97484878254e-05
    z: 5.82828124474e-06
    w: 0.999999999773
---
header: 
  seq: 650
  stamp: 
    secs: 1284
    nsecs: 257000000
  frame_id: "world"
pose: 
  position: 
    x: -0.000140114687383
    y: 2.30226705753e-05
    z: 1.81507548405e-05
  orientation: 
    x: 3.89723390022e-05
    y: 5.69474067069e-05
    z: 1.25930582416e-05
    w: 0.99999999754
---
header: 
  seq: 651
  stamp: 
    secs: 1284
    nsecs: 528000000
  frame_id: "world"
pose: 
  position: 
    x: -0.000198592286324
    y: 4.4823053031e-05
    z: 6.26317414572e-05
  orientation: 
    x: 7.09357696691e-05
    y: 7.53823620015e-05
    z: 1.21736165304e-05
    w: 0.999999994569
---
header: 
  seq: 652
  stamp: 
    secs: 1284
    nsecs: 759000000
  frame_id: "world"
pose: 
  position: 
    x: -0.000193625382963
    y: 5.34479659109e-05
    z: 6.19770289632e-05
  orientation: 
    x: 7.42458428681e-05
    y: 7.36293437069e-05
    z: 1.23399103584e-05
    w: 0.999999994457
---
header: 
  seq: 653
  stamp: 
    secs: 1285
    nsecs:  89000000
  frame_id: "world"
pose: 
  position: 
    x: -0.000193625382963
    y: 5.34479659109e-05
    z: 6.19770289632e-05
  orientation: 
    x: 7.42458428681e-05
    y: 7.36293437069e-05
    z: 1.23399103584e-05
    w: 0.999999994457
---
header: 
  seq: 654
  stamp: 
    secs: 1285
    nsecs: 502000000
  frame_id: "world"
pose: 
  position: 
    x: -0.000140093558002
    y: 2.30338118854e-05
    z: 1.81292689376e-05
  orientation: 
    x: 3.89758423758e-05
    y: 5.69304937435e-05
    z: 1.25990627256e-05
    w: 0.999999997541
---
header: 
  seq: 655
  stamp: 
    secs: 1285
    nsecs: 935000000
  frame_id: "world"
pose: 
  position: 
    x: -0.000193274143385
    y: 5.40537621418e-05
    z: 6.22253865004e-05
  orientation: 
    x: 7.45298234915e-05
    y: 7.34604177993e-05
    z: 1.23601602577e-05
    w: 0.999999994448
---
header: 
  seq: 656
  stamp: 
    secs: 1286
    nsecs: 304000000
  frame_id: "world"
pose: 
  position: 
    x: -0.000193274143385
    y: 5.40537621418e-05
    z: 6.22253937763e-05
  orientation: 
    x: 7.45298234915e-05
    y: 7.34604177993e-05
    z: 1.23601602577e-05
    w: 0.999999994448
---
header: 
  seq: 657
  stamp: 
    secs: 1286
    nsecs: 529000000
  frame_id: "world"
pose: 
  position: 
    x: -0.000193274143385
    y: 5.40537621418e-05
    z: 6.22254010523e-05
  orientation: 
    x: 7.45298234915e-05
    y: 7.34604177993e-05
    z: 1.23601602577e-05
    w: 0.999999994448
---
header: 
  seq: 658
  stamp: 
    secs: 1286
    nsecs: 766000000
  frame_id: "world"
pose: 
  position: 
    x: -0.000193274143385
    y: 5.40537621418e-05
    z: 6.22254083282e-05
  orientation: 
    x: 7.45298234915e-05
    y: 7.34604177993e-05
    z: 1.23601602577e-05
    w: 0.999999994448
---
header: 
  seq: 659
  stamp: 
    secs: 1287
    nsecs:  73000000
  frame_id: "world"
pose: 
  position: 
    x: -8.14969753264e-05
    y: 4.03630911023e-05
    z: -4.95804442835e-06
  orientation: 
    x: 2.90604202429e-05
    y: 3.54947732898e-05
    z: 8.69258200472e-06
    w: 0.99999999891
---
header: 
  seq: 660
  stamp: 
    secs: 1287
    nsecs: 289000000
  frame_id: "world"
pose: 
  position: 
    x: -8.14537634142e-05
    y: 4.0404345782e-05
    z: -4.95466974826e-06
  orientation: 
    x: 2.90796160381e-05
    y: 3.54802395645e-05
    z: 8.69125959942e-06
    w: 0.99999999891
---
header: 
  seq: 661
  stamp: 
    secs: 1287
    nsecs: 577000000
  frame_id: "world"
pose: 
  position: 
    x: -8.15181410871e-05
    y: 3.99567870772e-05
    z: -4.95755830343e-06
  orientation: 
    x: 2.88745049744e-05
    y: 3.5489465479e-05
    z: 8.67309335232e-06
    w: 0.999999998916
---
header: 
  seq: 662
  stamp: 
    secs: 1287
    nsecs: 958000000
  frame_id: "world"
pose: 
  position: 
    x: -3.73507427867e-05
    y: 1.23566624097e-05
    z: -2.36253417825e-05
  orientation: 
    x: 5.29978160434e-06
    y: 2.00385420566e-05
    z: 5.82197844643e-06
    w: 0.999999999768
---
header: 
  seq: 663
  stamp: 
    secs: 1288
    nsecs: 301000000
  frame_id: "world"
pose: 
  position: 
    x: -0.000140451811603
    y: 2.28373082791e-05
    z: 1.80938277481e-05
  orientation: 
    x: 3.88750921908e-05
    y: 5.70822374769e-05
    z: 1.26378508555e-05
    w: 0.999999997535
---
header: 
  seq: 664
  stamp: 
    secs: 1288
    nsecs: 679000000
  frame_id: "world"
pose: 
  position: 
    x: -0.000140407995787
    y: 2.28304015764e-05
    z: 1.81037266884e-05
  orientation: 
    x: 3.88719526152e-05
    y: 5.70529262818e-05
    z: 1.26377735485e-05
    w: 0.999999997537
---
header: 
  seq: 665
  stamp: 
    secs: 1289
    nsecs:  13000000
  frame_id: "world"
pose: 
  position: 
    x: -0.000194680716959
    y: 5.43770183867e-05
    z: 6.24706153758e-05
  orientation: 
    x: 7.47057124861e-05
    y: 7.39560996812e-05
    z: 1.24411434839e-05
    w: 0.999999994397
---
header: 
  seq: 666
  stamp: 
    secs: 1289
    nsecs: 248000000
  frame_id: "world"
pose: 
  position: 
    x: -3.73544098693e-05
    y: 1.23782001538e-05
    z: -2.36362557189e-05
  orientation: 
    x: 5.31348314202e-06
    y: 2.00404774613e-05
    z: 5.82461461683e-06
    w: 0.999999999768
---
header: 
  seq: 667
  stamp: 
    secs: 1289
    nsecs: 487000000
  frame_id: "world"
pose: 
  position: 
    x: -0.000194002961507
    y: 5.43411551917e-05
    z: 6.21775907348e-05
  orientation: 
    x: 7.46895453095e-05
    y: 7.37876685404e-05
    z: 1.23442286387e-05
    w: 0.999999994412
---
header: 
  seq: 668
  stamp: 
    secs: 1289
    nsecs: 714000000
  frame_id: "world"
pose: 
  position: 
    x: -0.000140441203257
    y: 2.27568507398e-05
    z: 1.7786907847e-05
  orientation: 
    x: 3.88252627952e-05
    y: 5.71325507236e-05
    z: 1.26104350473e-05
    w: 0.999999997535
---
header: 
  seq: 669
  stamp: 
    secs: 1289
    nsecs: 995000000
  frame_id: "world"
pose: 
  position: 
    x: -8.1650337961e-05
    y: 3.99133641622e-05
    z: -4.94170899401e-06
  orientation: 
    x: 2.88821301779e-05
    y: 3.5545912358e-05
    z: 8.65509718066e-06
    w: 0.999999998914
---
header: 
  seq: 670
  stamp: 
    secs: 1290
    nsecs: 255000000
  frame_id: "world"
pose: 
  position: 
    x: -0.000195130385691
    y: 5.47050949535e-05
    z: 6.24751555733e-05
  orientation: 
    x: 7.48787565831e-05
    y: 7.41482577187e-05
    z: 1.24217921649e-05
    w: 0.99999999437
---
header: 
  seq: 671
  stamp: 
    secs: 1290
    nsecs: 642000000
  frame_id: "world"
pose: 
  position: 
    x: -0.000195130385691
    y: 5.47050949535e-05
    z: 6.24751628493e-05
  orientation: 
    x: 7.48787565831e-05
    y: 7.41482577187e-05
    z: 1.24217921649e-05
    w: 0.99999999437
---
header: 
  seq: 672
  stamp: 
    secs: 1291
    nsecs:  19000000
  frame_id: "world"
pose: 
  position: 
    x: -0.00014040050155
    y: 2.22223243327e-05
    z: 1.77620531758e-05
  orientation: 
    x: 3.8543792376e-05
    y: 5.71210874531e-05
    z: 1.26209660866e-05
    w: 0.999999997546
---
header: 
  seq: 673
  stamp: 
    secs: 1291
    nsecs: 302000000
  frame_id: "world"
pose: 
  position: 
    x: -0.000214027619222
    y: 4.23622259405e-05
    z: 5.85556736041e-05
  orientation: 
    x: 6.93775287361e-05
    y: 8.218935497e-05
    z: 1.357372995e-05
    w: 0.999999994124
---
header: 
  seq: 674
  stamp: 
    secs: 1291
    nsecs: 545000000
  frame_id: "world"
pose: 
  position: 
    x: -0.000209876307053
    y: 5.26889962202e-05
    z: 5.81166714255e-05
  orientation: 
    x: 7.34906639177e-05
    y: 8.0760080402e-05
    z: 1.38658205357e-05
    w: 0.999999993942
---
header: 
  seq: 675
  stamp: 
    secs: 1291
    nsecs: 765000000
  frame_id: "world"
pose: 
  position: 
    x: -8.1517144281e-05
    y: 3.9987211494e-05
    z: -4.89077865495e-06
  orientation: 
    x: 2.88852224599e-05
    y: 3.54789553582e-05
    z: 8.68175537985e-06
    w: 0.999999998916
---
header: 
  seq: 676
  stamp: 
    secs: 1292
    nsecs:  90000000
  frame_id: "world"
pose: 
  position: 
    x: -0.000140425690915
    y: 2.2251448172e-05
    z: 1.7718075469e-05
  orientation: 
    x: 3.85433849224e-05
    y: 5.7129844068e-05
    z: 1.26324411812e-05
    w: 0.999999997546
---
header: 
  seq: 677
  stamp: 
    secs: 1292
    nsecs: 470000000
  frame_id: "world"
pose: 
  position: 
    x: -3.72391405108e-05
    y: 1.27441562654e-05
    z: -2.37060739892e-05
  orientation: 
    x: 5.48192019651e-06
    y: 1.99973783264e-05
    z: 5.82477332365e-06
    w: 0.999999999768
---
header: 
  seq: 678
  stamp: 
    secs: 1292
    nsecs: 821000000
  frame_id: "world"
pose: 
  position: 
    x: -8.2177692093e-05
    y: 3.97608855565e-05
    z: -5.12059250468e-06
  orientation: 
    x: 2.87748443638e-05
    y: 3.57991411483e-05
    z: 8.67907964637e-06
    w: 0.999999998908
---
header: 
  seq: 679
  stamp: 
    secs: 1293
    nsecs: 207000000
  frame_id: "world"
pose: 
  position: 
    x: -0.000211175924051
    y: 5.32588310307e-05
    z: 5.84408262512e-05
  orientation: 
    x: 7.37939549287e-05
    y: 8.12132343106e-05
    z: 1.39004240796e-05
    w: 0.999999993883
---
header: 
  seq: 680
  stamp: 
    secs: 1293
    nsecs: 480000000
  frame_id: "world"
pose: 
  position: 
    x: -0.000211175924051
    y: 5.32588310307e-05
    z: 5.84408262512e-05
  orientation: 
    x: 7.37939549287e-05
    y: 8.12132343106e-05
    z: 1.39004240796e-05
    w: 0.999999993883
---
header: 
  seq: 681
  stamp: 
    secs: 1293
    nsecs: 761000000
  frame_id: "world"
pose: 
  position: 
    x: -0.000140297095641
    y: 2.1821795599e-05
    z: 1.76602588908e-05
  orientation: 
    x: 3.83087352903e-05
    y: 5.70977134399e-05
    z: 1.26204258468e-05
    w: 0.999999997557
---
header: 
  seq: 682
  stamp: 
    secs: 1294
    nsecs:  20000000
  frame_id: "world"
pose: 
  position: 
    x: -0.000214838859392
    y: 4.32246961282e-05
    z: 5.87047252338e-05
  orientation: 
    x: 6.97719438404e-05
    y: 8.24834055149e-05
    z: 1.37004780396e-05
    w: 0.99999999407
---
header: 
  seq: 683
  stamp: 
    secs: 1294
    nsecs: 283000000
  frame_id: "world"
pose: 
  position: 
    x: -0.000140199321322
    y: 2.18327386392e-05
    z: 1.7666588974e-05
  orientation: 
    x: 3.83171717632e-05
    y: 5.70515365752e-05
    z: 1.26140011763e-05
    w: 0.999999997559
---
header: 
  seq: 684
  stamp: 
    secs: 1294
    nsecs: 575000000
  frame_id: "world"
pose: 
  position: 
    x: -0.000209687801544
    y: 5.28263990418e-05
    z: 5.81038584642e-05
  orientation: 
    x: 7.359485563e-05
    y: 8.07075261603e-05
    z: 1.3767246772e-05
    w: 0.99999999394
---
header: 
  seq: 685
  stamp: 
    secs: 1294
    nsecs: 812000000
  frame_id: "world"
pose: 
  position: 
    x: -0.000209687801544
    y: 5.28263990418e-05
    z: 5.81038584642e-05
  orientation: 
    x: 7.359485563e-05
    y: 8.07075261603e-05
    z: 1.3767246772e-05
    w: 0.99999999394
---
header: 
  seq: 686
  stamp: 
    secs: 1295
    nsecs:  52000000
  frame_id: "world"
pose: 
  position: 
    x: -0.000209687801544
    y: 5.28263990418e-05
    z: 5.81038584642e-05
  orientation: 
    x: 7.359485563e-05
    y: 8.07075261603e-05
    z: 1.3767246772e-05
    w: 0.99999999394
---
header: 
  seq: 687
  stamp: 
    secs: 1295
    nsecs: 376000000
  frame_id: "world"
pose: 
  position: 
    x: -0.000209687801544
    y: 5.28263990418e-05
    z: 5.81038584642e-05
  orientation: 
    x: 7.359485563e-05
    y: 8.07075261603e-05
    z: 1.3767246772e-05
    w: 0.99999999394
---
header: 
  seq: 688
  stamp: 
    secs: 1295
    nsecs: 624000000
  frame_id: "world"
pose: 
  position: 
    x: -0.000140607997309
    y: 2.16524185817e-05
    z: 1.7540063709e-05
  orientation: 
    x: 3.82246361343e-05
    y: 5.71841845578e-05
    z: 1.26419735952e-05
    w: 0.999999997555
---
header: 
  seq: 689
  stamp: 
    secs: 1295
    nsecs: 917000000
  frame_id: "world"
pose: 
  position: 
    x: -8.19693304948e-05
    y: 3.92896290577e-05
    z: -5.18199294675e-06
  orientation: 
    x: 2.85064542969e-05
    y: 3.57031639919e-05
    z: 8.74272062865e-06
    w: 0.999999998918
---
header: 
  seq: 690
  stamp: 
    secs: 1296
    nsecs: 155000000
  frame_id: "world"
pose: 
  position: 
    x: -0.000141454132972
    y: 2.18232162297e-05
    z: 1.74594861164e-05
  orientation: 
    x: 3.83094301432e-05
    y: 5.7556426185e-05
    z: 1.2674729956e-05
    w: 0.999999997529
---
header: 
  seq: 691
  stamp: 
    secs: 1296
    nsecs: 421000000
  frame_id: "world"
pose: 
  position: 
    x: -8.20302957436e-05
    y: 3.92611946154e-05
    z: -5.14519888384e-06
  orientation: 
    x: 2.85161003977e-05
    y: 3.5723231083e-05
    z: 8.73270072553e-06
    w: 0.999999998917
---
header: 
  seq: 692
  stamp: 
    secs: 1296
    nsecs: 795000000
  frame_id: "world"
pose: 
  position: 
    x: -0.000210809026612
    y: 5.31168370799e-05
    z: 5.84188710491e-05
  orientation: 
    x: 7.37541481659e-05
    y: 8.10706328194e-05
    z: 1.3844481061e-05
    w: 0.999999993898
---
header: 
  seq: 693
  stamp: 
    secs: 1297
    nsecs: 112000000
  frame_id: "world"
pose: 
  position: 
    x: -0.00014145822206
    y: 2.17810102185e-05
    z: 1.74462111318e-05
  orientation: 
    x: 3.8287685944e-05
    y: 5.75601987691e-05
    z: 1.26742906701e-05
    w: 0.99999999753
---
header: 
  seq: 694
  stamp: 
    secs: 1297
    nsecs: 459000000
  frame_id: "world"
pose: 
  position: 
    x: -8.21294161142e-05
    y: 3.921267853e-05
    z: -5.14913290317e-06
  orientation: 
    x: 2.84928173333e-05
    y: 3.57671742289e-05
    z: 8.72624695112e-06
    w: 0.999999998916
---
header: 
  seq: 695
  stamp: 
    secs: 1297
    nsecs: 736000000
  frame_id: "world"
pose: 
  position: 
    x: -0.000141657947097
    y: 2.21367390623e-05
    z: 1.74091219378e-05
  orientation: 
    x: 3.84532976523e-05
    y: 5.7646739008e-05
    z: 1.27058437696e-05
    w: 0.999999997518
---
header: 
  seq: 696
  stamp: 
    secs: 1297
    nsecs: 996000000
  frame_id: "world"
pose: 
  position: 
    x: -3.68972432625e-05
    y: 1.25500682771e-05
    z: -2.41111483774e-05
  orientation: 
    x: 5.30800252696e-06
    y: 1.99321057107e-05
    z: 5.97325106217e-06
    w: 0.999999999769
---
header: 
  seq: 697
  stamp: 
    secs: 1298
    nsecs: 239000000
  frame_id: "world"
pose: 
  position: 
    x: -8.20989953354e-05
    y: 3.92823421862e-05
    z: -5.18331262356e-06
  orientation: 
    x: 2.85214864252e-05
    y: 3.57582429909e-05
    z: 8.72505278458e-06
    w: 0.999999998916
---
header: 
  seq: 698
  stamp: 
    secs: 1298
    nsecs: 581000000
  frame_id: "world"
pose: 
  position: 
    x: -8.21533394628e-05
    y: 3.92497313442e-05
    z: -5.19567720403e-06
  orientation: 
    x: 2.85134901478e-05
    y: 3.57787175356e-05
    z: 8.72378676795e-06
    w: 0.999999998915
---
header: 
  seq: 699
  stamp: 
    secs: 1298
    nsecs: 827000000
  frame_id: "world"
pose: 
  position: 
    x: -8.24697926873e-05
    y: 3.94023190893e-05
    z: -5.52400160814e-06
  orientation: 
    x: 2.85612386194e-05
    y: 3.5980610807e-05
    z: 8.72085364746e-06
    w: 0.999999998907
---
header: 
  seq: 700
  stamp: 
    secs: 1299
    nsecs: 161000000
  frame_id: "world"
pose: 
  position: 
    x: -0.000141915879794
    y: 2.20940091822e-05
    z: 1.72387062776e-05
  orientation: 
    x: 3.84008598257e-05
    y: 5.77866447582e-05
    z: 1.28232404358e-05
    w: 0.999999997511
---
header: 
  seq: 701
  stamp: 
    secs: 1299
    nsecs: 516000000
  frame_id: "world"
pose: 
  position: 
    x: -0.000215617124923
    y: 4.24185527663e-05
    z: 5.84539993724e-05
  orientation: 
    x: 6.93705729172e-05
    y: 8.27587641295e-05
    z: 1.38153426724e-05
    w: 0.999999994074
---
header: 
  seq: 702
  stamp: 
    secs: 1299
    nsecs: 919000000
  frame_id: "world"
pose: 
  position: 
    x: -8.25147944852e-05
    y: 3.93014452129e-05
    z: -5.54078224013e-06
  orientation: 
    x: 2.8514443298e-05
    y: 3.60046105532e-05
    z: 8.71894007062e-06
    w: 0.999999998907
---
header: 
  seq: 703
  stamp: 
    secs: 1300
    nsecs: 178000000
  frame_id: "world"
pose: 
  position: 
    x: -0.000141558921314
    y: 2.20335441554e-05
    z: 1.72461604961e-05
  orientation: 
    x: 3.83702462344e-05
    y: 5.76456403386e-05
    z: 1.27951988953e-05
    w: 0.99999999752
---
header: 
  seq: 704
  stamp: 
    secs: 1300
    nsecs: 426000000
  frame_id: "world"
pose: 
  position: 
    x: -3.7445435737e-05
    y: 1.26361510411e-05
    z: -2.45117553277e-05
  orientation: 
    x: 5.38747099072e-06
    y: 2.02429364387e-05
    z: 5.89630371766e-06
    w: 0.999999999763
---
header: 
  seq: 705
  stamp: 
    secs: 1300
    nsecs: 687000000
  frame_id: "world"
pose: 
  position: 
    x: -8.25352399261e-05
    y: 3.93954360334e-05
    z: -5.50089771423e-06
  orientation: 
    x: 2.85732403114e-05
    y: 3.60103330937e-05
    z: 8.70961593093e-06
    w: 0.999999998905
---
header: 
  seq: 706
  stamp: 
    secs: 1300
    nsecs: 955000000
  frame_id: "world"
pose: 
  position: 
    x: -0.000141523705679
    y: 2.19682387979e-05
    z: 1.72069139808e-05
  orientation: 
    x: 3.83310542889e-05
    y: 5.76373348331e-05
    z: 1.27934171952e-05
    w: 0.999999997522
---
header: 
  seq: 707
  stamp: 
    secs: 1301
    nsecs: 187000000
  frame_id: "world"
pose: 
  position: 
    x: -0.000210459285881
    y: 5.28858217876e-05
    z: 5.79189327254e-05
  orientation: 
    x: 7.36032957389e-05
    y: 8.09964980891e-05
    z: 1.38843051055e-05
    w: 0.999999993915
---
header: 
  seq: 708
  stamp: 
    secs: 1301
    nsecs: 614000000
  frame_id: "world"
pose: 
  position: 
    x: -3.75878298655e-05
    y: 1.23110576169e-05
    z: -2.47687439696e-05
  orientation: 
    x: 5.19596414837e-06
    y: 2.03445397298e-05
    z: 5.95720712085e-06
    w: 0.999999999762
---
header: 
  seq: 709
  stamp: 
    secs: 1301
    nsecs: 914000000
  frame_id: "world"
pose: 
  position: 
    x: -3.78069162252e-05
    y: 1.38588802656e-05
    z: -2.44237635343e-05
  orientation: 
    x: 5.917007455e-06
    y: 2.03869058119e-05
    z: 6.07553920269e-06
    w: 0.999999999756
---
header: 
  seq: 710
  stamp: 
    secs: 1302
    nsecs: 251000000
  frame_id: "world"
pose: 
  position: 
    x: -0.000141659591463
    y: 2.20293823077e-05
    z: 1.71973588294e-05
  orientation: 
    x: 3.83555742658e-05
    y: 5.76992786978e-05
    z: 1.28106484818e-05
    w: 0.999999997518
---
header: 
  seq: 711
  stamp: 
    secs: 1302
    nsecs: 555000000
  frame_id: "world"
pose: 
  position: 
    x: -0.000211487684282
    y: 5.2711176977e-05
    z: 5.81779750064e-05
  orientation: 
    x: 7.35248245348e-05
    y: 8.13447617963e-05
    z: 1.39376042229e-05
    w: 0.999999993891
---
header: 
  seq: 712
  stamp: 
    secs: 1302
    nsecs: 903000000
  frame_id: "world"
pose: 
  position: 
    x: -0.000210211306694
    y: 5.25652176293e-05
    z: 5.78453182243e-05
  orientation: 
    x: 7.34264244878e-05
    y: 8.09165716968e-05
    z: 1.38534504982e-05
    w: 0.999999993935
---
header: 
  seq: 713
  stamp: 
    secs: 1303
    nsecs: 215000000
  frame_id: "world"
pose: 
  position: 
    x: -0.000210255617276
    y: 5.27627307747e-05
    z: 5.77409300604e-05
  orientation: 
    x: 7.3502567383e-05
    y: 8.09604020644e-05
    z: 1.39138063851e-05
    w: 0.999999993925
---
header: 
  seq: 714
  stamp: 
    secs: 1303
    nsecs: 552000000
  frame_id: "world"
pose: 
  position: 
    x: -3.76707175747e-05
    y: 1.20423619592e-05
    z: -2.49113527389e-05
  orientation: 
    x: 5.03427463507e-06
    y: 2.03943927724e-05
    z: 5.97925281766e-06
    w: 0.999999999761
---
header: 
  seq: 715
  stamp: 
    secs: 1303
    nsecs: 960000000
  frame_id: "world"
pose: 
  position: 
    x: -3.80603451049e-05
    y: 1.2679597603e-05
    z: -2.47802199738e-05
  orientation: 
    x: 5.34004311573e-06
    y: 2.05370997669e-05
    z: 6.03923808593e-06
    w: 0.999999999757
---
header: 
  seq: 716
  stamp: 
    secs: 1304
    nsecs: 236000000
  frame_id: "world"
pose: 
  position: 
    x: -3.7840432924e-05
    y: 1.31724791572e-05
    z: -2.473881068e-05
  orientation: 
    x: 5.59216914417e-06
    y: 2.04384723425e-05
    z: 6.06721596194e-06
    w: 0.999999999757
---
header: 
  seq: 717
  stamp: 
    secs: 1304
    nsecs: 580000000
  frame_id: "world"
pose: 
  position: 
    x: -0.000214830390178
    y: 4.07457991969e-05
    z: 5.82004213356e-05
  orientation: 
    x: 6.8599299592e-05
    y: 8.25226083809e-05
    z: 1.35867711948e-05
    w: 0.99999999415
---
header: 
  seq: 718
  stamp: 
    secs: 1304
    nsecs: 874000000
  frame_id: "world"
pose: 
  position: 
    x: -0.000214830390178
    y: 4.07457991969e-05
    z: 5.82004249736e-05
  orientation: 
    x: 6.8599299592e-05
    y: 8.25226083809e-05
    z: 1.35867711948e-05
    w: 0.99999999415
---
header: 
  seq: 719
  stamp: 
    secs: 1305
    nsecs: 105000000
  frame_id: "world"
pose: 
  position: 
    x: -0.000211431412026
    y: 5.30719516973e-05
    z: 5.80631494813e-05
  orientation: 
    x: 7.36664219442e-05
    y: 8.1349098266e-05
    z: 1.39944676501e-05
    w: 0.99999999388
---
header: 
  seq: 720
  stamp: 
    secs: 1305
    nsecs: 277000000
  frame_id: "world"
pose: 
  position: 
    x: -8.22234505904e-05
    y: 3.95477945858e-05
    z: -5.61971091884e-06
  orientation: 
    x: 2.86327958434e-05
    y: 3.5907320086e-05
    z: 8.69782433215e-06
    w: 0.999999998908
---
header: 
  seq: 721
  stamp: 
    secs: 1305
    nsecs: 510000000
  frame_id: "world"
pose: 
  position: 
    x: -0.000215662308619
    y: 4.17759729316e-05
    z: 5.83756518608e-05
  orientation: 
    x: 6.90782758749e-05
    y: 8.2814658037e-05
    z: 1.37286541856e-05
    w: 0.999999994091
---
header: 
  seq: 722
  stamp: 
    secs: 1305
    nsecs: 933000000
  frame_id: "world"
pose: 
  position: 
    x: -0.000210381811485
    y: 5.27695628989e-05
    z: 5.78040235268e-05
  orientation: 
    x: 7.34931231898e-05
    y: 8.10128544422e-05
    z: 1.39397851916e-05
    w: 0.999999993921
---
header: 
  seq: 723
  stamp: 
    secs: 1306
    nsecs: 219000000
  frame_id: "world"
pose: 
  position: 
    x: -8.24151502457e-05
    y: 3.94572525693e-05
    z: -5.87949307373e-06
  orientation: 
    x: 2.8572952911e-05
    y: 3.60512858211e-05
    z: 8.69033009579e-06
    w: 0.999999998904
---
header: 
  seq: 724
  stamp: 
    secs: 1306
    nsecs: 448000000
  frame_id: "world"
pose: 
  position: 
    x: -0.000141422831803
    y: 2.20299461944e-05
    z: 1.70590174093e-05
  orientation: 
    x: 3.83447440031e-05
    y: 5.76331511575e-05
    z: 1.27854572976e-05
    w: 0.999999997522
---
header: 
  seq: 725
  stamp: 
    secs: 1306
    nsecs: 696000000
  frame_id: "world"
pose: 
  position: 
    x: -3.79091179639e-05
    y: 1.2005831195e-05
    z: -2.48752894549e-05
  orientation: 
    x: 5.06498827113e-06
    y: 2.04913012518e-05
    z: 5.93490858449e-06
    w: 0.99999999976
---
header: 
  seq: 726
  stamp: 
    secs: 1307
    nsecs: 114000000
  frame_id: "world"
pose: 
  position: 
    x: -0.000140704170917
    y: 2.17862143472e-05
    z: 1.67773359863e-05
  orientation: 
    x: 3.81982535116e-05
    y: 5.74080112026e-05
    z: 1.27586817739e-05
    w: 0.999999997541
---
header: 
  seq: 727
  stamp: 
    secs: 1307
    nsecs: 502000000
  frame_id: "world"
pose: 
  position: 
    x: -0.000215695268707
    y: 4.22024240834e-05
    z: 5.83044966334e-05
  orientation: 
    x: 6.92355893524e-05
    y: 8.28669939984e-05
    z: 1.38143358617e-05
    w: 0.999999994074
---
header: 
  seq: 728
  stamp: 
    secs: 1307
    nsecs: 881000000
  frame_id: "world"
pose: 
  position: 
    x: -8.24627713882e-05
    y: 3.97679505113e-05
    z: -5.89959654462e-06
  orientation: 
    x: 2.87072725453e-05
    y: 3.60781850362e-05
    z: 8.69630365694e-06
    w: 0.999999998899
---
header: 
  seq: 729
  stamp: 
    secs: 1308
    nsecs: 218000000
  frame_id: "world"
pose: 
  position: 
    x: -0.000141478012665
    y: 2.24993473239e-05
    z: 1.72369382199e-05
  orientation: 
    x: 3.85440724991e-05
    y: 5.76311611826e-05
    z: 1.28477613224e-05
    w: 0.999999997514
---
header: 
  seq: 730
  stamp: 
    secs: 1308
    nsecs: 530000000
  frame_id: "world"
pose: 
  position: 
    x: -0.000148268794874
    y: 4.24243953603e-05
    z: 1.93589057744e-05
  orientation: 
    x: 4.74595070439e-05
    y: 6.0156988003e-05
    z: 1.16650916984e-05
    w: 0.999999996996
---
header: 
  seq: 731
  stamp: 
    secs: 1308
    nsecs: 825000000
  frame_id: "world"
pose: 
  position: 
    x: -0.000211485341424
    y: 5.28625714651e-05
    z: 5.79972620471e-05
  orientation: 
    x: 7.35399658021e-05
    y: 8.13825312915e-05
    z: 1.40511891964e-05
    w: 0.999999993886
---
header: 
  seq: 732
  stamp: 
    secs: 1309
    nsecs:  84000000
  frame_id: "world"
pose: 
  position: 
    x: -3.80235760531e-05
    y: 1.25829092212e-05
    z: -2.47831430897e-05
  orientation: 
    x: 5.37396090164e-06
    y: 2.05392061566e-05
    z: 5.94367156592e-06
    w: 0.999999999757
---
header: 
  seq: 733
  stamp: 
    secs: 1309
    nsecs: 368000000
  frame_id: "world"
pose: 
  position: 
    x: -0.000208223602385
    y: 5.05541684106e-05
    z: 5.71346390643e-05
  orientation: 
    x: 7.25944405757e-05
    y: 8.03289289927e-05
    z: 1.35380286441e-05
    w: 0.999999994047
---
header: 
  seq: 734
  stamp: 
    secs: 1309
    nsecs: 776000000
  frame_id: "world"
pose: 
  position: 
    x: -0.000208223602385
    y: 5.05541684106e-05
    z: 5.71346427023e-05
  orientation: 
    x: 7.25944405757e-05
    y: 8.03289289927e-05
    z: 1.35380286441e-05
    w: 0.999999994047
---
header: 
  seq: 735
  stamp: 
    secs: 1310
    nsecs: 111000000
  frame_id: "world"
pose: 
  position: 
    x: -0.000147252256284
    y: 4.93784682476e-05
    z: 2.14036808757e-05
  orientation: 
    x: 5.08458868573e-05
    y: 5.97300420791e-05
    z: 1.16643841099e-05
    w: 0.999999996855
---
header: 
  seq: 736
  stamp: 
    secs: 1310
    nsecs: 356000000
  frame_id: "world"
pose: 
  position: 
    x: -3.79966768378e-05
    y: 1.18896659842e-05
    z: -2.48325250141e-05
  orientation: 
    x: 5.00215173695e-06
    y: 2.05187898196e-05
    z: 5.98357519122e-06
    w: 0.999999999759
---
header: 
  seq: 737
  stamp: 
    secs: 1310
    nsecs: 580000000
  frame_id: "world"
pose: 
  position: 
    x: -0.000215683336137
    y: 4.20305368607e-05
    z: 5.83316650591e-05
  orientation: 
    x: 6.91539094532e-05
    y: 8.28602055305e-05
    z: 1.38165559384e-05
    w: 0.999999994081
---
header: 
  seq: 738
  stamp: 
    secs: 1310
    nsecs: 831000000
  frame_id: "world"
pose: 
  position: 
    x: -0.000146928490722
    y: 4.92640865559e-05
    z: 2.14961801248e-05
  orientation: 
    x: 5.0810180096e-05
    y: 5.95920862858e-05
    z: 1.16285791227e-05
    w: 0.999999996866
---
header: 
  seq: 739
  stamp: 
    secs: 1311
    nsecs: 126000000
  frame_id: "world"
pose: 
  position: 
    x: -0.000215727981413
    y: 4.20051837864e-05
    z: 5.83418295719e-05
  orientation: 
    x: 6.91455712057e-05
    y: 8.28761835333e-05
    z: 1.38213935407e-05
    w: 0.99999999408
---
header: 
  seq: 740
  stamp: 
    secs: 1311
    nsecs: 520000000
  frame_id: "world"
pose: 
  position: 
    x: -3.82989564969e-05
    y: 1.25405003928e-05
    z: -2.47409971053e-05
  orientation: 
    x: 5.34574746649e-06
    y: 2.06484582981e-05
    z: 5.98566884799e-06
    w: 0.999999999755
---
header: 
  seq: 741
  stamp: 
    secs: 1311
    nsecs: 928000000
  frame_id: "world"
pose: 
  position: 
    x: -3.85389248549e-05
    y: 1.2605433767e-05
    z: -2.4665507226e-05
  orientation: 
    x: 5.34760283567e-06
    y: 2.07272769279e-05
    z: 6.03898888435e-06
    w: 0.999999999753
---
header: 
  seq: 742
  stamp: 
    secs: 1312
    nsecs: 307000000
  frame_id: "world"
pose: 
  position: 
    x: -0.000147198079503
    y: 4.94265768793e-05
    z: 2.14580941247e-05
  orientation: 
    x: 5.08861556446e-05
    y: 5.97023134047e-05
    z: 1.16399005126e-05
    w: 0.999999996855
---
header: 
  seq: 743
  stamp: 
    secs: 1312
    nsecs: 599000000
  frame_id: "world"
pose: 
  position: 
    x: -0.000211498860153
    y: 5.26407638972e-05
    z: 5.80372652621e-05
  orientation: 
    x: 7.34387572328e-05
    y: 8.13843284536e-05
    z: 1.40535156839e-05
    w: 0.999999993893
---
header: 
  seq: 744
  stamp: 
    secs: 1312
    nsecs: 888000000
  frame_id: "world"
pose: 
  position: 
    x: -3.83576953027e-05
    y: 1.24947264339e-05
    z: -2.46993422479e-05
  orientation: 
    x: 5.32119747601e-06
    y: 2.06678068884e-05
    z: 5.98784026659e-06
    w: 0.999999999754
---
header: 
  seq: 745
  stamp: 
    secs: 1313
    nsecs: 199000000
  frame_id: "world"
pose: 
  position: 
    x: -0.000211545368074
    y: 5.25135328644e-05
    z: 5.80127161811e-05
  orientation: 
    x: 7.33838310293e-05
    y: 8.13998044156e-05
    z: 1.40652645365e-05
    w: 0.999999993896
---
header: 
  seq: 746
  stamp: 
    secs: 1313
    nsecs: 423000000
  frame_id: "world"
pose: 
  position: 
    x: -0.000147062717588
    y: 4.91032369609e-05
    z: 2.14741576201e-05
  orientation: 
    x: 5.07207440253e-05
    y: 5.96582320163e-05
    z: 1.16181608609e-05
    w: 0.999999996867
---
header: 
  seq: 747
  stamp: 
    secs: 1313
    nsecs: 679000000
  frame_id: "world"
pose: 
  position: 
    x: -0.000211530335946
    y: 5.24655988556e-05
    z: 5.80339583394e-05
  orientation: 
    x: 7.33592310169e-05
    y: 8.13899309414e-05
    z: 1.40574392441e-05
    w: 0.999999993898
---
header: 
  seq: 748
  stamp: 
    secs: 1314
    nsecs:  35000000
  frame_id: "world"
pose: 
  position: 
    x: -0.000147032333189
    y: 4.91160462843e-05
    z: 2.14333558688e-05
  orientation: 
    x: 5.07262046315e-05
    y: 5.96441712283e-05
    z: 1.16183445789e-05
    w: 0.999999996867
---
header: 
  seq: 749
  stamp: 
    secs: 1314
    nsecs: 342000000
  frame_id: "world"
pose: 
  position: 
    x: -0.000208008525078
    y: 5.06762153236e-05
    z: 5.73511970288e-05
  orientation: 
    x: 7.26182547854e-05
    y: 8.01920682314e-05
    z: 1.36365214629e-05
    w: 0.999999994055
---
header: 
  seq: 750
  stamp: 
    secs: 1314
    nsecs: 639000000
  frame_id: "world"
pose: 
  position: 
    x: -0.000209830410313
    y: 5.2501243772e-05
    z: 5.80958803766e-05
  orientation: 
    x: 7.33183183117e-05
    y: 8.07291430314e-05
    z: 1.40186192828e-05
    w: 0.999999993955
---
header: 
  seq: 751
  stamp: 
    secs: 1314
    nsecs: 995000000
  frame_id: "world"
pose: 
  position: 
    x: -0.000162658790941
    y: 4.70472041343e-05
    z: 1.73656262632e-05
  orientation: 
    x: 4.93577497848e-05
    y: 6.64963515583e-05
    z: 1.30658608664e-05
    w: 0.999999996486
---
header: 
  seq: 752
  stamp: 
    secs: 1315
    nsecs: 196000000
  frame_id: "world"
pose: 
  position: 
    x: -0.000162658790941
    y: 4.70472041343e-05
    z: 1.73656262632e-05
  orientation: 
    x: 4.93577497848e-05
    y: 6.64963515583e-05
    z: 1.30658608664e-05
    w: 0.999999996486
---
header: 
  seq: 753
  stamp: 
    secs: 1315
    nsecs: 426000000
  frame_id: "world"
pose: 
  position: 
    x: -3.84128616133e-05
    y: 1.20023805721e-05
    z: -2.50590546784e-05
  orientation: 
    x: 5.03651653947e-06
    y: 2.074991607e-05
    z: 5.98809356086e-06
    w: 0.999999999754
---
header: 
  seq: 754
  stamp: 
    secs: 1315
    nsecs: 623000000
  frame_id: "world"
pose: 
  position: 
    x: -0.000209891586564
    y: 5.25459399796e-05
    z: 5.81040039833e-05
  orientation: 
    x: 7.33396077633e-05
    y: 8.07491664664e-05
    z: 1.40228466141e-05
    w: 0.999999993952
---
header: 
  seq: 755
  stamp: 
    secs: 1315
    nsecs: 923000000
  frame_id: "world"
pose: 
  position: 
    x: -0.000209891586564
    y: 5.25459399796e-05
    z: 5.81040039833e-05
  orientation: 
    x: 7.33396077633e-05
    y: 8.07491664664e-05
    z: 1.40228466141e-05
    w: 0.999999993952
---
header: 
  seq: 756
  stamp: 
    secs: 1316
    nsecs: 343000000
  frame_id: "world"
pose: 
  position: 
    x: -0.000209891586564
    y: 5.25459399796e-05
    z: 5.81040039833e-05
  orientation: 
    x: 7.33396077633e-05
    y: 8.07491664664e-05
    z: 1.40228466141e-05
    w: 0.999999993952
---
header: 
  seq: 757
  stamp: 
    secs: 1316
    nsecs: 619000000
  frame_id: "world"
pose: 
  position: 
    x: -0.000209891586564
    y: 5.25459399796e-05
    z: 5.81040039833e-05
  orientation: 
    x: 7.33396077633e-05
    y: 8.07491664664e-05
    z: 1.40228466141e-05
    w: 0.999999993952
---
header: 
  seq: 758
  stamp: 
    secs: 1316
    nsecs: 976000000
  frame_id: "world"
pose: 
  position: 
    x: -0.000209891586564
    y: 5.25459399796e-05
    z: 5.81040039833e-05
  orientation: 
    x: 7.33396077633e-05
    y: 8.07491664664e-05
    z: 1.40228466141e-05
    w: 0.999999993952
---
header: 
  seq: 759
  stamp: 
    secs: 1317
    nsecs: 264000000
  frame_id: "world"
pose: 
  position: 
    x: -0.000209891586564
    y: 5.25459399796e-05
    z: 5.81040039833e-05
  orientation: 
    x: 7.33396077633e-05
    y: 8.07491664664e-05
    z: 1.40228466141e-05
    w: 0.999999993952
---
header: 
  seq: 760
  stamp: 
    secs: 1317
    nsecs: 537000000
  frame_id: "world"
pose: 
  position: 
    x: -0.000209891586564
    y: 5.25459399796e-05
    z: 5.81040039833e-05
  orientation: 
    x: 7.33396077633e-05
    y: 8.07491664664e-05
    z: 1.40228466141e-05
    w: 0.999999993952
---
header: 
  seq: 761
  stamp: 
    secs: 1317
    nsecs: 833000000
  frame_id: "world"
pose: 
  position: 
    x: -0.000154580950039
    y: 1.9256332962e-05
    z: 1.2897695342e-05
  orientation: 
    x: 3.65479389874e-05
    y: 6.36163966236e-05
    z: 1.40807896576e-05
    w: 0.999999997209
---
header: 
  seq: 762
  stamp: 
    secs: 1318
    nsecs: 167000000
  frame_id: "world"
pose: 
  position: 
    x: -0.000210919650272
    y: 5.26756957697e-05
    z: 5.84085028095e-05
  orientation: 
    x: 7.34459022249e-05
    y: 8.10914202317e-05
    z: 1.40327209975e-05
    w: 0.999999993916
---
header: 
  seq: 763
  stamp: 
    secs: 1318
    nsecs: 522000000
  frame_id: "world"
pose: 
  position: 
    x: -4.05900427722e-05
    y: 1.55650541274e-05
    z: -2.39798373514e-05
  orientation: 
    x: 7.23239190642e-06
    y: 2.15939035054e-05
    z: 7.1174899838e-06
    w: 0.999999999715
---
header: 
  seq: 764
  stamp: 
    secs: 1318
    nsecs: 885000000
  frame_id: "world"
pose: 
  position: 
    x: -8.36614126456e-05
    y: 3.96980613004e-05
    z: -6.53884490021e-06
  orientation: 
    x: 2.85856276285e-05
    y: 3.67033826067e-05
    z: 8.84072413928e-06
    w: 0.999999998879
---
header: 
  seq: 765
  stamp: 
    secs: 1319
    nsecs: 237000000
  frame_id: "world"
pose: 
  position: 
    x: -0.000154525609105
    y: 1.89978418348e-05
    z: 1.30275093397e-05
  orientation: 
    x: 3.64655314919e-05
    y: 6.35665272106e-05
    z: 1.40902383981e-05
    w: 0.999999997216
---
header: 
  seq: 766
  stamp: 
    secs: 1319
    nsecs: 472000000
  frame_id: "world"
pose: 
  position: 
    x: -0.000215307794861
    y: 4.2220690375e-05
    z: 5.85288798902e-05
  orientation: 
    x: 6.92293102021e-05
    y: 8.26763857393e-05
    z: 1.38206195608e-05
    w: 0.99999999409
---
header: 
  seq: 767
  stamp: 
    secs: 1319
    nsecs: 764000000
  frame_id: "world"
pose: 
  position: 
    x: -4.05577629863e-05
    y: 1.54036479216e-05
    z: -2.39845594479e-05
  orientation: 
    x: 7.14453744674e-06
    y: 2.15681611674e-05
    z: 7.1595891293e-06
    w: 0.999999999716
---
header: 
  seq: 768
  stamp: 
    secs: 1320
    nsecs:  41000000
  frame_id: "world"
pose: 
  position: 
    x: -0.000154482680955
    y: 1.90920927707e-05
    z: 1.30549069581e-05
  orientation: 
    x: 3.65115555616e-05
    y: 6.35438844305e-05
    z: 1.40935325879e-05
    w: 0.999999997215
---
header: 
  seq: 769
  stamp: 
    secs: 1320
    nsecs: 390000000
  frame_id: "world"
pose: 
  position: 
    x: -0.000215319319977
    y: 4.21978038503e-05
    z: 5.84825829719e-05
  orientation: 
    x: 6.92198732852e-05
    y: 8.26824029562e-05
    z: 1.3822644096e-05
    w: 0.999999994091
---
header: 
  seq: 770
  stamp: 
    secs: 1320
    nsecs: 976000000
  frame_id: "world"
pose: 
  position: 
    x: -4.04697384511e-05
    y: 1.50275036503e-05
    z: -2.40944373218e-05
  orientation: 
    x: 6.92355660963e-06
    y: 2.15398595113e-05
    z: 7.16150861789e-06
    w: 0.999999999718
---
header: 
  seq: 771
  stamp: 
    secs: 1321
    nsecs: 346000000
  frame_id: "world"
pose: 
  position: 
    x: -0.000154586319695
    y: 1.90189421119e-05
    z: 1.30227790578e-05
  orientation: 
    x: 3.64791484464e-05
    y: 6.35947652019e-05
    z: 1.40850042561e-05
    w: 0.999999997213
---
header: 
  seq: 772
  stamp: 
    secs: 1321
    nsecs: 636000000
  frame_id: "world"
pose: 
  position: 
    x: -3.27177185682e-05
    y: 1.4838133211e-05
    z: -2.52273002843e-05
  orientation: 
    x: 7.48866477632e-06
    y: 1.84868185854e-05
    z: 8.1922244116e-06
    w: 0.999999999768
---
header: 
  seq: 773
  stamp: 
    secs: 1321
    nsecs: 878000000
  frame_id: "world"
pose: 
  position: 
    x: -0.000215351494262
    y: 4.21246950282e-05
    z: 5.84786976106e-05
  orientation: 
    x: 6.91818927867e-05
    y: 8.27032922304e-05
    z: 1.38180538763e-05
    w: 0.999999994092
---
header: 
  seq: 774
  stamp: 
    secs: 1322
    nsecs: 148000000
  frame_id: "world"
pose: 
  position: 
    x: -0.00021541233582
    y: 4.21282165917e-05
    z: 5.84561894357e-05
  orientation: 
    x: 6.91782620838e-05
    y: 8.27296166448e-05
    z: 1.38368212993e-05
    w: 0.999999994089
---
header: 
  seq: 775
  stamp: 
    secs: 1322
    nsecs: 473000000
  frame_id: "world"
pose: 
  position: 
    x: -8.3702194388e-05
    y: 3.90253881051e-05
    z: -6.46994385534e-06
  orientation: 
    x: 2.83112894661e-05
    y: 3.66835119668e-05
    z: 8.86826727687e-06
    w: 0.999999998887
---
header: 
  seq: 776
  stamp: 
    secs: 1322
    nsecs: 902000000
  frame_id: "world"
pose: 
  position: 
    x: -3.28494825226e-05
    y: 1.52685042849e-05
    z: -2.52162190009e-05
  orientation: 
    x: 7.72176917781e-06
    y: 1.85398912392e-05
    z: 8.19165597739e-06
    w: 0.999999999765
---
header: 
  seq: 777
  stamp: 
    secs: 1323
    nsecs: 164000000
  frame_id: "world"
pose: 
  position: 
    x: -0.000154313223902
    y: 1.89404145203e-05
    z: 1.30121507027e-05
  orientation: 
    x: 3.64196165617e-05
    y: 6.34835667425e-05
    z: 1.4126987441e-05
    w: 0.999999997222
---
header: 
  seq: 778
  stamp: 
    secs: 1323
    nsecs: 561000000
  frame_id: "world"
pose: 
  position: 
    x: -0.000210961283301
    y: 5.25109062437e-05
    z: 5.83876026212e-05
  orientation: 
    x: 7.33728370592e-05
    y: 8.11125859925e-05
    z: 1.40269184214e-05
    w: 0.99999999392
---
header: 
  seq: 779
  stamp: 
    secs: 1323
    nsecs: 877000000
  frame_id: "world"
pose: 
  position: 
    x: -8.36804538267e-05
    y: 3.9073802327e-05
    z: -6.44862257104e-06
  orientation: 
    x: 2.8334652566e-05
    y: 3.66824678668e-05
    z: 8.86742599427e-06
    w: 0.999999998886
---
header: 
  seq: 780
  stamp: 
    secs: 1324
    nsecs:  95000000
  frame_id: "world"
pose: 
  position: 
    x: -0.000210963946301
    y: 5.25625146111e-05
    z: 5.83827895753e-05
  orientation: 
    x: 7.33923730052e-05
    y: 8.11170752582e-05
    z: 1.40222126959e-05
    w: 0.999999993918
---
header: 
  seq: 781
  stamp: 
    secs: 1324
    nsecs: 342000000
  frame_id: "world"
pose: 
  position: 
    x: -3.28717724187e-05
    y: 1.54550416482e-05
    z: -2.51704786933e-05
  orientation: 
    x: 7.81354355965e-06
    y: 1.85537483005e-05
    z: 8.19269280134e-06
    w: 0.999999999764
---
header: 
  seq: 782
  stamp: 
    secs: 1324
    nsecs: 682000000
  frame_id: "world"
pose: 
  position: 
    x: -0.000154343506438
    y: 1.86915476661e-05
    z: 1.29064210341e-05
  orientation: 
    x: 3.63003818067e-05
    y: 6.35065805965e-05
    z: 1.41965565096e-05
    w: 0.999999997224
---
header: 
  seq: 783
  stamp: 
    secs: 1325
    nsecs:  19000000
  frame_id: "world"
pose: 
  position: 
    x: -0.000210886079003
    y: 5.2535739087e-05
    z: 5.84025583521e-05
  orientation: 
    x: 7.3383183471e-05
    y: 8.10810083368e-05
    z: 1.40235614765e-05
    w: 0.999999993922
---
header: 
  seq: 784
  stamp: 
    secs: 1325
    nsecs: 469000000
  frame_id: "world"
pose: 
  position: 
    x: -0.000210082711419
    y: 5.24474635313e-05
    z: 5.79474035476e-05
  orientation: 
    x: 7.32980038375e-05
    y: 8.08588296984e-05
    z: 1.40317560241e-05
    w: 0.999999993946
---
header: 
  seq: 785
  stamp: 
    secs: 1325
    nsecs: 740000000
  frame_id: "world"
pose: 
  position: 
    x: -3.2890264265e-05
    y: 1.53091605171e-05
    z: -2.51350265899e-05
  orientation: 
    x: 7.75745865939e-06
    y: 1.8549701049e-05
    z: 8.21263983914e-06
    w: 0.999999999764
---
header: 
  seq: 786
  stamp: 
    secs: 1326
    nsecs:  19000000
  frame_id: "world"
pose: 
  position: 
    x: -8.38856649352e-05
    y: 3.9449052565e-05
    z: -6.58184717395e-06
  orientation: 
    x: 2.85294372268e-05
    y: 3.67965512437e-05
    z: 8.90679983877e-06
    w: 0.999999998876
---
header: 
  seq: 787
  stamp: 
    secs: 1326
    nsecs: 286000000
  frame_id: "world"
pose: 
  position: 
    x: -3.26712724927e-05
    y: 1.44376253957e-05
    z: -2.53551952483e-05
  orientation: 
    x: 7.29714156309e-06
    y: 1.84761520316e-05
    z: 8.20680724966e-06
    w: 0.999999999769
---
header: 
  seq: 788
  stamp: 
    secs: 1326
    nsecs: 568000000
  frame_id: "world"
pose: 
  position: 
    x: -3.27919951815e-05
    y: 1.41827058542e-05
    z: -2.5359704523e-05
  orientation: 
    x: 7.16390922951e-06
    y: 1.85034405106e-05
    z: 8.22717447401e-06
    w: 0.999999999769
---
header: 
  seq: 789
  stamp: 
    secs: 1326
    nsecs: 902000000
  frame_id: "world"
pose: 
  position: 
    x: -0.000155260990141
    y: 1.91271028598e-05
    z: 1.28320671138e-05
  orientation: 
    x: 3.64769802102e-05
    y: 6.38942945466e-05
    z: 1.43930737572e-05
    w: 0.99999999719
---
header: 
  seq: 790
  stamp: 
    secs: 1327
    nsecs: 376000000
  frame_id: "world"
pose: 
  position: 
    x: -0.000155260990141
    y: 1.91271028598e-05
    z: 1.28320671138e-05
  orientation: 
    x: 3.64769802102e-05
    y: 6.38942945466e-05
    z: 1.43930737572e-05
    w: 0.99999999719
---
header: 
  seq: 791
  stamp: 
    secs: 1327
    nsecs: 644000000
  frame_id: "world"
pose: 
  position: 
    x: -0.000207887875149
    y: 4.96374450449e-05
    z: 5.72319549974e-05
  orientation: 
    x: 7.21863175668e-05
    y: 8.01661221696e-05
    z: 1.34473756704e-05
    w: 0.999999994091
---
header: 
  seq: 792
  stamp: 
    secs: 1328
    nsecs:  79000000
  frame_id: "world"
pose: 
  position: 
    x: -0.000211036065593
    y: 5.18659981026e-05
    z: 5.83195724175e-05
  orientation: 
    x: 7.30714232423e-05
    y: 8.11462372979e-05
    z: 1.40195915324e-05
    w: 0.99999999394
---
header: 
  seq: 793
  stamp: 
    secs: 1328
    nsecs: 406000000
  frame_id: "world"
pose: 
  position: 
    x: -0.000211036065593
    y: 5.18659981026e-05
    z: 5.83195760555e-05
  orientation: 
    x: 7.30714232423e-05
    y: 8.11462372979e-05
    z: 1.40195915324e-05
    w: 0.99999999394
---
header: 
  seq: 794
  stamp: 
    secs: 1328
    nsecs: 662000000
  frame_id: "world"
pose: 
  position: 
    x: -3.35495751642e-05
    y: 1.55979942065e-05
    z: -2.54416136158e-05
  orientation: 
    x: 7.87256067078e-06
    y: 1.88638605277e-05
    z: 8.31960187295e-06
    w: 0.999999999756
---
header: 
  seq: 795
  stamp: 
    secs: 1328
    nsecs: 943000000
  frame_id: "world"
pose: 
  position: 
    x: -0.000211110775126
    y: 5.18775159435e-05
    z: 5.83631226618e-05
  orientation: 
    x: 7.31034738351e-05
    y: 8.11738786603e-05
    z: 1.40551645984e-05
    w: 0.999999993935
---
header: 
  seq: 796
  stamp: 
    secs: 1329
    nsecs: 292000000
  frame_id: "world"
pose: 
  position: 
    x: -3.3454856748e-05
    y: 1.49347442857e-05
    z: -2.55351696978e-05
  orientation: 
    x: 7.52305095194e-06
    y: 1.88256326465e-05
    z: 8.31687975533e-06
    w: 0.99999999976
---
header: 
  seq: 797
  stamp: 
    secs: 1329
    nsecs: 661000000
  frame_id: "world"
pose: 
  position: 
    x: -8.44451205921e-05
    y: 3.99589698645e-05
    z: -6.62460024614e-06
  orientation: 
    x: 2.87817710741e-05
    y: 3.70390952899e-05
    z: 8.9491086226e-06
    w: 0.99999999886
---
header: 
  seq: 798
  stamp: 
    secs: 1330
    nsecs: 102000000
  frame_id: "world"
pose: 
  position: 
    x: -3.3483873267e-05
    y: 1.4954686776e-05
    z: -2.55098148045e-05
  orientation: 
    x: 7.53021231322e-06
    y: 1.88331941854e-05
    z: 8.32070509005e-06
    w: 0.99999999976
---
header: 
  seq: 799
  stamp: 
    secs: 1330
    nsecs: 423000000
  frame_id: "world"
pose: 
  position: 
    x: -8.44266687636e-05
    y: 4.00156059186e-05
    z: -6.63472565066e-06
  orientation: 
    x: 2.88070968635e-05
    y: 3.7031008063e-05
    z: 8.94951334774e-06
    w: 0.999999998859
---
header: 
  seq: 800
  stamp: 
    secs: 1330
    nsecs: 712000000
  frame_id: "world"
pose: 
  position: 
    x: -0.000155179892317
    y: 1.91370909306e-05
    z: 1.31758479256e-05
  orientation: 
    x: 3.64983096801e-05
    y: 6.37961928108e-05
    z: 1.44008108287e-05
    w: 0.999999997195
---
header: 
  seq: 801
  stamp: 
    secs: 1330
    nsecs: 986000000
  frame_id: "world"
pose: 
  position: 
    x: -0.000208154509892
    y: 5.00032911077e-05
    z: 5.72609569645e-05
  orientation: 
    x: 7.24198103193e-05
    y: 8.02835051909e-05
    z: 1.3449953178e-05
    w: 0.999999994065
---
header: 
  seq: 802
  stamp: 
    secs: 1331
    nsecs: 236000000
  frame_id: "world"
pose: 
  position: 
    x: -3.36164412147e-05
    y: 1.54319204739e-05
    z: -2.54474762187e-05
  orientation: 
    x: 7.79232777669e-06
    y: 1.88920475875e-05
    z: 8.32387195057e-06
    w: 0.999999999757
---
header: 
  seq: 803
  stamp: 
    secs: 1331
    nsecs: 517000000
  frame_id: "world"
pose: 
  position: 
    x: -0.000209873905987
    y: 5.15366409672e-05
    z: 5.80188898311e-05
  orientation: 
    x: 7.29168673548e-05
    y: 8.07654864417e-05
    z: 1.3969687559e-05
    w: 0.999999993982
---
header: 
  seq: 804
  stamp: 
    secs: 1331
    nsecs: 837000000
  frame_id: "world"
pose: 
  position: 
    x: -0.000154645036673
    y: 1.85023091035e-05
    z: 1.33337198349e-05
  orientation: 
    x: 3.6170269495e-05
    y: 6.35290342016e-05
    z: 1.44328887072e-05
    w: 0.999999997224
---
header: 
  seq: 805
  stamp: 
    secs: 1332
    nsecs: 136000000
  frame_id: "world"
pose: 
  position: 
    x: -3.35515869665e-05
    y: 1.48744775288e-05
    z: -2.55229206232e-05
  orientation: 
    x: 7.49692889987e-06
    y: 1.88618450875e-05
    z: 8.31869601625e-06
    w: 0.999999999759
---
header: 
  seq: 806
  stamp: 
    secs: 1332
    nsecs: 419000000
  frame_id: "world"
pose: 
  position: 
    x: -0.000154712019139
    y: 1.8482136511e-05
    z: 1.33295807245e-05
  orientation: 
    x: 3.61621131465e-05
    y: 6.35585163817e-05
    z: 1.4439006878e-05
    w: 0.999999997222
---
header: 
  seq: 807
  stamp: 
    secs: 1332
    nsecs: 690000000
  frame_id: "world"
pose: 
  position: 
    x: -0.00020777033933
    y: 5.0537968491e-05
    z: 5.72308126721e-05
  orientation: 
    x: 7.26599605743e-05
    y: 8.01582423048e-05
    z: 1.34597648067e-05
    w: 0.999999994057
---
header: 
  seq: 808
  stamp: 
    secs: 1332
    nsecs: 956000000
  frame_id: "world"
pose: 
  position: 
    x: -0.000154277848196
    y: 1.80933675438e-05
    z: 1.34585588967e-05
  orientation: 
    x: 3.59845361262e-05
    y: 6.33374364115e-05
    z: 1.44264758603e-05
    w: 0.999999997243
---
header: 
  seq: 809
  stamp: 
    secs: 1333
    nsecs: 242000000
  frame_id: "world"
pose: 
  position: 
    x: -0.000214873289224
    y: 4.19663374487e-05
    z: 5.78705657972e-05
  orientation: 
    x: 6.91874370666e-05
    y: 8.27018952468e-05
    z: 1.36425532322e-05
    w: 0.999999994094
---
header: 
  seq: 810
  stamp: 
    secs: 1333
    nsecs: 569000000
  frame_id: "world"
pose: 
  position: 
    x: -0.000207869350561
    y: 5.13098457304e-05
    z: 5.70775810047e-05
  orientation: 
    x: 7.27883885e-05
    y: 8.02276403866e-05
    z: 1.37410897059e-05
    w: 0.999999994038
---
header: 
  seq: 811
  stamp: 
    secs: 1333
    nsecs: 940000000
  frame_id: "world"
pose: 
  position: 
    x: -0.00015425249876
    y: 1.80661209015e-05
    z: 1.34567608256e-05
  orientation: 
    x: 3.59660842978e-05
    y: 6.33314337466e-05
    z: 1.4431003325e-05
    w: 0.999999997244
---
header: 
  seq: 812
  stamp: 
    secs: 1334
    nsecs: 250000000
  frame_id: "world"
pose: 
  position: 
    x: -0.000214921412407
    y: 4.20772994403e-05
    z: 5.78513572691e-05
  orientation: 
    x: 6.92402241383e-05
    y: 8.27252947258e-05
    z: 1.3644979764e-05
    w: 0.999999994088
---
header: 
  seq: 813
  stamp: 
    secs: 1334
    nsecs: 589000000
  frame_id: "world"
pose: 
  position: 
    x: -0.000210711121326
    y: 5.19279055879e-05
    z: 5.77830869588e-05
  orientation: 
    x: 7.31404502514e-05
    y: 8.11623826473e-05
    z: 1.39312750499e-05
    w: 0.999999993935
---
header: 
  seq: 814
  stamp: 
    secs: 1334
    nsecs: 834000000
  frame_id: "world"
pose: 
  position: 
    x: -0.000154825451318
    y: 1.78146874532e-05
    z: 1.36314365591e-05
  orientation: 
    x: 3.58473552215e-05
    y: 6.35124086393e-05
    z: 1.44893846991e-05
    w: 0.999999997236
---
header: 
  seq: 815
  stamp: 
    secs: 1335
    nsecs: 289000000
  frame_id: "world"
pose: 
  position: 
    x: -8.45248214318e-05
    y: 4.07726729463e-05
    z: -6.60115074425e-06
  orientation: 
    x: 2.91846244754e-05
    y: 3.70855850205e-05
    z: 8.94242019845e-06
    w: 0.999999998846
---
header: 
  seq: 816
  stamp: 
    secs: 1335
    nsecs: 586000000
  frame_id: "world"
pose: 
  position: 
    x: -3.45386579284e-05
    y: 1.67440284713e-05
    z: -2.53266171057e-05
  orientation: 
    x: 8.40324628155e-06
    y: 1.92193929202e-05
    z: 8.5138508417e-06
    w: 0.999999999744
---
header: 
  seq: 817
  stamp: 
    secs: 1335
    nsecs: 928000000
  frame_id: "world"
pose: 
  position: 
    x: -0.00227681640536
    y: -0.00319860200398
    z: 0.00258451816626
  orientation: 
    x: 0.00422250554613
    y: 0.00124145491816
    z: -0.00345644060706
    w: 0.999984341005
---
header: 
  seq: 818
  stamp: 
    secs: 1336
    nsecs: 323000000
  frame_id: "world"
pose: 
  position: 
    x: -0.00488338898867
    y: -0.0452428162098
    z: 0.00387054728344
  orientation: 
    x: 0.00568207800852
    y: 0.00284332656526
    z: -0.0122645493402
    w: 0.999904600606
---
header: 
  seq: 819
  stamp: 
    secs: 1336
    nsecs: 947000000
  frame_id: "world"
pose: 
  position: 
    x: -0.00955267250538
    y: -0.174875169992
    z: 0.00792224612087
  orientation: 
    x: -0.0139184131118
    y: 0.00400536534686
    z: -0.0320186823121
    w: 0.999382328645
---
header: 
  seq: 820
  stamp: 
    secs: 1337
    nsecs: 315000000
  frame_id: "world"
pose: 
  position: 
    x: -0.013064690692
    y: -0.195180570349
    z: 0.00934069468837
  orientation: 
    x: -0.0157996949968
    y: 0.00474072127276
    z: -0.0361375890292
    w: 0.999210673411
---
header: 
  seq: 821
  stamp: 
    secs: 1337
    nsecs: 676000000
  frame_id: "world"
pose: 
  position: 
    x: -0.0130833606617
    y: -0.208472078663
    z: 0.0102915835762
  orientation: 
    x: -0.0190163696422
    y: 0.0043593708931
    z: -0.0373337411384
    w: 0.999112388745
---
header: 
  seq: 822
  stamp: 
    secs: 1338
    nsecs: 152000000
  frame_id: "world"
pose: 
  position: 
    x: -0.0143152616393
    y: -0.212504095883
    z: 0.0107691560065
  orientation: 
    x: -0.0195236840275
    y: 0.004676337143
    z: -0.0380364981729
    w: 0.999074663096
---
header: 
  seq: 823
  stamp: 
