header: 
  seq: 1479
  stamp: 
    secs: 21715
    nsecs: 128000000
  frame_id: "sonar_link"
radiation_type: 0
field_of_view: 0.698131978512
min_range: 0.00999999977648
max_range: 3.0
range: 0.0399899557233
---
header: 
  seq: 1480
  stamp: 
    secs: 21715
    nsecs: 228000000
  frame_id: "sonar_link"
radiation_type: 0
field_of_view: 0.698131978512
min_range: 0.00999999977648
max_range: 3.0
range: 0.0400029681623
---
header: 
  seq: 1481
  stamp: 
    secs: 21715
    nsecs: 328000000
  frame_id: "sonar_link"
radiation_type: 0
field_of_view: 0.698131978512
min_range: 0.00999999977648
max_range: 3.0
range: 0.0399999991059
---
header: 
  seq: 1482
  stamp: 
    secs: 21715
    nsecs: 428000000
  frame_id: "sonar_link"
radiation_type: 0
field_of_view: 0.698131978512
min_range: 0.00999999977648
max_range: 3.0
range: 0.0399899557233
---
header: 
  seq: 1483
  stamp: 
    secs: 21715
    nsecs: 528000000
  frame_id: "sonar_link"
radiation_type: 0
field_of_view: 0.698131978512
min_range: 0.00999999977648
max_range: 3.0
range: 0.0400029681623
---
header: 
  seq: 1484
  stamp: 
    secs: 21715
    nsecs: 628000000
  frame_id: "sonar_link"
radiation_type: 0
field_of_view: 0.698131978512
min_range: 0.00999999977648
max_range: 3.0
range: 0.0399999991059
---
header: 
  seq: 1485
  stamp: 
    secs: 21715
    nsecs: 728000000
  frame_id: "sonar_link"
radiation_type: 0
field_of_view: 0.698131978512
min_range: 0.00999999977648
max_range: 3.0
range: 0.0399899557233
---
header: 
  seq: 1486
  stamp: 
    secs: 21715
    nsecs: 828000000
  frame_id: "sonar_link"
radiation_type: 0
field_of_view: 0.698131978512
min_range: 0.00999999977648
max_range: 3.0
range: 0.0400029681623
---
header: 
  seq: 1487
  stamp: 
    secs: 21715
    nsecs: 928000000
  frame_id: "sonar_link"
radiation_type: 0
field_of_view: 0.698131978512
min_range: 0.00999999977648
max_range: 3.0
range: 0.0399999991059
---
header: 
  seq: 1488
  stamp: 
    secs: 21716
    nsecs:  28000000
  frame_id: "sonar_link"
radiation_type: 0
field_of_view: 0.698131978512
min_range: 0.00999999977648
max_range: 3.0
range: 0.0399899557233
---
header: 
  seq: 1489
  stamp: 
    secs: 21716
    nsecs: 128000000
  frame_id: "sonar_link"
radiation_type: 0
field_of_view: 0.698131978512
min_range: 0.00999999977648
max_range: 3.0
range: 0.0400029681623
---
header: 
  seq: 1490
  stamp: 
    secs: 21716
    nsecs: 228000000
  frame_id: "sonar_link"
radiation_type: 0
field_of_view: 0.698131978512
min_range: 0.00999999977648
max_range: 3.0
range: 0.0399999991059
---
header: 
  seq: 1491
  stamp: 
    secs: 21716
    nsecs: 328000000
  frame_id: "sonar_link"
radiation_type: 0
field_of_view: 0.698131978512
min_range: 0.00999999977648
max_range: 3.0
range: 0.0399899557233
---
header: 
  seq: 1492
  stamp: 
    secs: 21716
    nsecs: 428000000
  frame_id: "sonar_link"
radiation_type: 0
field_of_view: 0.698131978512
min_range: 0.00999999977648
max_range: 3.0
range: 0.0400029681623
---
header: 
  seq: 1493
  stamp: 
    secs: 21716
    nsecs: 528000000
  frame_id: "sonar_link"
radiation_type: 0
field_of_view: 0.698131978512
min_range: 0.00999999977648
max_range: 3.0
range: 0.0399999991059
---
header: 
  seq: 1494
  stamp: 
    secs: 21716
    nsecs: 628000000
  frame_id: "sonar_link"
radiation_type: 0
field_of_view: 0.698131978512
min_range: 0.00999999977648
max_range: 3.0
range: 0.0399899557233
---
header: 
  seq: 1495
  stamp: 
    secs: 21716
    nsecs: 728000000
  frame_id: "sonar_link"
radiation_type: 0
field_of_view: 0.698131978512
min_range: 0.00999999977648
max_range: 3.0
range: 0.0399999991059
---
header: 
  seq: 1496
  stamp: 
    secs: 21716
    nsecs: 828000000
  frame_id: "sonar_link"
radiation_type: 0
field_of_view: 0.698131978512
min_range: 0.00999999977648
max_range: 3.0
range: 0.0399999991059
---
header: 
  seq: 1497
  stamp: 
    secs: 21716
    nsecs: 928000000
  frame_id: "sonar_link"
radiation_type: 0
field_of_view: 0.698131978512
min_range: 0.00999999977648
max_range: 3.0
range: 0.0399899557233
---
header: 
  seq: 1498
  stamp: 
    secs: 21717
    nsecs:  28000000
  frame_id: "sonar_link"
radiation_type: 0
field_of_view: 0.698131978512
min_range: 0.00999999977648
max_range: 3.0
range: 0.0400029681623
---
header: 
  seq: 1499
  stamp: 
    secs: 21717
    nsecs: 128000000
  frame_id: "sonar_link"
radiation_type: 0
field_of_view: 0.698131978512
min_range: 0.00999999977648
max_range: 3.0
range: 0.0399999991059
---
header: 
  seq: 1500
  stamp: 
    secs: 21717
    nsecs: 228000000
  frame_id: "sonar_link"
radiation_type: 0
field_of_view: 0.698131978512
min_range: 0.00999999977648
max_range: 3.0
range: 0.0399899557233
---
header: 
  seq: 1501
  stamp: 
    secs: 21717
    nsecs: 328000000
  frame_id: "sonar_link"
radiation_type: 0
field_of_view: 0.698131978512
min_range: 0.00999999977648
max_range: 3.0
range: 0.0400029681623
---
header: 
  seq: 1502
  stamp: 
    secs: 21717
    nsecs: 428000000
  frame_id: "sonar_link"
radiation_type: 0
field_of_view: 0.698131978512
min_range: 0.00999999977648
max_range: 3.0
range: 0.0399999991059
---
header: 
  seq: 1503
  stamp: 
    secs: 21717
    nsecs: 528000000
  frame_id: "sonar_link"
radiation_type: 0
field_of_view: 0.698131978512
min_range: 0.00999999977648
max_range: 3.0
range: 0.0399899557233
---
header: 
  seq: 1504
  stamp: 
    secs: 21717
    nsecs: 628000000
  frame_id: "sonar_link"
radiation_type: 0
field_of_view: 0.698131978512
min_range: 0.00999999977648
max_range: 3.0
range: 0.0400029681623
---
header: 
  seq: 1505
  stamp: 
    secs: 21717
    nsecs: 728000000
  frame_id: "sonar_link"
radiation_type: 0
field_of_view: 0.698131978512
min_range: 0.00999999977648
max_range: 3.0
range: 0.0399999991059
---
header: 
  seq: 1506
  stamp: 
    secs: 21717
    nsecs: 828000000
  frame_id: "sonar_link"
radiation_type: 0
field_of_view: 0.698131978512
min_range: 0.00999999977648
max_range: 3.0
range: 0.0399899557233
---
header: 
  seq: 1507
  stamp: 
    secs: 21717
    nsecs: 928000000
  frame_id: "sonar_link"
radiation_type: 0
field_of_view: 0.698131978512
min_range: 0.00999999977648
max_range: 3.0
range: 0.0400029681623
---
header: 
  seq: 1508
  stamp: 
    secs: 21718
    nsecs:  28000000
  frame_id: "sonar_link"
radiation_type: 0
field_of_view: 0.698131978512
min_range: 0.00999999977648
max_range: 3.0
range: 0.0399999991059
---
header: 
  seq: 1509
  stamp: 
    secs: 21718
    nsecs: 128000000
  frame_id: "sonar_link"
radiation_type: 0
field_of_view: 0.698131978512
min_range: 0.00999999977648
max_range: 3.0
range: 0.0399899557233
---
header: 
  seq: 1510
  stamp: 
    secs: 21718
    nsecs: 228000000
  frame_id: "sonar_link"
radiation_type: 0
field_of_view: 0.698131978512
min_range: 0.00999999977648
max_range: 3.0
range: 0.0400029681623
---
header: 
  seq: 1511
  stamp: 
    secs: 21718
    nsecs: 328000000
  frame_id: "sonar_link"
radiation_type: 0
field_of_view: 0.698131978512
min_range: 0.00999999977648
max_range: 3.0
range: 0.0399999991059
---
header: 
  seq: 1512
  stamp: 
    secs: 21718
    nsecs: 430000000
  frame_id: "sonar_link"
radiation_type: 0
field_of_view: 0.698131978512
min_range: 0.00999999977648
max_range: 3.0
range: 0.039988219738
---
header: 
  seq: 1513
  stamp: 
    secs: 21718
    nsecs: 530000000
  frame_id: "sonar_link"
radiation_type: 0
field_of_view: 0.698131978512
min_range: 0.00999999977648
max_range: 3.0
range: 0.0399899557233
---
header: 
  seq: 1514
  stamp: 
    secs: 21718
    nsecs: 630000000
  frame_id: "sonar_link"
radiation_type: 0
field_of_view: 0.698131978512
min_range: 0.00999999977648
max_range: 3.0
range: 0.0400029681623
---
header: 
  seq: 1515
  stamp: 
    secs: 21718
    nsecs: 730000000
  frame_id: "sonar_link"
radiation_type: 0
field_of_view: 0.698131978512
min_range: 0.00999999977648
max_range: 3.0
range: 0.0399999991059
---
header: 
  seq: 1516
  stamp: 
    secs: 21718
    nsecs: 830000000
  frame_id: "sonar_link"
radiation_type: 0
field_of_view: 0.698131978512
min_range: 0.00999999977648
max_range: 3.0
range: 0.0399899557233
---
header: 
  seq: 1517
  stamp: 
    secs: 21718
    nsecs: 930000000
  frame_id: "sonar_link"
radiation_type: 0
field_of_view: 0.698131978512
min_range: 0.00999999977648
max_range: 3.0
range: 0.0400029681623
---
header: 
  seq: 1518
  stamp: 
    secs: 21719
    nsecs:  30000000
  frame_id: "sonar_link"
radiation_type: 0
field_of_view: 0.698131978512
min_range: 0.00999999977648
max_range: 3.0
range: 0.0399999991059
---
header: 
  seq: 1519
  stamp: 
    secs: 21719
    nsecs: 130000000
  frame_id: "sonar_link"
radiation_type: 0
field_of_view: 0.698131978512
min_range: 0.00999999977648
max_range: 3.0
range: 0.0399899557233
---
header: 
  seq: 1520
  stamp: 
    secs: 21719
    nsecs: 230000000
  frame_id: "sonar_link"
radiation_type: 0
field_of_view: 0.698131978512
min_range: 0.00999999977648
max_range: 3.0
range: 0.0400029681623
---
header: 
  seq: 1521
  stamp: 
    secs: 21719
    nsecs: 330000000
  frame_id: "sonar_link"
radiation_type: 0
field_of_view: 0.698131978512
min_range: 0.00999999977648
max_range: 3.0
range: 0.0399999991059
---
header: 
  seq: 1522
  stamp: 
    secs: 21719
    nsecs: 430000000
  frame_id: "sonar_link"
radiation_type: 0
field_of_view: 0.698131978512
min_range: 0.00999999977648
max_range: 3.0
range: 0.0399899557233
---
header: 
  seq: 1523
  stamp: 
    secs: 21719
    nsecs: 530000000
  frame_id: "sonar_link"
radiation_type: 0
field_of_view: 0.698131978512
min_range: 0.00999999977648
max_range: 3.0
range: 0.0400029681623
---
header: 
  seq: 1524
  stamp: 
    secs: 21719
    nsecs: 630000000
  frame_id: "sonar_link"
radiation_type: 0
field_of_view: 0.698131978512
min_range: 0.00999999977648
max_range: 3.0
range: 0.0399999991059
---
header: 
  seq: 1525
  stamp: 
    secs: 21719
    nsecs: 730000000
  frame_id: "sonar_link"
radiation_type: 0
field_of_view: 0.698131978512
min_range: 0.00999999977648
max_range: 3.0
range: 0.0399899557233
---
header: 
  seq: 1526
  stamp: 
    secs: 21719
    nsecs: 830000000
  frame_id: "sonar_link"
radiation_type: 0
field_of_view: 0.698131978512
min_range: 0.00999999977648
max_range: 3.0
range: 0.0400029681623
---
header: 
  seq: 1527
  stamp: 
    secs: 21719
    nsecs: 930000000
  frame_id: "sonar_link"
radiation_type: 0
field_of_view: 0.698131978512
min_range: 0.00999999977648
max_range: 3.0
range: 0.0399999991059
---
header: 
  seq: 1528
  stamp: 
    secs: 21720
    nsecs:  30000000
  frame_id: "sonar_link"
radiation_type: 0
field_of_view: 0.698131978512
min_range: 0.00999999977648
max_range: 3.0
range: 0.0399899557233
---
header: 
  seq: 1529
  stamp: 
    secs: 21720
    nsecs: 130000000
  frame_id: "sonar_link"
radiation_type: 0
field_of_view: 0.698131978512
min_range: 0.00999999977648
max_range: 3.0
range: 0.0400029681623
---
header: 
  seq: 1530
  stamp: 
    secs: 21720
    nsecs: 230000000
  frame_id: "sonar_link"
radiation_type: 0
field_of_view: 0.698131978512
min_range: 0.00999999977648
max_range: 3.0
range: 0.0399999991059
---
header: 
  seq: 1531
  stamp: 
    secs: 21720
    nsecs: 330000000
  frame_id: "sonar_link"
radiation_type: 0
field_of_view: 0.698131978512
min_range: 0.00999999977648
max_range: 3.0
range: 0.0399899557233
---
header: 
  seq: 1532
  stamp: 
    secs: 21720
    nsecs: 430000000
  frame_id: "sonar_link"
radiation_type: 0
field_of_view: 0.698131978512
min_range: 0.00999999977648
max_range: 3.0
range: 0.0400029681623
---
header: 
  seq: 1533
  stamp: 
    secs: 21720
    nsecs: 530000000
  frame_id: "sonar_link"
radiation_type: 0
field_of_view: 0.698131978512
min_range: 0.00999999977648
max_range: 3.0
range: 0.0399999991059
---
header: 
  seq: 1534
  stamp: 
    secs: 21720
    nsecs: 630000000
  frame_id: "sonar_link"
radiation_type: 0
field_of_view: 0.698131978512
min_range: 0.00999999977648
max_range: 3.0
range: 0.0399899557233
---
header: 
  seq: 1535
  stamp: 
    secs: 21720
    nsecs: 730000000
  frame_id: "sonar_link"
radiation_type: 0
field_of_view: 0.698131978512
min_range: 0.00999999977648
max_range: 3.0
range: 0.0400029681623
---
header: 
  seq: 1536
  stamp: 
    secs: 21720
    nsecs: 830000000
  frame_id: "sonar_link"
radiation_type: 0
field_of_view: 0.698131978512
min_range: 0.00999999977648
max_range: 3.0
range: 0.0399999991059
---
header: 
  seq: 1537
  stamp: 
    secs: 21720
    nsecs: 930000000
  frame_id: "sonar_link"
radiation_type: 0
field_of_view: 0.698131978512
min_range: 0.00999999977648
max_range: 3.0
range: 0.0399899557233
---
header: 
  seq: 1538
  stamp: 
    secs: 21721
    nsecs:  30000000
  frame_id: "sonar_link"
radiation_type: 0
field_of_view: 0.698131978512
min_range: 0.00999999977648
max_range: 3.0
range: 0.0400029681623
---
header: 
  seq: 1539
  stamp: 
    secs: 21721
    nsecs: 130000000
  frame_id: "sonar_link"
radiation_type: 0
field_of_view: 0.698131978512
min_range: 0.00999999977648
max_range: 3.0
range: 0.0399999991059
---
header: 
  seq: 1540
  stamp: 
    secs: 21721
    nsecs: 236000000
  frame_id: "sonar_link"
radiation_type: 0
field_of_view: 0.698131978512
min_range: 0.00999999977648
max_range: 3.0
range: 0.0400019772351
---
header: 
  seq: 1541
  stamp: 
    secs: 21721
    nsecs: 337000000
  frame_id: "sonar_link"
radiation_type: 0
field_of_view: 0.698131978512
min_range: 0.00999999977648
max_range: 3.0
range: 0.0400029681623
---
header: 
  seq: 1542
  stamp: 
    secs: 21721
    nsecs: 436000000
  frame_id: "sonar_link"
radiation_type: 0
field_of_view: 0.698131978512
min_range: 0.00999999977648
max_range: 3.0
range: 0.0399999991059
---
header: 
  seq: 1543
  stamp: 
    secs: 21721
    nsecs: 536000000
  frame_id: "sonar_link"
radiation_type: 0
field_of_view: 0.698131978512
min_range: 0.00999999977648
max_range: 3.0
range: 0.0399899557233
---
header: 
  seq: 1544
  stamp: 
    secs: 21721
    nsecs: 636000000
  frame_id: "sonar_link"
radiation_type: 0
field_of_view: 0.698131978512
min_range: 0.00999999977648
max_range: 3.0
range: 0.0400029681623
---
header: 
  seq: 1545
  stamp: 
    secs: 21721
    nsecs: 736000000
  frame_id: "sonar_link"
radiation_type: 0
field_of_view: 0.698131978512
min_range: 0.00999999977648
max_range: 3.0
range: 0.0399999991059
---
header: 
  seq: 1546
  stamp: 
    secs: 21721
    nsecs: 836000000
  frame_id: "sonar_link"
radiation_type: 0
field_of_view: 0.698131978512
min_range: 0.00999999977648
max_range: 3.0
range: 0.0399899557233
---
header: 
  seq: 1547
  stamp: 
    secs: 21721
    nsecs: 936000000
  frame_id: "sonar_link"
radiation_type: 0
field_of_view: 0.698131978512
min_range: 0.00999999977648
max_range: 3.0
range: 0.0400029681623
---
header: 
  seq: 1548
  stamp: 
    secs: 21722
    nsecs:  36000000
  frame_id: "sonar_link"
radiation_type: 0
field_of_view: 0.698131978512
min_range: 0.00999999977648
max_range: 3.0
range: 0.0399999991059
---
header: 
  seq: 1549
  stamp: 
    secs: 21722
    nsecs: 136000000
  frame_id: "sonar_link"
radiation_type: 0
field_of_view: 0.698131978512
min_range: 0.00999999977648
max_range: 3.0
range: 0.0399899557233
---
header: 
  seq: 1550
  stamp: 
    secs: 21722
    nsecs: 236000000
  frame_id: "sonar_link"
radiation_type: 0
field_of_view: 0.698131978512
min_range: 0.00999999977648
max_range: 3.0
range: 0.0400029681623
---
header: 
  seq: 1551
  stamp: 
    secs: 21722
    nsecs: 336000000
  frame_id: "sonar_link"
radiation_type: 0
field_of_view: 0.698131978512
min_range: 0.00999999977648
max_range: 3.0
range: 0.0399999991059
---
header: 
  seq: 1552
  stamp: 
    secs: 21722
    nsecs: 436000000
  frame_id: "sonar_link"
radiation_type: 0
field_of_view: 0.698131978512
min_range: 0.00999999977648
max_range: 3.0
range: 0.0399899557233
---
header: 
  seq: 1553
  stamp: 
    secs: 21722
    nsecs: 536000000
  frame_id: "sonar_link"
radiation_type: 0
field_of_view: 0.698131978512
min_range: 0.00999999977648
max_range: 3.0
range: 0.0400029681623
---
header: 
  seq: 1554
  stamp: 
    secs: 21722
    nsecs: 636000000
  frame_id: "sonar_link"
radiation_type: 0
field_of_view: 0.698131978512
min_range: 0.00999999977648
max_range: 3.0
range: 0.0399999991059
---
header: 
  seq: 1555
  stamp: 
    secs: 21722
    nsecs: 736000000
  frame_id: "sonar_link"
radiation_type: 0
field_of_view: 0.698131978512
min_range: 0.00999999977648
max_range: 3.0
range: 0.0399899557233
---
header: 
  seq: 1556
  stamp: 
    secs: 21722
    nsecs: 836000000
  frame_id: "sonar_link"
radiation_type: 0
field_of_view: 0.698131978512
min_range: 0.00999999977648
max_range: 3.0
range: 0.0400029681623
---
header: 
  seq: 1557
  stamp: 
    secs: 21722
    nsecs: 936000000
  frame_id: "sonar_link"
radiation_type: 0
field_of_view: 0.698131978512
min_range: 0.00999999977648
max_range: 3.0
range: 0.0399999991059
---
header: 
  seq: 1558
  stamp: 
    secs: 21723
    nsecs:  36000000
  frame_id: "sonar_link"
radiation_type: 0
field_of_view: 0.698131978512
min_range: 0.00999999977648
max_range: 3.0
range: 0.0399899557233
---
header: 
  seq: 1559
  stamp: 
    secs: 21723
    nsecs: 136000000
  frame_id: "sonar_link"
radiation_type: 0
field_of_view: 0.698131978512
min_range: 0.00999999977648
max_range: 3.0
range: 0.0400029681623
---
header: 
  seq: 1560
  stamp: 
    secs: 21723
    nsecs: 236000000
  frame_id: "sonar_link"
radiation_type: 0
field_of_view: 0.698131978512
min_range: 0.00999999977648
max_range: 3.0
range: 0.0399999991059
---
header: 
  seq: 1561
  stamp: 
    secs: 21723
    nsecs: 337000000
  frame_id: "sonar_link"
radiation_type: 0
field_of_view: 0.698131978512
min_range: 0.00999999977648
max_range: 3.0
range: 0.0400019772351
---
header: 
  seq: 1562
  stamp: 
    secs: 21723
    nsecs: 436000000
  frame_id: "sonar_link"
radiation_type: 0
field_of_view: 0.698131978512
min_range: 0.00999999977648
max_range: 3.0
range: 0.0400029681623
---
header: 
  seq: 1563
  stamp: 
    secs: 21723
    nsecs: 537000000
  frame_id: "sonar_link"
radiation_type: 0
field_of_view: 0.698131978512
min_range: 0.00999999977648
max_range: 3.0
range: 0.039988219738
---
header: 
  seq: 1564
  stamp: 
    secs: 21723
    nsecs: 637000000
  frame_id: "sonar_link"
radiation_type: 0
field_of_view: 0.698131978512
min_range: 0.00999999977648
max_range: 3.0
range: 0.0400019772351
---
header: 
  seq: 1565
  stamp: 
    secs: 21723
    nsecs: 737000000
  frame_id: "sonar_link"
radiation_type: 0
field_of_view: 0.698131978512
min_range: 0.00999999977648
max_range: 3.0
range: 0.0399999991059
---
header: 
  seq: 1566
  stamp: 
    secs: 21723
    nsecs: 837000000
  frame_id: "sonar_link"
radiation_type: 0
field_of_view: 0.698131978512
min_range: 0.00999999977648
max_range: 3.0
range: 0.039988219738
---
header: 
  seq: 1567
  stamp: 
    secs: 21723
    nsecs: 937000000
  frame_id: "sonar_link"
radiation_type: 0
field_of_view: 0.698131978512
min_range: 0.00999999977648
max_range: 3.0
range: 0.0400019772351
---
header: 
  seq: 1568
  stamp: 
    secs: 21724
    nsecs:  37000000
  frame_id: "sonar_link"
radiation_type: 0
field_of_view: 0.698131978512
min_range: 0.00999999977648
max_range: 3.0
range: 0.0399999991059
---
header: 
  seq: 1569
  stamp: 
    secs: 21724
    nsecs: 139000000
  frame_id: "sonar_link"
radiation_type: 0
field_of_view: 0.698131978512
min_range: 0.00999999977648
max_range: 3.0
range: 0.0399999991059
---
header: 
  seq: 1570
  stamp: 
    secs: 21724
    nsecs: 239000000
  frame_id: "sonar_link"
radiation_type: 0
field_of_view: 0.698131978512
min_range: 0.00999999977648
max_range: 3.0
range: 0.039988219738
---
header: 
  seq: 1571
  stamp: 
    secs: 21724
    nsecs: 339000000
  frame_id: "sonar_link"
radiation_type: 0
field_of_view: 0.698131978512
min_range: 0.00999999977648
max_range: 3.0
range: 0.0400019772351
---
header: 
  seq: 1572
  stamp: 
    secs: 21724
    nsecs: 439000000
  frame_id: "sonar_link"
radiation_type: 0
field_of_view: 0.698131978512
min_range: 0.00999999977648
max_range: 3.0
range: 0.0399999991059
---
header: 
  seq: 1573
  stamp: 
    secs: 21724
    nsecs: 539000000
  frame_id: "sonar_link"
radiation_type: 0
field_of_view: 0.698131978512
min_range: 0.00999999977648
max_range: 3.0
range: 0.039988219738
---
header: 
  seq: 1574
  stamp: 
    secs: 21724
    nsecs: 639000000
  frame_id: "sonar_link"
radiation_type: 0
field_of_view: 0.698131978512
min_range: 0.00999999977648
max_range: 3.0
range: 0.0400019772351
---
header: 
  seq: 1575
  stamp: 
    secs: 21724
    nsecs: 739000000
  frame_id: "sonar_link"
radiation_type: 0
field_of_view: 0.698131978512
min_range: 0.00999999977648
max_range: 3.0
range: 0.0399999991059
---
header: 
  seq: 1576
  stamp: 
    secs: 21724
    nsecs: 839000000
  frame_id: "sonar_link"
radiation_type: 0
field_of_view: 0.698131978512
min_range: 0.00999999977648
max_range: 3.0
range: 0.039988219738
---
header: 
  seq: 1577
  stamp: 
    secs: 21724
    nsecs: 939000000
  frame_id: "sonar_link"
radiation_type: 0
field_of_view: 0.698131978512
min_range: 0.00999999977648
max_range: 3.0
range: 0.0400019772351
---
header: 
  seq: 1578
  stamp: 
    secs: 21725
    nsecs:  39000000
  frame_id: "sonar_link"
radiation_type: 0
field_of_view: 0.698131978512
min_range: 0.00999999977648
max_range: 3.0
range: 0.0399999991059
---
header: 
  seq: 1579
  stamp: 
    secs: 21725
    nsecs: 139000000
  frame_id: "sonar_link"
radiation_type: 0
field_of_view: 0.698131978512
min_range: 0.00999999977648
max_range: 3.0
range: 0.039988219738
---
header: 
  seq: 1580
  stamp: 
    secs: 21725
    nsecs: 239000000
  frame_id: "sonar_link"
radiation_type: 0
field_of_view: 0.698131978512
min_range: 0.00999999977648
max_range: 3.0
range: 0.0400019772351
---
header: 
  seq: 1581
  stamp: 
    secs: 21725
    nsecs: 339000000
  frame_id: "sonar_link"
radiation_type: 0
field_of_view: 0.698131978512
min_range: 0.00999999977648
max_range: 3.0
range: 0.0399999991059
---
header: 
  seq: 1582
  stamp: 
    secs: 21725
    nsecs: 439000000
  frame_id: "sonar_link"
radiation_type: 0
field_of_view: 0.698131978512
min_range: 0.00999999977648
max_range: 3.0
range: 0.039988219738
---
header: 
  seq: 1583
  stamp: 
    secs: 21725
    nsecs: 539000000
  frame_id: "sonar_link"
radiation_type: 0
field_of_view: 0.698131978512
min_range: 0.00999999977648
max_range: 3.0
range: 0.0400019772351
---
header: 
  seq: 1584
  stamp: 
    secs: 21725
    nsecs: 639000000
  frame_id: "sonar_link"
radiation_type: 0
field_of_view: 0.698131978512
min_range: 0.00999999977648
max_range: 3.0
range: 0.0399999991059
---
header: 
  seq: 1585
  stamp: 
    secs: 21725
    nsecs: 739000000
  frame_id: "sonar_link"
radiation_type: 0
field_of_view: 0.698131978512
min_range: 0.00999999977648
max_range: 3.0
range: 0.039988219738
---
header: 
  seq: 1586
  stamp: 
    secs: 21725
    nsecs: 839000000
  frame_id: "sonar_link"
radiation_type: 0
field_of_view: 0.698131978512
min_range: 0.00999999977648
max_range: 3.0
range: 0.0400019772351
---
header: 
  seq: 1587
  stamp: 
    secs: 21725
    nsecs: 939000000
  frame_id: "sonar_link"
radiation_type: 0
field_of_view: 0.698131978512
min_range: 0.00999999977648
max_range: 3.0
range: 0.0399999991059
---
header: 
  seq: 1588
  stamp: 
    secs: 21726
    nsecs:  39000000
  frame_id: "sonar_link"
radiation_type: 0
field_of_view: 0.698131978512
min_range: 0.00999999977648
max_range: 3.0
range: 0.039988219738
---
header: 
  seq: 1589
  stamp: 
    secs: 21726
    nsecs: 139000000
  frame_id: "sonar_link"
radiation_type: 0
field_of_view: 0.698131978512
min_range: 0.00999999977648
max_range: 3.0
range: 0.0400019772351
---
header: 
  seq: 1590
  stamp: 
    secs: 21726
    nsecs: 239000000
  frame_id: "sonar_link"
radiation_type: 0
field_of_view: 0.698131978512
min_range: 0.00999999977648
max_range: 3.0
range: 0.0399999991059
---
header: 
  seq: 1591
  stamp: 
    secs: 21726
    nsecs: 339000000
  frame_id: "sonar_link"
radiation_type: 0
field_of_view: 0.698131978512
min_range: 0.00999999977648
max_range: 3.0
range: 0.039988219738
---
header: 
  seq: 1592
  stamp: 
    secs: 21726
    nsecs: 439000000
  frame_id: "sonar_link"
radiation_type: 0
field_of_view: 0.698131978512
min_range: 0.00999999977648
max_range: 3.0
range: 0.0400019772351
---
header: 
  seq: 1593
  stamp: 
    secs: 21726
    nsecs: 539000000
  frame_id: "sonar_link"
radiation_type: 0
field_of_view: 0.698131978512
min_range: 0.00999999977648
max_range: 3.0
range: 0.0399999991059
---
header: 
  seq: 1594
  stamp: 
    secs: 21726
    nsecs: 639000000
  frame_id: "sonar_link"
radiation_type: 0
field_of_view: 0.698131978512
min_range: 0.00999999977648
max_range: 3.0
range: 0.039988219738
---
header: 
  seq: 1595
  stamp: 
    secs: 21726
    nsecs: 739000000
  frame_id: "sonar_link"
radiation_type: 0
field_of_view: 0.698131978512
min_range: 0.00999999977648
max_range: 3.0
range: 0.0400019772351
---
header: 
  seq: 1596
  stamp: 
    secs: 21726
    nsecs: 839000000
  frame_id: "sonar_link"
radiation_type: 0
field_of_view: 0.698131978512
min_range: 0.00999999977648
max_range: 3.0
range: 0.0399999991059
---
header: 
  seq: 1597
  stamp: 
    secs: 21726
    nsecs: 939000000
  frame_id: "sonar_link"
radiation_type: 0
field_of_view: 0.698131978512
min_range: 0.00999999977648
max_range: 3.0
range: 0.039988219738
---
header: 
  seq: 1598
  stamp: 
    secs: 21727
    nsecs:  39000000
  frame_id: "sonar_link"
radiation_type: 0
field_of_view: 0.698131978512
min_range: 0.00999999977648
max_range: 3.0
range: 0.0400019772351
---
header: 
  seq: 1599
  stamp: 
    secs: 21727
    nsecs: 139000000
  frame_id: "sonar_link"
radiation_type: 0
field_of_view: 0.698131978512
min_range: 0.00999999977648
max_range: 3.0
range: 0.0399999991059
---
header: 
  seq: 1600
  stamp: 
    secs: 21727
    nsecs: 239000000
  frame_id: "sonar_link"
radiation_type: 0
field_of_view: 0.698131978512
min_range: 0.00999999977648
max_range: 3.0
range: 0.039988219738
---
header: 
  seq: 1601
  stamp: 
    secs: 21727
    nsecs: 339000000
  frame_id: "sonar_link"
radiation_type: 0
field_of_view: 0.698131978512
min_range: 0.00999999977648
max_range: 3.0
range: 0.0400019772351
---
header: 
  seq: 1602
  stamp: 
    secs: 21727
    nsecs: 439000000
  frame_id: "sonar_link"
radiation_type: 0
field_of_view: 0.698131978512
min_range: 0.00999999977648
max_range: 3.0
range: 0.0399999991059
---
header: 
  seq: 1603
  stamp: 
    secs: 21727
    nsecs: 539000000
  frame_id: "sonar_link"
radiation_type: 0
field_of_view: 0.698131978512
min_range: 0.00999999977648
max_range: 3.0
range: 0.0400029681623
---
header: 
  seq: 1604
  stamp: 
    secs: 21727
    nsecs: 639000000
  frame_id: "sonar_link"
radiation_type: 0
field_of_view: 0.698131978512
min_range: 0.00999999977648
max_range: 3.0
range: 0.0400019772351
---
header: 
  seq: 1605
  stamp: 
    secs: 21727
    nsecs: 739000000
  frame_id: "sonar_link"
radiation_type: 0
field_of_view: 0.698131978512
min_range: 0.00999999977648
max_range: 3.0
range: 0.0399999991059
---
header: 
  seq: 1606
  stamp: 
    secs: 21727
    nsecs: 839000000
  frame_id: "sonar_link"
radiation_type: 0
field_of_view: 0.698131978512
min_range: 0.00999999977648
max_range: 3.0
range: 0.0400029681623
---
header: 
  seq: 1607
  stamp: 
    secs: 21727
    nsecs: 939000000
  frame_id: "sonar_link"
radiation_type: 0
field_of_view: 0.698131978512
min_range: 0.00999999977648
max_range: 3.0
range: 0.0479287877679
---
header: 
  seq: 1608
  stamp: 
    secs: 21728
    nsecs:  39000000
  frame_id: "sonar_link"
radiation_type: 0
field_of_view: 0.698131978512
min_range: 0.00999999977648
max_range: 3.0
range: 0.0577452331781
---
header: 
  seq: 1609
  stamp: 
    secs: 21728
    nsecs: 139000000
  frame_id: "sonar_link"
radiation_type: 0
field_of_view: 0.698131978512
min_range: 0.00999999977648
max_range: 3.0
range: 0.103768751025
---
header: 
  seq: 1610
  stamp: 
    secs: 21728
    nsecs: 239000000
  frame_id: "sonar_link"
radiation_type: 0
field_of_view: 0.698131978512
min_range: 0.00999999977648
max_range: 3.0
range: 0.161537006497
---
header: 
  seq: 1611
  stamp: 
    secs: 21728
    nsecs: 339000000
  frame_id: "sonar_link"
radiation_type: 0
field_of_view: 0.698131978512
min_range: 0.00999999977648
max_range: 3.0
range: 0.228061303496
---
header: 
  seq: 1612
  stamp: 
    secs: 21728
    nsecs: 439000000
  frame_id: "sonar_link"
radiation_type: 0
field_of_view: 0.698131978512
min_range: 0.00999999977648
max_range: 3.0
range: 0.302311748266
---
header: 
  seq: 1613
  stamp: 
    secs: 21728
    nsecs: 539000000
  frame_id: "sonar_link"
radiation_type: 0
field_of_view: 0.698131978512
min_range: 0.00999999977648
max_range: 3.0
range: 0.3822876513
---
header: 
  seq: 1614
  stamp: 
    secs: 21728
    nsecs: 639000000
  frame_id: "sonar_link"
radiation_type: 0
field_of_view: 0.698131978512
min_range: 0.00999999977648
max_range: 3.0
range: 0.465527266264
---
header: 
  seq: 1615
  stamp: 
    secs: 21728
    nsecs: 739000000
  frame_id: "sonar_link"
radiation_type: 0
field_of_view: 0.698131978512
min_range: 0.00999999977648
max_range: 3.0
range: 0.555525898933
---
header: 
  seq: 1616
  stamp: 
    secs: 21728
    nsecs: 839000000
  frame_id: "sonar_link"
radiation_type: 0
field_of_view: 0.698131978512
min_range: 0.00999999977648
max_range: 3.0
range: 0.634885847569
---
header: 
  seq: 1617
  stamp: 
    secs: 21728
    nsecs: 939000000
  frame_id: "sonar_link"
radiation_type: 0
field_of_view: 0.698131978512
min_range: 0.00999999977648
max_range: 3.0
range: 0.694955646992
---
header: 
  seq: 1618
  stamp: 
    secs: 21729
    nsecs:  39000000
  frame_id: "sonar_link"
radiation_type: 0
field_of_view: 0.698131978512
min_range: 0.00999999977648
max_range: 3.0
range: 0.741929769516
---
header: 
  seq: 1619
  stamp: 
    secs: 21729
    nsecs: 139000000
  frame_id: "sonar_link"
radiation_type: 0
field_of_view: 0.698131978512
min_range: 0.00999999977648
max_range: 3.0
range: 0.778294503689
---
header: 
  seq: 1620
  stamp: 
    secs: 21729
    nsecs: 239000000
  frame_id: "sonar_link"
radiation_type: 0
field_of_view: 0.698131978512
min_range: 0.00999999977648
max_range: 3.0
range: 0.806518256664
---
header: 
  seq: 1621
  stamp: 
    secs: 21729
    nsecs: 339000000
  frame_id: "sonar_link"
radiation_type: 0
field_of_view: 0.698131978512
min_range: 0.00999999977648
max_range: 3.0
range: 0.828486859798
---
header: 
  seq: 1622
  stamp: 
    secs: 21729
    nsecs: 439000000
  frame_id: "sonar_link"
radiation_type: 0
field_of_view: 0.698131978512
min_range: 0.00999999977648
max_range: 3.0
range: 0.845594584942
---
header: 
  seq: 1623
  stamp: 
    secs: 21729
    nsecs: 539000000
  frame_id: "sonar_link"
radiation_type: 0
field_of_view: 0.698131978512
min_range: 0.00999999977648
max_range: 3.0
range: 0.858929753304
---
header: 
  seq: 1624
  stamp: 
    secs: 21729
    nsecs: 639000000
  frame_id: "sonar_link"
radiation_type: 0
field_of_view: 0.698131978512
min_range: 0.00999999977648
max_range: 3.0
range: 0.869327962399
---
header: 
  seq: 1625
  stamp: 
    secs: 21729
    nsecs: 739000000
  frame_id: "sonar_link"
radiation_type: 0
field_of_view: 0.698131978512
min_range: 0.00999999977648
max_range: 3.0
range: 0.877414882183
---
header: 
  seq: 1626
  stamp: 
    secs: 21729
    nsecs: 839000000
  frame_id: "sonar_link"
radiation_type: 0
field_of_view: 0.698131978512
min_range: 0.00999999977648
max_range: 3.0
range: 0.883718729019
---
header: 
  seq: 1627
  stamp: 
    secs: 21729
    nsecs: 939000000
  frame_id: "sonar_link"
radiation_type: 0
field_of_view: 0.698131978512
min_range: 0.00999999977648
max_range: 3.0
range: 0.888611674309
---
header: 
  seq: 1628
  stamp: 
    secs: 21730
    nsecs:  39000000
  frame_id: "sonar_link"
radiation_type: 0
field_of_view: 0.698131978512
min_range: 0.00999999977648
max_range: 3.0
range: 0.892409682274
---
header: 
  seq: 1629
  stamp: 
    secs: 21730
    nsecs: 139000000
  frame_id: "sonar_link"
radiation_type: 0
field_of_view: 0.698131978512
min_range: 0.00999999977648
max_range: 3.0
range: 0.89537024498
---
header: 
  seq: 1630
  stamp: 
    secs: 21730
    nsecs: 239000000
  frame_id: "sonar_link"
radiation_type: 0
field_of_view: 0.698131978512
min_range: 0.00999999977648
max_range: 3.0
range: 0.897677183151
---
header: 
  seq: 1631
  stamp: 
    secs: 21730
    nsecs: 339000000
  frame_id: "sonar_link"
radiation_type: 0
field_of_view: 0.698131978512
min_range: 0.00999999977648
max_range: 3.0
range: 0.899468839169
---
header: 
  seq: 1632
  stamp: 
    secs: 21730
    nsecs: 439000000
  frame_id: "sonar_link"
radiation_type: 0
field_of_view: 0.698131978512
min_range: 0.00999999977648
max_range: 3.0
range: 0.900862574577
---
header: 
  seq: 1633
  stamp: 
    secs: 21730
    nsecs: 539000000
  frame_id: "sonar_link"
radiation_type: 0
field_of_view: 0.698131978512
min_range: 0.00999999977648
max_range: 3.0
range: 0.901956140995
---
header: 
  seq: 1634
  stamp: 
    secs: 21730
    nsecs: 639000000
  frame_id: "sonar_link"
radiation_type: 0
field_of_view: 0.698131978512
min_range: 0.00999999977648
max_range: 3.0
range: 0.902800679207
---
header: 
  seq: 1635
  stamp: 
    secs: 21730
    nsecs: 739000000
  frame_id: "sonar_link"
radiation_type: 0
field_of_view: 0.698131978512
min_range: 0.00999999977648
max_range: 3.0
range: 0.903459787369
---
header: 
  seq: 1636
  stamp: 
    secs: 21730
    nsecs: 839000000
  frame_id: "sonar_link"
radiation_type: 0
field_of_view: 0.698131978512
min_range: 0.00999999977648
max_range: 3.0
range: 0.903968453407
---
header: 
  seq: 1637
  stamp: 
    secs: 21730
    nsecs: 939000000
  frame_id: "sonar_link"
radiation_type: 0
field_of_view: 0.698131978512
min_range: 0.00999999977648
max_range: 3.0
range: 0.904361188412
---
header: 
  seq: 1638
  stamp: 
    secs: 21731
    nsecs:  39000000
  frame_id: "sonar_link"
radiation_type: 0
field_of_view: 0.698131978512
min_range: 0.00999999977648
max_range: 3.0
range: 0.904659628868
---
header: 
  seq: 1639
  stamp: 
    secs: 21731
    nsecs: 139000000
  frame_id: "sonar_link"
radiation_type: 0
field_of_view: 0.698131978512
min_range: 0.00999999977648
max_range: 3.0
range: 0.90489834547
---
header: 
  seq: 1640
  stamp: 
    secs: 21731
    nsecs: 239000000
  frame_id: "sonar_link"
radiation_type: 0
field_of_view: 0.698131978512
min_range: 0.00999999977648
max_range: 3.0
range: 0.905083417892
---
header: 
  seq: 1641
  stamp: 
    secs: 21731
    nsecs: 339000000
  frame_id: "sonar_link"
radiation_type: 0
field_of_view: 0.698131978512
min_range: 0.00999999977648
max_range: 3.0
range: 0.905219554901
---
header: 
  seq: 1642
  stamp: 
    secs: 21731
    nsecs: 439000000
  frame_id: "sonar_link"
radiation_type: 0
field_of_view: 0.698131978512
min_range: 0.00999999977648
max_range: 3.0
range: 0.905319750309
---
header: 
  seq: 1643
  stamp: 
    secs: 21731
    nsecs: 539000000
  frame_id: "sonar_link"
radiation_type: 0
field_of_view: 0.698131978512
min_range: 0.00999999977648
max_range: 3.0
range: 0.905398249626
---
header: 
  seq: 1644
  stamp: 
    secs: 21731
    nsecs: 639000000
  frame_id: "sonar_link"
radiation_type: 0
field_of_view: 0.698131978512
min_range: 0.00999999977648
max_range: 3.0
range: 0.90545719862
---
header: 
  seq: 1645
  stamp: 
    secs: 21731
    nsecs: 739000000
  frame_id: "sonar_link"
radiation_type: 0
field_of_view: 0.698131978512
min_range: 0.00999999977648
max_range: 3.0
range: 0.905525863171
---
header: 
  seq: 1646
  stamp: 
    secs: 21731
    nsecs: 839000000
  frame_id: "sonar_link"
radiation_type: 0
field_of_view: 0.698131978512
min_range: 0.00999999977648
max_range: 3.0
range: 0.905572116375
---
header: 
  seq: 1647
  stamp: 
    secs: 21731
    nsecs: 939000000
  frame_id: "sonar_link"
radiation_type: 0
field_of_view: 0.698131978512
min_range: 0.00999999977648
max_range: 3.0
range: 0.905611634254
---
header: 
  seq: 1648
  stamp: 
    secs: 21732
    nsecs:  39000000
  frame_id: "sonar_link"
radiation_type: 0
field_of_view: 0.698131978512
min_range: 0.00999999977648
max_range: 3.0
range: 0.90564852953
---
header: 
  seq: 1649
  stamp: 
    secs: 21732
    nsecs: 139000000
  frame_id: "sonar_link"
radiation_type: 0
field_of_view: 0.698131978512
min_range: 0.00999999977648
max_range: 3.0
range: 0.90566521883
---
header: 
  seq: 1650
  stamp: 
    secs: 21732
    nsecs: 239000000
  frame_id: "sonar_link"
radiation_type: 0
field_of_view: 0.698131978512
min_range: 0.00999999977648
max_range: 3.0
range: 0.905671477318
---
header: 
  seq: 1651
  stamp: 
    secs: 21732
    nsecs: 339000000
  frame_id: "sonar_link"
radiation_type: 0
field_of_view: 0.698131978512
min_range: 0.00999999977648
max_range: 3.0
range: 0.906136095524
---
header: 
  seq: 1652
  stamp: 
    secs: 21732
    nsecs: 439000000
  frame_id: "sonar_link"
radiation_type: 0
field_of_view: 0.698131978512
min_range: 0.00999999977648
max_range: 3.0
range: 0.9095236063
---
header: 
  seq: 1653
  stamp: 
    secs: 21732
    nsecs: 539000000
  frame_id: "sonar_link"
radiation_type: 0
field_of_view: 0.698131978512
min_range: 0.00999999977648
max_range: 3.0
range: 0.914920091629
---
header: 
  seq: 1654
  stamp: 
    secs: 21732
    nsecs: 639000000
  frame_id: "sonar_link"
radiation_type: 0
field_of_view: 0.698131978512
min_range: 0.00999999977648
max_range: 3.0
range: 0.920482397079
---
header: 
  seq: 1655
  stamp: 
    secs: 21732
    nsecs: 739000000
  frame_id: "sonar_link"
radiation_type: 0
field_of_view: 0.698131978512
min_range: 0.00999999977648
max_range: 3.0
range: 0.927180528641
---
header: 
  seq: 1656
  stamp: 
    secs: 21732
    nsecs: 839000000
  frame_id: "sonar_link"
radiation_type: 0
field_of_view: 0.698131978512
min_range: 0.00999999977648
max_range: 3.0
range: 0.93454259634
---
header: 
  seq: 1657
  stamp: 
    secs: 21732
    nsecs: 939000000
  frame_id: "sonar_link"
radiation_type: 0
field_of_view: 0.698131978512
min_range: 0.00999999977648
max_range: 3.0
range: 0.942207276821
---
header: 
  seq: 1658
  stamp: 
    secs: 21733
    nsecs:  39000000
  frame_id: "sonar_link"
radiation_type: 0
field_of_view: 0.698131978512
min_range: 0.00999999977648
max_range: 3.0
range: 0.953457057476
---
header: 
  seq: 1659
  stamp: 
    secs: 21733
    nsecs: 139000000
  frame_id: "sonar_link"
radiation_type: 0
field_of_view: 0.698131978512
min_range: 0.00999999977648
max_range: 3.0
range: 0.962078988552
---
header: 
  seq: 1660
  stamp: 
    secs: 21733
    nsecs: 239000000
  frame_id: "sonar_link"
radiation_type: 0
field_of_view: 0.698131978512
min_range: 0.00999999977648
max_range: 3.0
range: 0.972670555115
---
header: 
  seq: 1661
  stamp: 
    secs: 21733
    nsecs: 339000000
  frame_id: "sonar_link"
radiation_type: 0
field_of_view: 0.698131978512
min_range: 0.00999999977648
max_range: 3.0
range: 0.982335805893
---
header: 
  seq: 1662
  stamp: 
    secs: 21733
    nsecs: 439000000
  frame_id: "sonar_link"
radiation_type: 0
field_of_view: 0.698131978512
min_range: 0.00999999977648
max_range: 3.0
range: 0.993183732033
---
header: 
  seq: 1663
  stamp: 
    secs: 21733
    nsecs: 539000000
  frame_id: "sonar_link"
radiation_type: 0
field_of_view: 0.698131978512
min_range: 0.00999999977648
max_range: 3.0
range: 1.00201892853
---
header: 
  seq: 1664
  stamp: 
    secs: 21733
    nsecs: 639000000
  frame_id: "sonar_link"
radiation_type: 0
field_of_view: 0.698131978512
min_range: 0.00999999977648
max_range: 3.0
range: 1.01093649864
---
header: 
  seq: 1665
  stamp: 
    secs: 21733
    nsecs: 739000000
  frame_id: "sonar_link"
radiation_type: 0
field_of_view: 0.698131978512
min_range: 0.00999999977648
max_range: 3.0
range: 1.01760411263
---
header: 
  seq: 1666
  stamp: 
    secs: 21733
    nsecs: 839000000
  frame_id: "sonar_link"
radiation_type: 0
field_of_view: 0.698131978512
min_range: 0.00999999977648
max_range: 3.0
range: 1.02662062645
---
header: 
  seq: 1667
  stamp: 
    secs: 21733
    nsecs: 939000000
  frame_id: "sonar_link"
radiation_type: 0
field_of_view: 0.698131978512
min_range: 0.00999999977648
max_range: 3.0
range: 1.03655278683
---
header: 
  seq: 1668
  stamp: 
    secs: 21734
    nsecs:  39000000
  frame_id: "sonar_link"
radiation_type: 0
field_of_view: 0.698131978512
min_range: 0.00999999977648
max_range: 3.0
range: 1.0452286005
---
header: 
  seq: 1669
  stamp: 
    secs: 21734
    nsecs: 139000000
  frame_id: "sonar_link"
radiation_type: 0
field_of_view: 0.698131978512
min_range: 0.00999999977648
max_range: 3.0
range: 1.05617451668
---
header: 
  seq: 1670
  stamp: 
    secs: 21734
    nsecs: 239000000
  frame_id: "sonar_link"
radiation_type: 0
field_of_view: 0.698131978512
min_range: 0.00999999977648
max_range: 3.0
range: 1.06477344036
---
header: 
  seq: 1671
  stamp: 
    secs: 21734
    nsecs: 339000000
  frame_id: "sonar_link"
radiation_type: 0
field_of_view: 0.698131978512
min_range: 0.00999999977648
max_range: 3.0
range: 1.0731137991
---
header: 
  seq: 1672
  stamp: 
    secs: 21734
    nsecs: 439000000
  frame_id: "sonar_link"
radiation_type: 0
field_of_view: 0.698131978512
min_range: 0.00999999977648
max_range: 3.0
range: 1.08205997944
---
header: 
  seq: 1673
  stamp: 
    secs: 21734
    nsecs: 539000000
  frame_id: "sonar_link"
radiation_type: 0
field_of_view: 0.698131978512
min_range: 0.00999999977648
max_range: 3.0
range: 1.08930432796
---
header: 
  seq: 1674
  stamp: 
    secs: 21734
    nsecs: 639000000
  frame_id: "sonar_link"
radiation_type: 0
field_of_view: 0.698131978512
min_range: 0.00999999977648
max_range: 3.0
range: 1.09820735455
---
header: 
  seq: 1675
  stamp: 
    secs: 21734
    nsecs: 739000000
  frame_id: "sonar_link"
radiation_type: 0
field_of_view: 0.698131978512
min_range: 0.00999999977648
max_range: 3.0
range: 1.1062489748
---
header: 
  seq: 1676
  stamp: 
    secs: 21734
    nsecs: 839000000
  frame_id: "sonar_link"
radiation_type: 0
field_of_view: 0.698131978512
min_range: 0.00999999977648
max_range: 3.0
range: 1.1140639782
---
header: 
  seq: 1677
  stamp: 
    secs: 21734
    nsecs: 939000000
  frame_id: "sonar_link"
radiation_type: 0
field_of_view: 0.698131978512
min_range: 0.00999999977648
max_range: 3.0
range: 1.12304806709
---
header: 
  seq: 1678
  stamp: 
    secs: 21735
    nsecs:  39000000
  frame_id: "sonar_link"
radiation_type: 0
field_of_view: 0.698131978512
min_range: 0.00999999977648
max_range: 3.0
range: 1.13129878044
---
header: 
  seq: 1679
  stamp: 
    secs: 21735
    nsecs: 139000000
  frame_id: "sonar_link"
radiation_type: 0
field_of_view: 0.698131978512
min_range: 0.00999999977648
max_range: 3.0
range: 1.13985538483
---
header: 
  seq: 1680
  stamp: 
    secs: 21735
    nsecs: 239000000
  frame_id: "sonar_link"
radiation_type: 0
field_of_view: 0.698131978512
min_range: 0.00999999977648
max_range: 3.0
range: 1.14969539642
---
header: 
  seq: 1681
  stamp: 
    secs: 21735
    nsecs: 339000000
  frame_id: "sonar_link"
radiation_type: 0
field_of_view: 0.698131978512
min_range: 0.00999999977648
max_range: 3.0
range: 1.16280269623
---
header: 
  seq: 1682
  stamp: 
    secs: 21735
    nsecs: 439000000
  frame_id: "sonar_link"
radiation_type: 0
field_of_view: 0.698131978512
min_range: 0.00999999977648
max_range: 3.0
range: 1.17490148544
---
header: 
  seq: 1683
  stamp: 
    secs: 21735
    nsecs: 539000000
  frame_id: "sonar_link"
radiation_type: 0
field_of_view: 0.698131978512
min_range: 0.00999999977648
max_range: 3.0
range: 1.18673980236
---
header: 
  seq: 1684
  stamp: 
    secs: 21735
    nsecs: 639000000
  frame_id: "sonar_link"
radiation_type: 0
field_of_view: 0.698131978512
min_range: 0.00999999977648
max_range: 3.0
range: 1.19665968418
---
header: 
  seq: 1685
  stamp: 
    secs: 21735
    nsecs: 739000000
  frame_id: "sonar_link"
radiation_type: 0
field_of_view: 0.698131978512
min_range: 0.00999999977648
max_range: 3.0
range: 1.2059429884
---
header: 
  seq: 1686
  stamp: 
    secs: 21735
    nsecs: 839000000
  frame_id: "sonar_link"
radiation_type: 0
field_of_view: 0.698131978512
min_range: 0.00999999977648
max_range: 3.0
range: 1.2159512043
---
header: 
  seq: 1687
  stamp: 
    secs: 21735
    nsecs: 939000000
  frame_id: "sonar_link"
radiation_type: 0
field_of_view: 0.698131978512
min_range: 0.00999999977648
max_range: 3.0
range: 1.22738063335
---
header: 
  seq: 1688
  stamp: 
    secs: 21736
    nsecs:  39000000
  frame_id: "sonar_link"
radiation_type: 0
field_of_view: 0.698131978512
min_range: 0.00999999977648
max_range: 3.0
range: 1.23653650284
---
header: 
  seq: 1689
  stamp: 
    secs: 21736
    nsecs: 139000000
  frame_id: "sonar_link"
radiation_type: 0
field_of_view: 0.698131978512
min_range: 0.00999999977648
max_range: 3.0
range: 1.24472784996
---
header: 
  seq: 1690
  stamp: 
    secs: 21736
    nsecs: 239000000
  frame_id: "sonar_link"
radiation_type: 0
field_of_view: 0.698131978512
min_range: 0.00999999977648
max_range: 3.0
range: 1.25308203697
---
header: 
  seq: 1691
  stamp: 
    secs: 21736
    nsecs: 339000000
  frame_id: "sonar_link"
radiation_type: 0
field_of_view: 0.698131978512
min_range: 0.00999999977648
max_range: 3.0
range: 1.26325023174
---
header: 
  seq: 1692
  stamp: 
    secs: 21736
    nsecs: 439000000
  frame_id: "sonar_link"
radiation_type: 0
field_of_view: 0.698131978512
min_range: 0.00999999977648
max_range: 3.0
range: 1.27404510975
---
header: 
  seq: 1693
  stamp: 
    secs: 21736
    nsecs: 539000000
  frame_id: "sonar_link"
radiation_type: 0
field_of_view: 0.698131978512
min_range: 0.00999999977648
max_range: 3.0
range: 1.2842195034
---
header: 
  seq: 1694
  stamp: 
    secs: 21736
    nsecs: 639000000
  frame_id: "sonar_link"
radiation_type: 0
field_of_view: 0.698131978512
min_range: 0.00999999977648
max_range: 3.0
range: 1.29386436939
---
header: 
  seq: 1695
  stamp: 
    secs: 21736
    nsecs: 739000000
  frame_id: "sonar_link"
radiation_type: 0
field_of_view: 0.698131978512
min_range: 0.00999999977648
max_range: 3.0
range: 1.3047170639
---
header: 
  seq: 1696
  stamp: 
    secs: 21736
    nsecs: 839000000
  frame_id: "sonar_link"
radiation_type: 0
field_of_view: 0.698131978512
min_range: 0.00999999977648
max_range: 3.0
range: 1.31498157978
---
header: 
  seq: 1697
  stamp: 
    secs: 21736
    nsecs: 939000000
  frame_id: "sonar_link"
radiation_type: 0
field_of_view: 0.698131978512
min_range: 0.00999999977648
max_range: 3.0
range: 1.32412624359
---
header: 
  seq: 1698
  stamp: 
    secs: 21737
    nsecs:  39000000
  frame_id: "sonar_link"
radiation_type: 0
field_of_view: 0.698131978512
min_range: 0.00999999977648
max_range: 3.0
range: 1.33419275284
---
header: 
  seq: 1699
  stamp: 
    secs: 21737
    nsecs: 139000000
  frame_id: "sonar_link"
radiation_type: 0
field_of_view: 0.698131978512
min_range: 0.00999999977648
max_range: 3.0
range: 1.34583377838
---
header: 
  seq: 1700
  stamp: 
    secs: 21737
    nsecs: 239000000
  frame_id: "sonar_link"
radiation_type: 0
field_of_view: 0.698131978512
min_range: 0.00999999977648
max_range: 3.0
range: 1.35504555702
---
header: 
  seq: 1701
  stamp: 
    secs: 21737
    nsecs: 339000000
  frame_id: "sonar_link"
radiation_type: 0
field_of_view: 0.698131978512
min_range: 0.00999999977648
max_range: 3.0
range: 1.36564385891
---
header: 
  seq: 1702
  stamp: 
    secs: 21737
    nsecs: 439000000
  frame_id: "sonar_link"
radiation_type: 0
field_of_view: 0.698131978512
min_range: 0.00999999977648
max_range: 3.0
range: 1.37438333035
---
header: 
  seq: 1703
  stamp: 
    secs: 21737
    nsecs: 539000000
  frame_id: "sonar_link"
radiation_type: 0
field_of_view: 0.698131978512
min_range: 0.00999999977648
max_range: 3.0
range: 1.38591682911
---
header: 
  seq: 1704
  stamp: 
    secs: 21737
    nsecs: 639000000
  frame_id: "sonar_link"
radiation_type: 0
field_of_view: 0.698131978512
min_range: 0.00999999977648
max_range: 3.0
range: 1.3952922821
---
header: 
  seq: 1705
  stamp: 
    secs: 21737
    nsecs: 739000000
  frame_id: "sonar_link"
radiation_type: 0
field_of_view: 0.698131978512
min_range: 0.00999999977648
max_range: 3.0
range: 1.40298330784
---
header: 
  seq: 1706
  stamp: 
    secs: 21737
    nsecs: 839000000
  frame_id: "sonar_link"
radiation_type: 0
field_of_view: 0.698131978512
min_range: 0.00999999977648
max_range: 3.0
range: 1.41353702545
---
header: 
  seq: 1707
  stamp: 
    secs: 21737
    nsecs: 939000000
  frame_id: "sonar_link"
radiation_type: 0
field_of_view: 0.698131978512
min_range: 0.00999999977648
max_range: 3.0
range: 1.4224319458
---
header: 
  seq: 1708
  stamp: 
    secs: 21738
    nsecs:  39000000
  frame_id: "sonar_link"
radiation_type: 0
field_of_view: 0.698131978512
min_range: 0.00999999977648
max_range: 3.0
range: 1.43162620068
---
header: 
  seq: 1709
  stamp: 
    secs: 21738
    nsecs: 139000000
  frame_id: "sonar_link"
radiation_type: 0
field_of_view: 0.698131978512
min_range: 0.00999999977648
max_range: 3.0
range: 1.43906366825
---
header: 
  seq: 1710
  stamp: 
    secs: 21738
    nsecs: 239000000
  frame_id: "sonar_link"
radiation_type: 0
field_of_view: 0.698131978512
min_range: 0.00999999977648
max_range: 3.0
range: 1.44826793671
---
header: 
  seq: 1711
  stamp: 
    secs: 21738
    nsecs: 339000000
  frame_id: "sonar_link"
radiation_type: 0
field_of_view: 0.698131978512
min_range: 0.00999999977648
max_range: 3.0
range: 1.45429515839
---
header: 
  seq: 1712
  stamp: 
    secs: 21738
    nsecs: 439000000
  frame_id: "sonar_link"
radiation_type: 0
field_of_view: 0.698131978512
min_range: 0.00999999977648
max_range: 3.0
range: 1.46205592155
---
header: 
  seq: 1713
  stamp: 
    secs: 21738
    nsecs: 539000000
  frame_id: "sonar_link"
radiation_type: 0
field_of_view: 0.698131978512
min_range: 0.00999999977648
max_range: 3.0
range: 1.47144424915
---
header: 
  seq: 1714
  stamp: 
    secs: 21738
    nsecs: 639000000
  frame_id: "sonar_link"
radiation_type: 0
field_of_view: 0.698131978512
min_range: 0.00999999977648
max_range: 3.0
range: 1.48149216175
---
header: 
  seq: 1715
  stamp: 
    secs: 21738
    nsecs: 739000000
  frame_id: "sonar_link"
radiation_type: 0
field_of_view: 0.698131978512
min_range: 0.00999999977648
max_range: 3.0
range: 1.49197638035
---
header: 
  seq: 1716
  stamp: 
    secs: 21738
    nsecs: 839000000
  frame_id: "sonar_link"
radiation_type: 0
field_of_view: 0.698131978512
min_range: 0.00999999977648
max_range: 3.0
range: 1.50307309628
---
header: 
  seq: 1717
  stamp: 
    secs: 21738
    nsecs: 939000000
  frame_id: "sonar_link"
radiation_type: 0
field_of_view: 0.698131978512
min_range: 0.00999999977648
max_range: 3.0
range: 1.51257169247
---
header: 
  seq: 1718
  stamp: 
    secs: 21739
    nsecs:  39000000
  frame_id: "sonar_link"
radiation_type: 0
field_of_view: 0.698131978512
min_range: 0.00999999977648
max_range: 3.0
range: 1.52409112453
---
header: 
  seq: 1719
  stamp: 
    secs: 21739
    nsecs: 139000000
  frame_id: "sonar_link"
radiation_type: 0
field_of_view: 0.698131978512
min_range: 0.00999999977648
max_range: 3.0
range: 1.5311139822
---
header: 
  seq: 1720
  stamp: 
    secs: 21739
    nsecs: 239000000
  frame_id: "sonar_link"
radiation_type: 0
field_of_view: 0.698131978512
min_range: 0.00999999977648
max_range: 3.0
range: 1.53979599476
---
header: 
  seq: 1721
  stamp: 
    secs: 21739
    nsecs: 339000000
  frame_id: "sonar_link"
radiation_type: 0
field_of_view: 0.698131978512
min_range: 0.00999999977648
max_range: 3.0
range: 1.54871916771
---
header: 
  seq: 1722
  stamp: 
    secs: 21739
    nsecs: 439000000
  frame_id: "sonar_link"
radiation_type: 0
field_of_view: 0.698131978512
min_range: 0.00999999977648
max_range: 3.0
range: 1.56014704704
---
header: 
  seq: 1723
  stamp: 
    secs: 21739
    nsecs: 539000000
  frame_id: "sonar_link"
radiation_type: 0
field_of_view: 0.698131978512
min_range: 0.00999999977648
max_range: 3.0
range: 1.57265639305
---
header: 
  seq: 1724
  stamp: 
    secs: 21739
    nsecs: 639000000
  frame_id: "sonar_link"
radiation_type: 0
field_of_view: 0.698131978512
min_range: 0.00999999977648
max_range: 3.0
range: 1.58286952972
---
header: 
  seq: 1725
  stamp: 
    secs: 21739
    nsecs: 739000000
  frame_id: "sonar_link"
radiation_type: 0
field_of_view: 0.698131978512
min_range: 0.00999999977648
max_range: 3.0
range: 1.59463238716
---
header: 
  seq: 1726
  stamp: 
    secs: 21739
    nsecs: 839000000
  frame_id: "sonar_link"
radiation_type: 0
field_of_view: 0.698131978512
min_range: 0.00999999977648
max_range: 3.0
range: 1.60392260551
---
header: 
  seq: 1727
  stamp: 
    secs: 21739
    nsecs: 939000000
  frame_id: "sonar_link"
radiation_type: 0
field_of_view: 0.698131978512
min_range: 0.00999999977648
max_range: 3.0
range: 1.61471688747
---
header: 
  seq: 1728
  stamp: 
    secs: 21740
    nsecs:  39000000
  frame_id: "sonar_link"
radiation_type: 0
field_of_view: 0.698131978512
min_range: 0.00999999977648
max_range: 3.0
range: 1.62463641167
---
header: 
  seq: 1729
  stamp: 
    secs: 21740
    nsecs: 139000000
  frame_id: "sonar_link"
radiation_type: 0
field_of_view: 0.698131978512
min_range: 0.00999999977648
max_range: 3.0
range: 1.63532948494
---
header: 
  seq: 1730
  stamp: 
    secs: 21740
    nsecs: 239000000
  frame_id: "sonar_link"
radiation_type: 0
field_of_view: 0.698131978512
min_range: 0.00999999977648
max_range: 3.0
range: 1.64486408234
---
header: 
  seq: 1731
  stamp: 
    secs: 21740
    nsecs: 339000000
  frame_id: "sonar_link"
radiation_type: 0
field_of_view: 0.698131978512
min_range: 0.00999999977648
max_range: 3.0
range: 1.65464508533
---
header: 
  seq: 1732
  stamp: 
    secs: 21740
    nsecs: 439000000
  frame_id: "sonar_link"
radiation_type: 0
field_of_view: 0.698131978512
min_range: 0.00999999977648
max_range: 3.0
range: 1.66338372231
---
header: 
  seq: 1733
  stamp: 
    secs: 21740
    nsecs: 539000000
  frame_id: "sonar_link"
radiation_type: 0
field_of_view: 0.698131978512
min_range: 0.00999999977648
max_range: 3.0
range: 1.67189276218
---
header: 
  seq: 1734
  stamp: 
    secs: 21740
    nsecs: 639000000
  frame_id: "sonar_link"
radiation_type: 0
field_of_view: 0.698131978512
min_range: 0.00999999977648
max_range: 3.0
range: 1.68046796322
---
header: 
  seq: 1735
  stamp: 
    secs: 21740
    nsecs: 740000000
  frame_id: "sonar_link"
radiation_type: 0
field_of_view: 0.698131978512
min_range: 0.00999999977648
max_range: 3.0
range: 1.69252920151
---
header: 
  seq: 1736
  stamp: 
    secs: 21740
    nsecs: 840000000
  frame_id: "sonar_link"
radiation_type: 0
field_of_view: 0.698131978512
min_range: 0.00999999977648
max_range: 3.0
range: 1.70299637318
---
header: 
  seq: 1737
  stamp: 
    secs: 21740
    nsecs: 940000000
  frame_id: "sonar_link"
radiation_type: 0
field_of_view: 0.698131978512
min_range: 0.00999999977648
max_range: 3.0
range: 1.71287763119
---
header: 
  seq: 1738
  stamp: 
    secs: 21741
    nsecs:  40000000
  frame_id: "sonar_link"
radiation_type: 0
field_of_view: 0.698131978512
min_range: 0.00999999977648
max_range: 3.0
range: 1.72306919098
---
header: 
  seq: 1739
  stamp: 
    secs: 21741
    nsecs: 140000000
  frame_id: "sonar_link"
radiation_type: 0
field_of_view: 0.698131978512
min_range: 0.00999999977648
max_range: 3.0
range: 1.73204052448
---
header: 
  seq: 1740
  stamp: 
    secs: 21741
    nsecs: 240000000
  frame_id: "sonar_link"
radiation_type: 0
field_of_view: 0.698131978512
min_range: 0.00999999977648
max_range: 3.0
range: 1.74357128143
---
header: 
  seq: 1741
  stamp: 
    secs: 21741
    nsecs: 340000000
  frame_id: "sonar_link"
radiation_type: 0
field_of_view: 0.698131978512
min_range: 0.00999999977648
max_range: 3.0
range: 1.75365889072
---
header: 
  seq: 1742
  stamp: 
    secs: 21741
    nsecs: 440000000
  frame_id: "sonar_link"
radiation_type: 0
field_of_view: 0.698131978512
min_range: 0.00999999977648
max_range: 3.0
range: 1.76436018944
---
header: 
  seq: 1743
  stamp: 
    secs: 21741
    nsecs: 540000000
  frame_id: "sonar_link"
radiation_type: 0
field_of_view: 0.698131978512
min_range: 0.00999999977648
max_range: 3.0
range: 1.77384316921
---
header: 
  seq: 1744
  stamp: 
    secs: 21741
    nsecs: 640000000
  frame_id: "sonar_link"
radiation_type: 0
field_of_view: 0.698131978512
min_range: 0.00999999977648
max_range: 3.0
range: 1.78415107727
---
header: 
  seq: 1745
  stamp: 
    secs: 21741
    nsecs: 740000000
  frame_id: "sonar_link"
radiation_type: 0
field_of_view: 0.698131978512
min_range: 0.00999999977648
max_range: 3.0
range: 1.79436588287
---
header: 
  seq: 1746
  stamp: 
    secs: 21741
    nsecs: 840000000
  frame_id: "sonar_link"
radiation_type: 0
field_of_view: 0.698131978512
min_range: 0.00999999977648
max_range: 3.0
range: 1.8035453558
---
header: 
  seq: 1747
  stamp: 
    secs: 21741
    nsecs: 940000000
  frame_id: "sonar_link"
radiation_type: 0
field_of_view: 0.698131978512
min_range: 0.00999999977648
max_range: 3.0
range: 1.8108382225
---
header: 
  seq: 1748
  stamp: 
    secs: 21742
    nsecs:  40000000
  frame_id: "sonar_link"
radiation_type: 0
field_of_view: 0.698131978512
min_range: 0.00999999977648
max_range: 3.0
range: 1.81967353821
---
header: 
  seq: 1749
  stamp: 
    secs: 21742
    nsecs: 144000000
  frame_id: "sonar_link"
radiation_type: 0
field_of_view: 0.698131978512
min_range: 0.00999999977648
max_range: 3.0
range: 1.83033180237
---
header: 
  seq: 1750
  stamp: 
    secs: 21742
    nsecs: 244000000
  frame_id: "sonar_link"
radiation_type: 0
field_of_view: 0.698131978512
min_range: 0.00999999977648
max_range: 3.0
range: 1.83778440952
---
header: 
  seq: 1751
  stamp: 
    secs: 21742
    nsecs: 344000000
  frame_id: "sonar_link"
radiation_type: 0
field_of_view: 0.698131978512
min_range: 0.00999999977648
max_range: 3.0
range: 1.84898018837
---
header: 
  seq: 1752
  stamp: 
    secs: 21742
    nsecs: 444000000
  frame_id: "sonar_link"
radiation_type: 0
field_of_view: 0.698131978512
min_range: 0.00999999977648
max_range: 3.0
range: 1.8571754694
---
header: 
  seq: 1753
  stamp: 
    secs: 21742
    nsecs: 544000000
  frame_id: "sonar_link"
radiation_type: 0
field_of_view: 0.698131978512
min_range: 0.00999999977648
max_range: 3.0
range: 1.86745083332
---
header: 
  seq: 1754
  stamp: 
    secs: 21742
    nsecs: 644000000
  frame_id: "sonar_link"
radiation_type: 0
field_of_view: 0.698131978512
min_range: 0.00999999977648
max_range: 3.0
range: 1.87702548504
---
header: 
  seq: 1755
  stamp: 
    secs: 21742
    nsecs: 744000000
  frame_id: "sonar_link"
radiation_type: 0
field_of_view: 0.698131978512
min_range: 0.00999999977648
max_range: 3.0
range: 1.88822805882
---
header: 
  seq: 1756
  stamp: 
    secs: 21742
    nsecs: 844000000
  frame_id: "sonar_link"
radiation_type: 0
field_of_view: 0.698131978512
min_range: 0.00999999977648
max_range: 3.0
range: 1.89647185802
---
header: 
  seq: 1757
  stamp: 
    secs: 21742
    nsecs: 944000000
  frame_id: "sonar_link"
radiation_type: 0
field_of_view: 0.698131978512
min_range: 0.00999999977648
max_range: 3.0
range: 1.90440428257
---
header: 
  seq: 1758
  stamp: 
    secs: 21743
    nsecs:  44000000
  frame_id: "sonar_link"
radiation_type: 0
field_of_view: 0.698131978512
min_range: 0.00999999977648
max_range: 3.0
range: 1.91230607033
---
header: 
  seq: 1759
  stamp: 
    secs: 21743
    nsecs: 144000000
  frame_id: "sonar_link"
radiation_type: 0
field_of_view: 0.698131978512
min_range: 0.00999999977648
max_range: 3.0
range: 1.92112934589
---
header: 
  seq: 1760
  stamp: 
    secs: 21743
    nsecs: 244000000
  frame_id: "sonar_link"
radiation_type: 0
field_of_view: 0.698131978512
min_range: 0.00999999977648
max_range: 3.0
range: 1.9284389019
---
header: 
  seq: 1761
  stamp: 
    secs: 21743
    nsecs: 344000000
  frame_id: "sonar_link"
radiation_type: 0
field_of_view: 0.698131978512
min_range: 0.00999999977648
max_range: 3.0
range: 1.93523538113
---
header: 
  seq: 1762
  stamp: 
    secs: 21743
    nsecs: 444000000
  frame_id: "sonar_link"
radiation_type: 0
field_of_view: 0.698131978512
min_range: 0.00999999977648
max_range: 3.0
range: 1.94016218185
---
header: 
  seq: 1763
  stamp: 
    secs: 21743
    nsecs: 544000000
  frame_id: "sonar_link"
radiation_type: 0
field_of_view: 0.698131978512
min_range: 0.00999999977648
max_range: 3.0
range: 1.94820857048
---
header: 
  seq: 1764
  stamp: 
    secs: 21743
    nsecs: 644000000
  frame_id: "sonar_link"
radiation_type: 0
field_of_view: 0.698131978512
