header: 
  seq: 112
  stamp: 
    secs: 712
    nsecs: 383000000
  frame_id: "world"
pose: 
  position: 
    x: -3.16697219205e-06
    y: 4.3970585466e-06
    z: -1.0347083844e-05
  orientation: 
    x: 2.98844071265e-07
    y: 3.3767323657e-06
    z: -1.68861333803e-06
    w: 0.999999999993
---
header: 
  seq: 113
  stamp: 
    secs: 712
    nsecs: 718000000
  frame_id: "world"
pose: 
  position: 
    x: -2.27191849262e-05
    y: 1.21088723972e-05
    z: 2.08414203371e-05
  orientation: 
    x: 2.42844671359e-05
    y: 1.08258118377e-05
    z: -4.9560071584e-06
    w: 0.999999999634
---
header: 
  seq: 114
  stamp: 
    secs: 713
    nsecs:  31000000
  frame_id: "world"
pose: 
  position: 
    x: -3.87560248782e-06
    y: 4.88528303322e-06
    z: -1.02118483483e-05
  orientation: 
    x: 5.62175841874e-07
    y: 3.69296776623e-06
    z: -1.56274791151e-06
    w: 0.999999999992
---
header: 
  seq: 115
  stamp: 
    secs: 713
    nsecs: 249000000
  frame_id: "world"
pose: 
  position: 
    x: -3.87560248782e-06
    y: 4.88528303322e-06
    z: -1.02118483483e-05
  orientation: 
    x: 5.62175841874e-07
    y: 3.69296776623e-06
    z: -1.56274791151e-06
    w: 0.999999999992
---
header: 
  seq: 116
  stamp: 
    secs: 713
    nsecs: 454000000
  frame_id: "world"
pose: 
  position: 
    x: 1.97136841962e-06
    y: 7.69523649069e-06
    z: -1.33434532472e-05
  orientation: 
    x: -1.06643972231e-06
    y: 9.58626287683e-07
    z: -3.58966815383e-07
    w: 0.999999999999
---
header: 
  seq: 117
  stamp: 
    secs: 713
    nsecs: 658000000
  frame_id: "world"
pose: 
  position: 
    x: 1.97136841962e-06
    y: 7.69523649069e-06
    z: -1.33434532472e-05
  orientation: 
    x: -1.06643972231e-06
    y: 9.58626287683e-07
    z: -3.58966815383e-07
    w: 0.999999999999
---
header: 
  seq: 118
  stamp: 
    secs: 713
    nsecs: 861000000
  frame_id: "world"
pose: 
  position: 
    x: -2.91802698484e-05
    y: 3.5124810438e-06
    z: 1.79602466233e-05
  orientation: 
    x: 1.93137366241e-05
    y: 1.36478583915e-05
    z: -3.11754865745e-06
    w: 0.999999999715
---
header: 
  seq: 119
  stamp: 
    secs: 714
    nsecs: 123000000
  frame_id: "world"
pose: 
  position: 
    x: -3.13129589813e-06
    y: 4.37615653937e-06
    z: -1.03927450255e-05
  orientation: 
    x: 2.83513571728e-07
    y: 3.37065239362e-06
    z: -1.68444694281e-06
    w: 0.999999999993
---
header: 
  seq: 120
  stamp: 
    secs: 714
    nsecs: 435000000
  frame_id: "world"
pose: 
  position: 
    x: -3.13829787046e-06
    y: 4.37016615251e-06
    z: -1.04030477814e-05
  orientation: 
    x: 2.80362542069e-07
    y: 3.37097344525e-06
    z: -1.68288147505e-06
    w: 0.999999999993
---
header: 
  seq: 121
  stamp: 
    secs: 714
    nsecs: 764000000
  frame_id: "world"
pose: 
  position: 
    x: -2.27445962082e-05
    y: 1.20853446788e-05
    z: 2.0845905965e-05
  orientation: 
    x: 2.42722762689e-05
    y: 1.08429821882e-05
    z: -4.95835865696e-06
    w: 0.999999999634
---
header: 
  seq: 122
  stamp: 
    secs: 715
    nsecs: 123000000
  frame_id: "world"
pose: 
  position: 
    x: -2.36635551119e-05
    y: 1.05934009298e-06
    z: 4.87139914185e-06
  orientation: 
    x: 9.41522921378e-06
    y: 1.2124792191e-05
    z: -3.06729998518e-06
    w: 0.999999999877
---
header: 
  seq: 123
  stamp: 
    secs: 715
    nsecs: 404000000
  frame_id: "world"
pose: 
  position: 
    x: 2.13460157283e-06
    y: 7.73638930696e-06
    z: -1.35501768455e-05
  orientation: 
    x: -1.04777052456e-06
    y: 9.12870461888e-07
    z: -4.02289316525e-07
    w: 0.999999999999
---
header: 
  seq: 124
  stamp: 
    secs: 715
    nsecs: 616000000
  frame_id: "world"
pose: 
  position: 
    x: -2.27868058573e-05
    y: 1.20385348055e-05
    z: 2.08603032661e-05
  orientation: 
    x: 2.42538208024e-05
    y: 1.08631493237e-05
    z: -4.98634608266e-06
    w: 0.999999999634
---
header: 
  seq: 125
  stamp: 
    secs: 715
    nsecs: 827000000
  frame_id: "world"
pose: 
  position: 
    x: -3.19953414873e-06
    y: 4.67106428914e-06
    z: -1.04255068436e-05
  orientation: 
    x: 4.08858767284e-07
    y: 3.40391602547e-06
    z: -1.71580711593e-06
    w: 0.999999999993
---
header: 
  seq: 126
  stamp: 
    secs: 716
    nsecs:  52000000
  frame_id: "world"
pose: 
  position: 
    x: 2.03614058591e-06
    y: 7.62824174672e-06
    z: -1.3606135326e-05
  orientation: 
    x: -1.09123402581e-06
    y: 9.63480601967e-07
    z: -3.82643719376e-07
    w: 0.999999999999
---
header: 
  seq: 127
  stamp: 
    secs: 716
    nsecs: 259000000
  frame_id: "world"
pose: 
  position: 
    x: -3.24566804011e-06
    y: 4.50742663816e-06
    z: -1.04241034933e-05
  orientation: 
    x: 3.19437873484e-07
    y: 3.42223165714e-06
    z: -1.69049678787e-06
    w: 0.999999999993
---
header: 
  seq: 128
  stamp: 
    secs: 716
    nsecs: 619000000
  frame_id: "world"
pose: 
  position: 
    x: -3.26264830619e-06
    y: 4.5096771828e-06
    z: -1.04428381746e-05
  orientation: 
    x: 3.22114715343e-07
    y: 3.42667317452e-06
    z: -1.68840529112e-06
    w: 0.999999999993
---
header: 
  seq: 129
  stamp: 
    secs: 716
    nsecs: 965000000
  frame_id: "world"
pose: 
  position: 
    x: -3.26264830619e-06
    y: 4.5096771828e-06
    z: -1.04428381746e-05
  orientation: 
    x: 3.22114715343e-07
    y: 3.42667317452e-06
    z: -1.68840529112e-06
    w: 0.999999999993
---
header: 
  seq: 130
  stamp: 
    secs: 717
    nsecs: 338000000
  frame_id: "world"
pose: 
  position: 
    x: -2.27787386393e-05
    y: 1.21137627502e-05
    z: 2.05446158361e-05
  orientation: 
    x: 2.42820897167e-05
    y: 1.09022848807e-05
    z: -4.98081362638e-06
    w: 0.999999999633
---
header: 
  seq: 131
  stamp: 
    secs: 717
    nsecs: 725000000
  frame_id: "world"
pose: 
  position: 
    x: -2.84546531475e-05
    y: 2.61070158558e-06
    z: 1.73353400896e-05
  orientation: 
    x: 1.87764962851e-05
    y: 1.33730709386e-05
    z: -3.15544775645e-06
    w: 0.999999999729
---
header: 
  seq: 132
  stamp: 
    secs: 718
    nsecs:  21000000
  frame_id: "world"
pose: 
  position: 
    x: -2.49338518188e-05
    y: 6.06101684753e-06
    z: 6.02567934038e-06
  orientation: 
    x: 1.13123123793e-05
    y: 1.29138179525e-05
    z: -4.50869720154e-06
    w: 0.999999999842
---
header: 
  seq: 133
  stamp: 
    secs: 718
    nsecs: 283000000
  frame_id: "world"
pose: 
  position: 
    x: -2.84675643343e-05
    y: 2.62055118583e-06
    z: 1.73320731847e-05
  orientation: 
    x: 1.87805107948e-05
    y: 1.33780149518e-05
    z: -3.15211445837e-06
    w: 0.999999999729
---
header: 
  seq: 134
  stamp: 
    secs: 718
    nsecs: 546000000
  frame_id: "world"
pose: 
  position: 
    x: -2.49381482718e-05
    y: 6.07516039963e-06
    z: 6.03549415246e-06
  orientation: 
    x: 1.13232990753e-05
    y: 1.29149266265e-05
    z: -4.51307732803e-06
    w: 0.999999999842
---
header: 
  seq: 135
  stamp: 
    secs: 718
    nsecs: 861000000
  frame_id: "world"
pose: 
  position: 
    x: -2.49239656114e-05
    y: 6.07389256402e-06
    z: 6.03750868322e-06
  orientation: 
    x: 1.13178193697e-05
    y: 1.29119262035e-05
    z: -4.50411925996e-06
    w: 0.999999999842
---
header: 
  seq: 136
  stamp: 
    secs: 719
    nsecs: 245000000
  frame_id: "world"
pose: 
  position: 
    x: -2.47439402301e-05
    y: 6.06528965363e-06
    z: 6.01617102802e-06
  orientation: 
    x: 1.12927464198e-05
    y: 1.28470746838e-05
    z: -4.53343818592e-06
    w: 0.999999999843
---
header: 
  seq: 137
  stamp: 
    secs: 719
    nsecs: 634000000
  frame_id: "world"
pose: 
  position: 
    x: 2.64503205472e-06
    y: 1.99966984837e-06
    z: -1.49913075802e-05
  orientation: 
    x: -3.27570978696e-06
    y: 4.98414181035e-07
    z: 9.97415781961e-07
    w: 0.999999999994
---
header: 
  seq: 138
  stamp: 
    secs: 719
    nsecs: 980000000
  frame_id: "world"
pose: 
  position: 
    x: 2.64503205472e-06
    y: 1.99966984837e-06
    z: -1.49913075802e-05
  orientation: 
    x: -3.27570978696e-06
    y: 4.98414181035e-07
    z: 9.97415781961e-07
    w: 0.999999999994
---
header: 
  seq: 139
  stamp: 
    secs: 720
    nsecs: 252000000
  frame_id: "world"
pose: 
  position: 
    x: 2.61323702944e-06
    y: 2.1142739115e-06
    z: -1.49567058543e-05
  orientation: 
    x: -3.22638629766e-06
    y: 5.06381013562e-07
    z: 1.03000547824e-06
    w: 0.999999999994
---
header: 
  seq: 140
  stamp: 
    secs: 720
    nsecs: 467000000
  frame_id: "world"
pose: 
  position: 
    x: 2.61323702944e-06
    y: 2.1142739115e-06
    z: -1.49567058543e-05
  orientation: 
    x: -3.22638629766e-06
    y: 5.06381013562e-07
    z: 1.03000547824e-06
    w: 0.999999999994
---
header: 
  seq: 141
  stamp: 
    secs: 720
    nsecs: 671000000
  frame_id: "world"
pose: 
  position: 
    x: 2.61323702944e-06
    y: 2.1142739115e-06
    z: -1.49567058543e-05
  orientation: 
    x: -3.22638629766e-06
    y: 5.06381013562e-07
    z: 1.03000547824e-06
    w: 0.999999999994
---
header: 
  seq: 142
  stamp: 
    secs: 720
    nsecs: 880000000
  frame_id: "world"
pose: 
  position: 
    x: 2.61323702944e-06
    y: 2.1142739115e-06
    z: -1.49567058543e-05
  orientation: 
    x: -3.22638629766e-06
    y: 5.06381013562e-07
    z: 1.03000547824e-06
    w: 0.999999999994
---
header: 
  seq: 143
  stamp: 
    secs: 721
    nsecs:  79000000
  frame_id: "world"
pose: 
  position: 
    x: 2.61323702944e-06
    y: 2.1142739115e-06
    z: -1.49567058543e-05
  orientation: 
    x: -3.22638629766e-06
    y: 5.06381013562e-07
    z: 1.03000547824e-06
    w: 0.999999999994
---
header: 
  seq: 144
  stamp: 
    secs: 721
    nsecs: 365000000
  frame_id: "world"
pose: 
  position: 
    x: -4.09442463933e-06
    y: 4.92054232382e-06
    z: -1.03117890831e-05
  orientation: 
    x: 5.668682661e-07
    y: 3.8078590023e-06
    z: -1.56829844399e-06
    w: 0.999999999991
---
header: 
  seq: 145
  stamp: 
    secs: 721
    nsecs: 669000000
  frame_id: "world"
pose: 
  position: 
    x: -4.09442463933e-06
    y: 4.92054232382e-06
    z: -1.03117890831e-05
  orientation: 
    x: 5.668682661e-07
    y: 3.8078590023e-06
    z: -1.56829844399e-06
    w: 0.999999999991
---
header: 
  seq: 146
  stamp: 
    secs: 721
    nsecs: 983000000
  frame_id: "world"
pose: 
  position: 
    x: -3.46868750967e-06
    y: 4.34267576566e-06
    z: -1.05346807686e-05
  orientation: 
    x: 2.51837917629e-07
    y: 3.5362722883e-06
    z: -1.68354620199e-06
    w: 0.999999999992
---
header: 
  seq: 147
  stamp: 
    secs: 722
    nsecs: 325000000
  frame_id: "world"
pose: 
  position: 
    x: -3.48321032106e-06
    y: 4.35915353592e-06
    z: -1.05268482002e-05
  orientation: 
    x: 2.60303096409e-07
    y: 3.5411480894e-06
    z: -1.68018129897e-06
    w: 0.999999999992
---
header: 
  seq: 148
  stamp: 
    secs: 722
    nsecs: 578000000
  frame_id: "world"
pose: 
  position: 
    x: -3.48321032106e-06
    y: 4.35915353592e-06
    z: -1.05268482002e-05
  orientation: 
    x: 2.60303096409e-07
    y: 3.5411480894e-06
    z: -1.68018129897e-06
    w: 0.999999999992
---
header: 
  seq: 149
  stamp: 
    secs: 722
    nsecs: 787000000
  frame_id: "world"
pose: 
  position: 
    x: -3.466677299e-06
    y: 4.2871365622e-06
    z: -1.05033359432e-05
  orientation: 
    x: 2.26377764532e-07
    y: 3.53524796989e-06
    z: -1.68381188813e-06
    w: 0.999999999992
---
header: 
  seq: 150
  stamp: 
    secs: 723
    nsecs:   2000000
  frame_id: "world"
pose: 
  position: 
    x: -2.56710518443e-05
    y: 1.02573085314e-05
    z: 1.86533943634e-05
  orientation: 
    x: 2.30062087132e-05
    y: 1.23052723168e-05
    z: -3.34011360676e-06
    w: 0.999999999654
---
header: 
  seq: 151
  stamp: 
    secs: 723
    nsecs: 212000000
  frame_id: "world"
pose: 
  position: 
    x: -2.59866992565e-05
    y: 1.07726409624e-05
    z: 1.84775890375e-05
  orientation: 
    x: 2.32964884989e-05
    y: 1.25181468276e-05
    z: -3.34232436098e-06
    w: 0.999999999645
---
header: 
  seq: 152
  stamp: 
    secs: 723
    nsecs: 431000000
  frame_id: "world"
pose: 
  position: 
    x: -2.85315636575e-05
    y: 2.60795604845e-06
    z: 1.73236931005e-05
  orientation: 
    x: 1.87783989481e-05
    y: 1.34119773029e-05
    z: -3.13846976411e-06
    w: 0.999999999729
---
header: 
  seq: 153
  stamp: 
    secs: 723
    nsecs: 793000000
  frame_id: "world"
pose: 
  position: 
    x: -2.49801141763e-05
    y: 6.0281313381e-06
    z: 6.05047807767e-06
  orientation: 
    x: 1.12794969009e-05
    y: 1.29431937219e-05
    z: -4.40221128814e-06
    w: 0.999999999843
---
header: 
  seq: 154
  stamp: 
    secs: 724
    nsecs: 216000000
  frame_id: "world"
pose: 
  position: 
    x: -2.49846416409e-05
    y: 6.03618354944e-06
    z: 6.05487912253e-06
  orientation: 
    x: 1.12780526234e-05
    y: 1.29478385113e-05
    z: -4.38788128962e-06
    w: 0.999999999843
---
header: 
  seq: 155
  stamp: 
    secs: 724
    nsecs: 561000000
  frame_id: "world"
pose: 
  position: 
    x: -2.49602253461e-05
    y: 5.92072819927e-06
    z: 6.01580677539e-06
  orientation: 
    x: 1.12135185173e-05
    y: 1.29417576298e-05
    z: -4.41799829718e-06
    w: 0.999999999844
---
header: 
  seq: 156
  stamp: 
    secs: 724
    nsecs: 857000000
  frame_id: "world"
pose: 
  position: 
    x: -2.90327716357e-06
    y: -1.4312837493e-06
    z: -1.2044113646e-05
  orientation: 
    x: -2.00415388461e-06
    y: 3.09478491543e-06
    z: -2.34880602077e-07
    w: 0.999999999993
---
header: 
  seq: 157
  stamp: 
    secs: 725
    nsecs: 199000000
  frame_id: "world"
pose: 
  position: 
    x: -2.86993918053e-06
    y: -1.38583720855e-06
    z: -1.20426811918e-05
  orientation: 
    x: -1.98287239071e-06
    y: 3.07818663712e-06
    z: -2.24080167753e-07
    w: 0.999999999993
---
header: 
  seq: 158
  stamp: 
    secs: 725
    nsecs: 433000000
  frame_id: "world"
pose: 
  position: 
    x: -2.85865144178e-06
    y: -1.38814505135e-06
    z: -1.20591521409e-05
  orientation: 
    x: -1.98405950867e-06
    y: 3.07069376502e-06
    z: -2.26161802173e-07
    w: 0.999999999993
---
header: 
  seq: 159
  stamp: 
    secs: 725
    nsecs: 680000000
  frame_id: "world"
pose: 
  position: 
    x: -2.85865144178e-06
    y: -1.38814505135e-06
    z: -1.20591521409e-05
  orientation: 
    x: -1.98405950867e-06
    y: 3.07069376502e-06
    z: -2.26161802173e-07
    w: 0.999999999993
---
header: 
  seq: 160
  stamp: 
    secs: 725
    nsecs: 896000000
  frame_id: "world"
pose: 
  position: 
    x: -2.85865144178e-06
    y: -1.38814505135e-06
    z: -1.20591521409e-05
  orientation: 
    x: -1.98405950867e-06
    y: 3.07069376502e-06
    z: -2.26161802173e-07
    w: 0.999999999993
---
header: 
  seq: 161
  stamp: 
    secs: 726
    nsecs: 176000000
  frame_id: "world"
pose: 
  position: 
    x: -2.66828210442e-05
    y: 1.11877216113e-05
    z: 1.79770231625e-05
  orientation: 
    x: 2.33108130404e-05
    y: 1.26761851743e-05
    z: -3.3926216917e-06
    w: 0.999999999642
---
header: 
  seq: 162
  stamp: 
    secs: 726
    nsecs: 491000000
  frame_id: "world"
pose: 
  position: 
    x: -2.85177156911e-05
    y: 2.60968954535e-06
    z: 1.7336476958e-05
  orientation: 
    x: 1.87787190902e-05
    y: 1.34145766388e-05
    z: -3.15366037199e-06
    w: 0.999999999729
---
header: 
  seq: 163
  stamp: 
    secs: 726
    nsecs: 830000000
  frame_id: "world"
pose: 
  position: 
    x: -2.66665865638e-05
    y: 1.10408109322e-05
    z: 1.7972644855e-05
  orientation: 
    x: 2.32462079938e-05
    y: 1.26687918919e-05
    z: -3.38888889807e-06
    w: 0.999999999644
---
header: 
  seq: 164
  stamp: 
    secs: 727
    nsecs: 212000000
  frame_id: "world"
pose: 
  position: 
    x: 2.26843303608e-06
    y: 2.10935195355e-06
    z: -1.50742725964e-05
  orientation: 
    x: -3.24051211462e-06
    y: 6.91918501157e-07
    z: 1.07248513358e-06
    w: 0.999999999994
---
header: 
  seq: 165
  stamp: 
    secs: 727
    nsecs: 492000000
  frame_id: "world"
pose: 
  position: 
    x: 2.26843303608e-06
    y: 2.10935195355e-06
    z: -1.50742725964e-05
  orientation: 
    x: -3.24051211462e-06
    y: 6.91918501157e-07
    z: 1.07248513358e-06
    w: 0.999999999994
---
header: 
  seq: 166
  stamp: 
    secs: 727
    nsecs: 731000000
  frame_id: "world"
pose: 
  position: 
    x: -2.9177979286e-06
    y: -1.462051614e-06
    z: -1.19709602586e-05
  orientation: 
    x: -2.02842329598e-06
    y: 3.08164203486e-06
    z: -2.09264072735e-07
    w: 0.999999999993
---
header: 
  seq: 167
  stamp: 
    secs: 727
    nsecs: 961000000
  frame_id: "world"
pose: 
  position: 
    x: -2.9177979286e-06
    y: -1.462051614e-06
    z: -1.19709602586e-05
  orientation: 
    x: -2.02842329598e-06
    y: 3.08164203486e-06
    z: -2.09264072735e-07
    w: 0.999999999993
---
header: 
  seq: 168
  stamp: 
    secs: 728
    nsecs: 190000000
  frame_id: "world"
pose: 
  position: 
    x: 2.2835870368e-06
    y: 2.13166458707e-06
    z: -1.51366575665e-05
  orientation: 
    x: -3.22881692225e-06
    y: 7.00082182443e-07
    z: 1.06865195448e-06
    w: 0.999999999994
---
header: 
  seq: 169
  stamp: 
    secs: 728
    nsecs: 495000000
  frame_id: "world"
pose: 
  position: 
    x: 2.2835870368e-06
    y: 2.13166458707e-06
    z: -1.51366575665e-05
  orientation: 
    x: -3.22881692225e-06
    y: 7.00082182443e-07
    z: 1.06865195448e-06
    w: 0.999999999994
---
header: 
  seq: 170
  stamp: 
    secs: 728
    nsecs: 897000000
  frame_id: "world"
pose: 
  position: 
    x: 2.2835870368e-06
    y: 2.13166458707e-06
    z: -1.51366575665e-05
  orientation: 
    x: -3.22881692225e-06
    y: 7.00082182443e-07
    z: 1.06865195448e-06
    w: 0.999999999994
---
header: 
  seq: 171
  stamp: 
    secs: 729
    nsecs: 232000000
  frame_id: "world"
pose: 
  position: 
    x: 2.2835870368e-06
    y: 2.13166458707e-06
    z: -1.51366575665e-05
  orientation: 
    x: -3.22881692225e-06
    y: 7.00082182443e-07
    z: 1.06865195448e-06
    w: 0.999999999994
---
header: 
  seq: 172
  stamp: 
    secs: 729
    nsecs: 543000000
  frame_id: "world"
pose: 
  position: 
    x: -2.89277090815e-06
    y: -1.17871218208e-06
    z: -1.21228949865e-05
  orientation: 
    x: -1.89031595709e-06
    y: 3.09379538519e-06
    z: -1.83412936393e-07
    w: 0.999999999993
---
header: 
  seq: 173
  stamp: 
    secs: 729
    nsecs: 796000000
  frame_id: "world"
pose: 
  position: 
    x: -2.89277090815e-06
    y: -1.17871218208e-06
    z: -1.21228949865e-05
  orientation: 
    x: -1.89031595709e-06
    y: 3.09379538519e-06
    z: -1.83412936393e-07
    w: 0.999999999993
---
header: 
  seq: 174
  stamp: 
    secs: 730
    nsecs:  13000000
  frame_id: "world"
pose: 
  position: 
    x: -2.89277090815e-06
    y: -1.17871218208e-06
    z: -1.21228949865e-05
  orientation: 
    x: -1.89031595709e-06
    y: 3.09379538519e-06
    z: -1.83412936393e-07
    w: 0.999999999993
---
header: 
  seq: 175
  stamp: 
    secs: 730
    nsecs: 244000000
  frame_id: "world"
pose: 
  position: 
    x: -2.72186025541e-05
    y: 1.13220348794e-05
    z: 1.80250826816e-05
  orientation: 
    x: 2.34091694353e-05
    y: 1.29320069344e-05
    z: -3.39344387489e-06
    w: 0.999999999637
---
header: 
  seq: 176
  stamp: 
    secs: 730
    nsecs: 482000000
  frame_id: "world"
pose: 
  position: 
    x: 2.16020680455e-06
    y: 2.17318188334e-06
    z: -1.50415953613e-05
  orientation: 
    x: -3.17895342048e-06
    y: 7.6733567766e-07
    z: 1.080868401e-06
    w: 0.999999999994
---
header: 
  seq: 177
  stamp: 
    secs: 730
    nsecs: 816000000
  frame_id: "world"
pose: 
  position: 
    x: 2.16020680455e-06
    y: 2.17318188334e-06
    z: -1.50415953613e-05
  orientation: 
    x: -3.17895342048e-06
    y: 7.6733567766e-07
    z: 1.080868401e-06
    w: 0.999999999994
---
header: 
  seq: 178
  stamp: 
    secs: 731
    nsecs:  85000000
  frame_id: "world"
pose: 
  position: 
    x: -2.82209271063e-06
    y: -1.29758802814e-06
    z: -1.2100074855e-05
  orientation: 
    x: -1.95557799997e-06
    y: 3.05364414997e-06
    z: -1.72961819088e-07
    w: 0.999999999993
---
header: 
  seq: 179
  stamp: 
    secs: 731
    nsecs: 414000000
  frame_id: "world"
pose: 
  position: 
    x: -2.82209271063e-06
    y: -1.29758802814e-06
    z: -1.2100074855e-05
  orientation: 
    x: -1.95557799997e-06
    y: 3.05364414997e-06
    z: -1.72961819088e-07
    w: 0.999999999993
---
header: 
  seq: 180
  stamp: 
    secs: 731
    nsecs: 782000000
  frame_id: "world"
pose: 
  position: 
    x: -2.82209271063e-06
    y: -1.29758802814e-06
    z: -1.2100074855e-05
  orientation: 
    x: -1.95557799997e-06
    y: 3.05364414997e-06
    z: -1.72961819088e-07
    w: 0.999999999993
---
header: 
  seq: 181
  stamp: 
    secs: 732
    nsecs:  61000000
  frame_id: "world"
pose: 
  position: 
    x: -2.82209271063e-06
    y: -1.29758802814e-06
    z: -1.2100074855e-05
  orientation: 
    x: -1.95557799997e-06
    y: 3.05364414997e-06
    z: -1.72961819088e-07
    w: 0.999999999993
---
header: 
  seq: 182
  stamp: 
    secs: 732
    nsecs: 294000000
  frame_id: "world"
pose: 
  position: 
    x: 2.15067780118e-06
    y: 2.21641312237e-06
    z: -1.50747237058e-05
  orientation: 
    x: -3.17345711663e-06
    y: 7.66442781237e-07
    z: 1.07888035927e-06
    w: 0.999999999994
---
header: 
  seq: 183
  stamp: 
    secs: 732
    nsecs: 526000000
  frame_id: "world"
pose: 
  position: 
    x: 2.15067780118e-06
    y: 2.21641312237e-06
    z: -1.50747237058e-05
  orientation: 
    x: -3.17345711663e-06
    y: 7.66442781237e-07
    z: 1.07888035927e-06
    w: 0.999999999994
---
header: 
  seq: 184
  stamp: 
    secs: 732
    nsecs: 752000000
  frame_id: "world"
pose: 
  position: 
    x: -2.7676944228e-05
    y: 1.61481129908e-05
    z: 1.9579396394e-05
  orientation: 
    x: 2.52128338511e-05
    y: 1.32313434678e-05
    z: -4.74493344684e-06
    w: 0.999999999583
---
header: 
  seq: 185
  stamp: 
    secs: 733
    nsecs:  40000000
  frame_id: "world"
pose: 
  position: 
    x: -2.78296229226e-05
    y: 1.61936677614e-05
    z: 1.93002488231e-05
  orientation: 
    x: 2.52307945524e-05
    y: 1.33683733964e-05
    z: -4.78650963286e-06
    w: 0.999999999581
---
header: 
  seq: 186
  stamp: 
    secs: 733
    nsecs: 286000000
  frame_id: "world"
pose: 
  position: 
    x: -2.78146653727e-05
    y: 1.6209009118e-05
    z: 1.93117084564e-05
  orientation: 
    x: 2.52387871918e-05
    y: 1.3363125612e-05
    z: -4.78802576053e-06
    w: 0.999999999581
---
header: 
  seq: 187
  stamp: 
    secs: 733
    nsecs: 607000000
  frame_id: "world"
pose: 
  position: 
    x: -2.98775048577e-05
    y: 8.40696429805e-06
    z: 1.87562927749e-05
  orientation: 
    x: 2.11353635607e-05
    y: 1.42085846117e-05
    z: -4.545301634e-06
    w: 0.999999999665
---
header: 
  seq: 188
  stamp: 
    secs: 733
    nsecs: 918000000
  frame_id: "world"
pose: 
  position: 
    x: -2.46297822741e-05
    y: 5.3841222325e-06
    z: 6.44292458674e-06
  orientation: 
    x: 1.09127940943e-05
    y: 1.27340617818e-05
    z: -4.35769970798e-06
    w: 0.99999999985
---
header: 
  seq: 189
  stamp: 
    secs: 734
    nsecs: 269000000
  frame_id: "world"
pose: 
  position: 
    x: -2.50232296821e-05
    y: 5.3348135225e-06
    z: 6.33475474388e-06
  orientation: 
    x: 1.08924723447e-05
    y: 1.29093459671e-05
    z: -4.36163554629e-06
    w: 0.999999999848
---
header: 
  seq: 190
  stamp: 
    secs: 734
    nsecs: 503000000
  frame_id: "world"
pose: 
  position: 
    x: -2.4665687306e-05
    y: 5.44877912034e-06
    z: 6.4503728936e-06
  orientation: 
    x: 1.09396714817e-05
    y: 1.27556695569e-05
    z: -4.32418209974e-06
    w: 0.999999999849
---
header: 
  seq: 191
  stamp: 
    secs: 734
    nsecs: 731000000
  frame_id: "world"
pose: 
  position: 
    x: -2.46082236117e-05
    y: 5.42556381333e-06
    z: 6.39874906483e-06
  orientation: 
    x: 1.09298407535e-05
    y: 1.27291859807e-05
    z: -4.33951754465e-06
    w: 0.99999999985
---
header: 
  seq: 192
  stamp: 
    secs: 734
    nsecs: 963000000
  frame_id: "world"
pose: 
  position: 
    x: -2.92108106805e-05
    y: 7.54444999984e-06
    z: 1.85253848031e-05
  orientation: 
    x: 2.0619379932e-05
    y: 1.39087633171e-05
    z: -4.52618041746e-06
    w: 0.99999999968
---
header: 
  seq: 193
  stamp: 
    secs: 735
    nsecs: 198000000
  frame_id: "world"
pose: 
  position: 
    x: 1.98057045964e-06
    y: 2.38271491071e-06
    z: -1.51006797751e-05
  orientation: 
    x: -3.10064706353e-06
    y: 8.35910896053e-07
    z: 1.15762350105e-06
    w: 0.999999999994
---
header: 
  seq: 194
  stamp: 
    secs: 735
    nsecs: 584000000
  frame_id: "world"
pose: 
  position: 
    x: -2.79102787317e-05
    y: 1.60310246429e-05
    z: 1.96147666429e-05
  orientation: 
    x: 2.51888923125e-05
    y: 1.33479797968e-05
    z: -4.80560265513e-06
    w: 0.999999999582
---
header: 
  seq: 195
  stamp: 
    secs: 735
    nsecs: 937000000
  frame_id: "world"
pose: 
  position: 
    x: -2.46460022026e-05
    y: 5.40247356184e-06
    z: 6.36462118564e-06
  orientation: 
    x: 1.09132988639e-05
    y: 1.27361427057e-05
    z: -4.33581817495e-06
    w: 0.99999999985
---
header: 
  seq: 196
  stamp: 
    secs: 736
    nsecs: 201000000
  frame_id: "world"
pose: 
  position: 
    x: -2.46050713031e-05
    y: 5.38731865163e-06
    z: 6.05837385592e-06
  orientation: 
    x: 1.0886406015e-05
    y: 1.2757973307e-05
    z: -4.32881688474e-06
    w: 0.99999999985
---
header: 
  seq: 197
  stamp: 
    secs: 736
    nsecs: 567000000
  frame_id: "world"
pose: 
  position: 
    x: -2.45908140641e-05
    y: 5.38318636245e-06
    z: 6.05806508247e-06
  orientation: 
    x: 1.0882381501e-05
    y: 1.27464909364e-05
    z: -4.32869410296e-06
    w: 0.99999999985
---
header: 
  seq: 198
  stamp: 
    secs: 736
    nsecs: 810000000
  frame_id: "world"
pose: 
  position: 
    x: -2.45823048317e-05
    y: 5.39500024388e-06
    z: 6.07612901149e-06
  orientation: 
    x: 1.08907133819e-05
    y: 1.27479243e-05
    z: -4.32964588916e-06
    w: 0.99999999985
---
header: 
  seq: 199
  stamp: 
    secs: 737
    nsecs:  33000000
  frame_id: "world"
pose: 
  position: 
    x: -2.93613811664e-05
    y: 7.67279288993e-06
    z: 1.85119060916e-05
  orientation: 
    x: 2.06821114195e-05
    y: 1.3976838086e-05
    z: -4.46684543787e-06
    w: 0.999999999678
---
header: 
  seq: 200
  stamp: 
    secs: 737
    nsecs: 265000000
  frame_id: "world"
pose: 
  position: 
    x: -3.12097495225e-06
    y: -1.50183143433e-06
    z: -1.28920373754e-05
  orientation: 
    x: -2.09829681806e-06
    y: 3.27781594931e-06
    z: -5.60264581391e-08
    w: 0.999999999992
---
header: 
  seq: 201
  stamp: 
    secs: 737
    nsecs: 509000000
  frame_id: "world"
pose: 
  position: 
    x: -3.12097495225e-06
    y: -1.50183143433e-06
    z: -1.28920373754e-05
  orientation: 
    x: -2.09829681806e-06
    y: 3.27781594931e-06
    z: -5.60264581391e-08
    w: 0.999999999992
---
header: 
  seq: 202
  stamp: 
    secs: 737
    nsecs: 825000000
  frame_id: "world"
pose: 
  position: 
    x: -3.12097495225e-06
    y: -1.50183143433e-06
    z: -1.28920373754e-05
  orientation: 
    x: -2.09829681806e-06
    y: 3.27781594931e-06
    z: -5.60264581391e-08
    w: 0.999999999992
---
header: 
  seq: 203
  stamp: 
    secs: 738
    nsecs: 170000000
  frame_id: "world"
pose: 
  position: 
    x: -3.12097495225e-06
    y: -1.50183143433e-06
    z: -1.28920373754e-05
  orientation: 
    x: -2.09829681806e-06
    y: 3.27781594931e-06
    z: -5.60264581391e-08
    w: 0.999999999992
---
header: 
  seq: 204
  stamp: 
    secs: 738
    nsecs: 443000000
  frame_id: "world"
pose: 
  position: 
    x: -3.12097495225e-06
    y: -1.50183143433e-06
    z: -1.28920373754e-05
  orientation: 
    x: -2.09829681806e-06
    y: 3.27781594931e-06
    z: -5.60264581391e-08
    w: 0.999999999992
---
header: 
  seq: 205
  stamp: 
    secs: 738
    nsecs: 732000000
  frame_id: "world"
pose: 
  position: 
    x: 1.97531016966e-06
    y: 1.88961041658e-06
    z: -1.51940521391e-05
  orientation: 
    x: -3.32286026603e-06
    y: 8.54161044112e-07
    z: 1.12029511001e-06
    w: 0.999999999993
---
header: 
  seq: 206
  stamp: 
    secs: 738
    nsecs: 980000000
  frame_id: "world"
pose: 
  position: 
    x: -2.80531330645e-05
    y: 1.63804015756e-05
    z: 1.92893039639e-05
  orientation: 
    x: 2.53445450546e-05
    y: 1.34881274732e-05
    z: -4.82906488992e-06
    w: 0.999999999576
---
header: 
  seq: 207
  stamp: 
    secs: 739
    nsecs: 207000000
  frame_id: "world"
pose: 
  position: 
    x: -2.47603184107e-05
    y: 5.71596683585e-06
    z: 6.09009339314e-06
  orientation: 
    x: 1.10360051605e-05
    y: 1.28228239172e-05
    z: -4.31841135585e-06
    w: 0.999999999848
---
header: 
  seq: 208
  stamp: 
    secs: 739
    nsecs: 441000000
  frame_id: "world"
pose: 
  position: 
    x: -2.47919670073e-05
    y: 5.71515238335e-06
    z: 6.09119388173e-06
  orientation: 
    x: 1.10360069795e-05
    y: 1.28373540045e-05
    z: -4.3167369761e-06
    w: 0.999999999847
---
header: 
  seq: 209
  stamp: 
    secs: 739
    nsecs: 712000000
  frame_id: "world"
pose: 
  position: 
    x: -2.81542488665e-05
    y: 1.63898057508e-05
    z: 1.933803469e-05
  orientation: 
    x: 2.53488396885e-05
    y: 1.35333029845e-05
    z: -4.82733957847e-06
    w: 0.999999999575
---
header: 
  seq: 210
  stamp: 
    secs: 740
    nsecs:  77000000
  frame_id: "world"
pose: 
  position: 
    x: -2.37321401073e-05
    y: 8.12198322819e-07
    z: 5.23996686752e-06
  orientation: 
    x: 9.18810201146e-06
    y: 1.21252687663e-05
    z: -2.83523900146e-06
    w: 0.99999999988
---
header: 
  seq: 211
  stamp: 
    secs: 740
    nsecs: 462000000
  frame_id: "world"
pose: 
  position: 
    x: -2.82364962914e-05
    y: 1.61288335221e-05
    z: 1.92860716197e-05
  orientation: 
    x: 2.52230165536e-05
    y: 1.35669233657e-05
    z: -4.78923220524e-06
    w: 0.999999999578
---
header: 
  seq: 212
  stamp: 
    secs: 740
    nsecs: 755000000
  frame_id: "world"
pose: 
  position: 
    x: -2.3737164156e-05
    y: 7.88005650065e-07
    z: 5.23976677869e-06
  orientation: 
    x: 9.17829493009e-06
    y: 1.21274151737e-05
    z: -2.84522957338e-06
    w: 0.99999999988
---
header: 
  seq: 213
  stamp: 
    secs: 741
    nsecs: 105000000
  frame_id: "world"
pose: 
  position: 
    x: -3.01196268992e-06
    y: -1.3067292457e-06
    z: -1.30459393404e-05
  orientation: 
    x: -2.0044908524e-06
    y: 3.30166085402e-06
    z: -1.08623297023e-07
    w: 0.999999999993
---
header: 
  seq: 214
  stamp: 
    secs: 741
    nsecs: 380000000
  frame_id: "world"
pose: 
  position: 
    x: -3.01196268992e-06
    y: -1.3067292457e-06
    z: -1.30459393404e-05
  orientation: 
    x: -2.0044908524e-06
    y: 3.30166085402e-06
    z: -1.08623297023e-07
    w: 0.999999999993
---
header: 
  seq: 215
  stamp: 
    secs: 741
    nsecs: 721000000
  frame_id: "world"
pose: 
  position: 
    x: -3.01196268992e-06
    y: -1.3067292457e-06
    z: -1.30459393404e-05
  orientation: 
    x: -2.0044908524e-06
    y: 3.30166085402e-06
    z: -1.08623297023e-07
    w: 0.999999999993
---
header: 
  seq: 216
  stamp: 
    secs: 742
    nsecs:  67000000
  frame_id: "world"
pose: 
  position: 
    x: -3.01196268992e-06
    y: -1.3067292457e-06
    z: -1.30459393404e-05
  orientation: 
    x: -2.0044908524e-06
    y: 3.30166085402e-06
    z: -1.08623297023e-07
    w: 0.999999999993
---
header: 
  seq: 217
  stamp: 
    secs: 742
    nsecs: 500000000
  frame_id: "world"
pose: 
  position: 
    x: 1.95073857867e-06
    y: 2.01053262572e-06
    z: -1.56155711011e-05
  orientation: 
    x: -3.29523118123e-06
    y: 9.22436527156e-07
    z: 1.18411708171e-06
    w: 0.999999999993
---
header: 
  seq: 218
  stamp: 
    secs: 742
    nsecs: 841000000
  frame_id: "world"
pose: 
  position: 
    x: 1.95073857867e-06
    y: 2.01053262572e-06
    z: -1.56155711011e-05
  orientation: 
    x: -3.29523118123e-06
    y: 9.22436527156e-07
    z: 1.18411708171e-06
    w: 0.999999999993
---
header: 
  seq: 219
  stamp: 
    secs: 743
    nsecs: 218000000
  frame_id: "world"
pose: 
  position: 
    x: 1.95073857867e-06
    y: 2.01053262572e-06
    z: -1.56155711011e-05
  orientation: 
    x: -3.29523118123e-06
    y: 9.22436527156e-07
    z: 1.18411708171e-06
    w: 0.999999999993
---
header: 
  seq: 220
  stamp: 
    secs: 743
    nsecs: 453000000
  frame_id: "world"
pose: 
  position: 
    x: 1.95073857867e-06
    y: 2.01053262572e-06
    z: -1.56155711011e-05
  orientation: 
    x: -3.29523118123e-06
    y: 9.22436527156e-07
    z: 1.18411708171e-06
    w: 0.999999999993
---
header: 
  seq: 221
  stamp: 
    secs: 743
    nsecs: 681000000
  frame_id: "world"
pose: 
  position: 
    x: 1.95073857867e-06
    y: 2.01053262572e-06
    z: -1.56155711011e-05
  orientation: 
    x: -3.29523118123e-06
    y: 9.22436527156e-07
    z: 1.18411708171e-06
    w: 0.999999999993
---
header: 
  seq: 222
  stamp: 
    secs: 743
    nsecs: 915000000
  frame_id: "world"
pose: 
  position: 
    x: 1.95073857867e-06
    y: 2.01053262572e-06
    z: -1.56155711011e-05
  orientation: 
    x: -3.29523118123e-06
    y: 9.22436527156e-07
    z: 1.18411708171e-06
    w: 0.999999999993
---
header: 
  seq: 223
  stamp: 
    secs: 744
    nsecs: 148000000
  frame_id: "world"
pose: 
  position: 
    x: 1.95073857867e-06
    y: 2.01053262572e-06
    z: -1.56155711011e-05
  orientation: 
    x: -3.29523118123e-06
    y: 9.22436527156e-07
    z: 1.18411708171e-06
    w: 0.999999999993
---
header: 
  seq: 224
  stamp: 
    secs: 744
    nsecs: 481000000
  frame_id: "world"
pose: 
  position: 
    x: 1.95073857867e-06
    y: 2.01053262572e-06
    z: -1.56155711011e-05
  orientation: 
    x: -3.29523118123e-06
    y: 9.22436527156e-07
    z: 1.18411708171e-06
    w: 0.999999999993
---
header: 
  seq: 225
  stamp: 
    secs: 744
    nsecs: 835000000
  frame_id: "world"
pose: 
  position: 
    x: 1.95073857867e-06
    y: 2.01053262572e-06
    z: -1.56155711011e-05
  orientation: 
    x: -3.29523118123e-06
    y: 9.22436527156e-07
    z: 1.18411708171e-06
    w: 0.999999999993
---
header: 
  seq: 226
  stamp: 
    secs: 745
    nsecs: 244000000
  frame_id: "world"
pose: 
  position: 
    x: -2.82223663817e-05
    y: 1.61669759109e-05
    z: 1.93299310922e-05
  orientation: 
    x: 2.52216468546e-05
    y: 1.3552194099e-05
    z: -4.76649711144e-06
    w: 0.999999999579
---
header: 
  seq: 227
  stamp: 
    secs: 745
    nsecs: 550000000
  frame_id: "world"
pose: 
  position: 
    x: -2.82663677353e-05
    y: 1.62233100127e-05
    z: 1.93452870008e-05
  orientation: 
    x: 2.52495938078e-05
    y: 1.35722430002e-05
    z: -4.76522063562e-06
    w: 0.999999999578
---
header: 
  seq: 228
  stamp: 
    secs: 745
    nsecs: 776000000
  frame_id: "world"
pose: 
  position: 
    x: 1.73375224222e-06
    y: 1.8387571572e-06
    z: -1.56254700414e-05
  orientation: 
    x: -3.37788696922e-06
    y: 1.04049456694e-06
    z: 1.13288365355e-06
    w: 0.999999999993
---
header: 
  seq: 229
  stamp: 
    secs: 746
    nsecs:  13000000
  frame_id: "world"
pose: 
  position: 
    x: -3.04693230646e-06
    y: -1.27341388634e-06
    z: -1.30435882966e-05
  orientation: 
    x: -2.0021734599e-06
    y: 3.32467243422e-06
    z: -1.64088476139e-07
    w: 0.999999999992
---
header: 
  seq: 230
  stamp: 
    secs: 746
    nsecs: 255000000
  frame_id: "world"
pose: 
  position: 
    x: -3.04693230646e-06
    y: -1.27341388634e-06
    z: -1.30435882966e-05
  orientation: 
    x: -2.0021734599e-06
    y: 3.32467243422e-06
    z: -1.64088476139e-07
    w: 0.999999999992
---
header: 
  seq: 231
  stamp: 
    secs: 746
    nsecs: 523000000
  frame_id: "world"
pose: 
  position: 
    x: -3.12901283905e-06
    y: -1.44821228787e-06
    z: -1.31482738652e-05
  orientation: 
    x: -2.10215080186e-06
    y: 3.38167524203e-06
    z: -2.17227807296e-07
    w: 0.999999999992
---
header: 
  seq: 232
  stamp: 
    secs: 746
    nsecs: 863000000
  frame_id: "world"
pose: 
  position: 
    x: -3.12901283905e-06
    y: -1.44821228787e-06
    z: -1.31482738652e-05
  orientation: 
    x: -2.10215080186e-06
    y: 3.38167524203e-06
    z: -2.17227807296e-07
    w: 0.999999999992
---
header: 
  seq: 233
  stamp: 
    secs: 747
    nsecs: 269000000
  frame_id: "world"
pose: 
  position: 
    x: -3.12901283905e-06
    y: -1.44821228787e-06
    z: -1.31482738652e-05
  orientation: 
    x: -2.10215080186e-06
    y: 3.38167524203e-06
    z: -2.17227807296e-07
    w: 0.999999999992
---
header: 
  seq: 234
  stamp: 
    secs: 747
    nsecs: 600000000
  frame_id: "world"
pose: 
  position: 
    x: 3.96530253965e-07
    y: 1.31043157126e-06
    z: -1.46355123434e-05
  orientation: 
    x: -3.93494065062e-06
    y: 1.71847307227e-06
    z: 4.08904469392e-07
    w: 0.999999999991
---
header: 
  seq: 235
  stamp: 
    secs: 747
    nsecs: 891000000
  frame_id: "world"
pose: 
  position: 
    x: -3.15738020618e-06
    y: -1.49990830778e-06
    z: -1.31172955662e-05
  orientation: 
    x: -2.13034581973e-06
    y: 3.39502503263e-06
    z: -2.06430001979e-07
    w: 0.999999999992
---
header: 
  seq: 236
  stamp: 
    secs: 748
    nsecs: 119000000
  frame_id: "world"
pose: 
  position: 
    x: -3.15615557156e-06
    y: -1.49510799474e-06
    z: -1.3148736798e-05
  orientation: 
    x: -2.12943859877e-06
    y: 3.38894051308e-06
    z: -2.07468801248e-07
    w: 0.999999999992
---
header: 
  seq: 237
  stamp: 
    secs: 748
    nsecs: 355000000
  frame_id: "world"
pose: 
  position: 
    x: -3.15615557156e-06
    y: -1.49510799474e-06
    z: -1.3148736798e-05
  orientation: 
    x: -2.12943859877e-06
    y: 3.38894051308e-06
    z: -2.07468801248e-07
    w: 0.999999999992
---
header: 
  seq: 238
  stamp: 
    secs: 748
    nsecs: 586000000
  frame_id: "world"
pose: 
  position: 
    x: -3.15615557156e-06
    y: -1.49510799474e-06
    z: -1.3148736798e-05
  orientation: 
    x: -2.12943859877e-06
    y: 3.38894051308e-06
    z: -2.07468801248e-07
    w: 0.999999999992
---
header: 
  seq: 239
  stamp: 
    secs: 748
    nsecs: 835000000
  frame_id: "world"
pose: 
  position: 
    x: -3.15615557156e-06
    y: -1.49510799474e-06
    z: -1.3148736798e-05
  orientation: 
    x: -2.12943859877e-06
    y: 3.38894051308e-06
    z: -2.07468801248e-07
    w: 0.999999999992
---
header: 
  seq: 240
  stamp: 
    secs: 749
    nsecs: 237000000
  frame_id: "world"
pose: 
  position: 
    x: -3.15615557156e-06
    y: -1.49510799474e-06
    z: -1.3148736798e-05
  orientation: 
    x: -2.12943859877e-06
    y: 3.38894051308e-06
    z: -2.07468801248e-07
    w: 0.999999999992
---
header: 
  seq: 241
  stamp: 
    secs: 749
    nsecs: 625000000
  frame_id: "world"
pose: 
  position: 
    x: -3.42774205819e-06
    y: -1.634183036e-06
    z: -1.31150591187e-05
  orientation: 
    x: -2.18810600925e-06
    y: 3.50735717799e-06
    z: -2.00319348663e-07
    w: 0.999999999991
---
header: 
  seq: 242
  stamp: 
    secs: 750
    nsecs:  84000000
  frame_id: "world"
pose: 
  position: 
    x: 2.2328767102e-07
    y: 1.18861021292e-06
    z: -1.45172989505e-05
  orientation: 
    x: -3.97068924936e-06
    y: 1.79558298894e-06
    z: 3.49231669358e-07
    w: 0.99999999999
---
header: 
  seq: 243
  stamp: 
    secs: 750
    nsecs: 310000000
  frame_id: "world"
pose: 
  position: 
    x: 2.2328767102e-07
    y: 1.18861021292e-06
    z: -1.45172989505e-05
  orientation: 
    x: -3.97068924936e-06
    y: 1.79558298894e-06
    z: 3.49231669358e-07
    w: 0.99999999999
---
header: 
  seq: 244
  stamp: 
    secs: 750
    nsecs: 546000000
  frame_id: "world"
pose: 
  position: 
    x: 2.35172109342e-07
    y: 1.20296010664e-06
    z: -1.45376634464e-05
  orientation: 
    x: -3.96482892025e-06
    y: 1.78573429819e-06
    z: 3.54940880239e-07
    w: 0.99999999999
---
header: 
  seq: 245
  stamp: 
    secs: 750
    nsecs: 774000000
  frame_id: "world"
pose: 
  position: 
    x: 2.32971444802e-07
    y: 1.18874629607e-06
    z: -1.45413487189e-05
  orientation: 
    x: -3.97137046089e-06
    y: 1.79065114024e-06
    z: 3.53258172933e-07
    w: 0.99999999999
---
header: 
  seq: 246
  stamp: 
    secs: 751
    nsecs:  86000000
  frame_id: "world"
pose: 
  position: 
    x: 1.94884520965e-07
    y: 1.17800232147e-06
    z: -1.45456915561e-05
  orientation: 
    x: -3.97712847185e-06
    y: 1.80624169841e-06
    z: 3.55573263274e-07
    w: 0.99999999999
---
header: 
  seq: 247
  stamp: 
    secs: 751
    nsecs: 535000000
  frame_id: "world"
pose: 
  position: 
    x: 1.94884520965e-07
    y: 1.17800232147e-06
    z: -1.45456915561e-05
  orientation: 
    x: -3.97712847185e-06
    y: 1.80624169841e-06
    z: 3.55573263274e-07
    w: 0.99999999999
---
header: 
  seq: 248
  stamp: 
    secs: 751
    nsecs: 895000000
  frame_id: "world"
pose: 
  position: 
    x: 1.94884520965e-07
    y: 1.17800232147e-06
    z: -1.45456915561e-05
  orientation: 
    x: -3.97712847185e-06
    y: 1.80624169841e-06
    z: 3.55573263274e-07
    w: 0.99999999999
---
header: 
  seq: 249
  stamp: 
    secs: 752
    nsecs: 347000000
  frame_id: "world"
pose: 
  position: 
    x: 1.94884520965e-07
    y: 1.17800232147e-06
    z: -1.45456915561e-05
  orientation: 
    x: -3.97712847185e-06
    y: 1.80624169841e-06
    z: 3.55573263274e-07
    w: 0.99999999999
---
header: 
  seq: 250
  stamp: 
    secs: 752
    nsecs: 687000000
  frame_id: "world"
pose: 
  position: 
    x: 1.94884520965e-07
    y: 1.17800232147e-06
    z: -1.45456915561e-05
  orientation: 
    x: -3.97712847185e-06
    y: 1.80624169841e-06
    z: 3.55573263274e-07
    w: 0.99999999999
---
header: 
  seq: 251
  stamp: 
    secs: 752
    nsecs: 934000000
  frame_id: "world"
pose: 
  position: 
    x: 2.28863328289e-07
    y: 9.89364252746e-07
    z: -1.46023903653e-05
  orientation: 
    x: -4.08461482944e-06
    y: 1.81154632626e-06
    z: 3.73524812854e-07
    w: 0.99999999999
---
header: 
  seq: 252
  stamp: 
    secs: 753
    nsecs: 145000000
  frame_id: "world"
pose: 
  position: 
    x: -0.000721357297152
    y: -0.00234154588543
    z: -0.000268228643108
  orientation: 
    x: 0.000825641359029
    y: 0.000422663449137
    z: -0.000996256680587
    w: 0.999999073572
---
header: 
  seq: 253
  stamp: 
    secs: 753
    nsecs: 350000000
  frame_id: "world"
pose: 
  position: 
    x: -0.00570724671707
    y: 0.00162112421822
    z: 0.00242871628143
  orientation: 
    x: 0.00714024342008
    y: 0.00296114920395
    z: -0.00536849209597
    w: 0.999955712925
---
header: 
  seq: 254
  stamp: 
    secs: 753
    nsecs: 624000000
  frame_id: "world"
pose: 
  position: 
    x: -0.0106855491176
    y: -0.0107940845191
    z: 0.00135902990587
  orientation: 
    x: 0.0110198655874
    y: 0.00545224993512
    z: -0.0129432692211
    w: 0.99984064096
---
header: 
  seq: 255
  stamp: 
    secs: 753
    nsecs: 989000000
  frame_id: "world"
pose: 
  position: 
    x: -0.0145456539467
    y: -0.0091230655089
    z: -0.000408922467614
  orientation: 
    x: 0.0271148528881
    y: 0.00781979719843
    z: -0.0219877250975
    w: 0.99935988286
---
header: 
  seq: 256
  stamp: 
    secs: 754
    nsecs: 511000000
  frame_id: "world"
pose: 
  position: 
    x: -0.014677898027
    y: -0.0159829370677
    z: -0.00112177222036
  orientation: 
    x: 0.0348082770274
    y: 0.00780802894901
    z: -0.0304856123464
    w: 0.998898416244
---
header: 
  seq: 257
  stamp: 
    secs: 754
    nsecs: 842000000
  frame_id: "world"
pose: 
  position: 
    x: -0.0102268541232
    y: -0.0173092894256
    z: -0.00142533238977
  orientation: 
    x: 0.0365000027198
    y: 0.00585577443168
    z: -0.0317157875396
    w: 0.998813079874
---
header: 
  seq: 258
  stamp: 
    secs: 755
    nsecs:  49000000
  frame_id: "world"
pose: 
  position: 
    x: -0.00987766776234
    y: -0.0181531012058
    z: -0.00152313860599
  orientation: 
    x: 0.0374108599485
    y: 0.0056548379793
    z: -0.0333766875064
    w: 0.998726412536
---
header: 
  seq: 259
  stamp: 
    secs: 755
    nsecs: 247000000
  frame_id: "world"
pose: 
  position: 
    x: -0.00538740633056
    y: -0.0494915731251
    z: -0.00734189618379
  orientation: 
    x: 0.0218656346806
    y: 0.00341942232095
    z: -0.0245549252965
    w: 0.999453479265
---
header: 
  seq: 260
  stamp: 
    secs: 755
    nsecs: 461000000
  frame_id: "world"
pose: 
  position: 
    x: -0.00550697790459
    y: -0.0606852918863
    z: -0.00753971654922
  orientation: 
    x: 0.0166500278993
    y: 0.00343766981819
    z: -0.0268927970079
    w: 0.999493740084
---
header: 
  seq: 261
  stamp: 
    secs: 755
    nsecs: 671000000
  frame_id: "world"
pose: 
  position: 
    x: -0.00528722768649
    y: -0.0724589005113
    z: -0.0083460425958
  orientation: 
    x: 0.0108546367612
    y: 0.00318029671546
    z: -0.0259667138975
    w: 0.999598815697
---
header: 
  seq: 262
  stamp: 
    secs: 756
    nsecs:  21000000
  frame_id: "world"
pose: 
  position: 
    x: -0.00160161615349
    y: -0.0560452640057
    z: -0.00805011671036
  orientation: 
    x: 0.0190962796485
    y: 0.00153876827121
    z: -0.0276470587675
    w: 0.999434142121
---
header: 
  seq: 263
  stamp: 
    secs: 756
    nsecs: 427000000
  frame_id: "world"
pose: 
  position: 
    x: -0.00131850678008
    y: -0.0624297223985
    z: -0.0083028152585
  orientation: 
    x: 0.0164263701266
    y: 0.00141085801329
    z: -0.0295327524854
    w: 0.999427836502
---
header: 
  seq: 264
  stamp: 
    secs: 756
    nsecs: 853000000
  frame_id: "world"
pose: 
  position: 
    x: -0.00105231208727
    y: -0.066922083497
    z: -0.00856505334377
  orientation: 
    x: 0.0142571812244
    y: 0.00130922217309
    z: -0.0311675644515
    w: 0.999411627733
---
header: 
  seq: 265
  stamp: 
    secs: 757
    nsecs: 238000000
  frame_id: "world"
pose: 
  position: 
    x: -0.000396792660467
    y: -0.0646233856678
    z: -0.00847395975143
  orientation: 
    x: 0.0160409709131
    y: 0.00127617637593
    z: -0.0355467298974
    w: 0.999238454334
---
header: 
  seq: 266
  stamp: 
    secs: 757
    nsecs: 690000000
  frame_id: "world"
pose: 
  position: 
    x: 1.91836134036e-05
    y: -0.0623899623752
    z: -0.00864282995462
  orientation: 
    x: 0.0169722642191
    y: 0.00106594082549
    z: -0.0339973828568
    w: 0.99927723079
---
header: 
  seq: 267
  stamp: 
    secs: 758
    nsecs:  28000000
  frame_id: "world"
pose: 
  position: 
    x: 0.000584974477533
    y: -0.0600003562868
    z: -0.00878429692239
  orientation: 
    x: 0.0182043273106
    y: 0.000894745910435
    z: -0.0339943499061
    w: 0.999255816131
---
header: 
  seq: 268
  stamp: 
    secs: 758
    nsecs: 239000000
  frame_id: "world"
pose: 
  position: 
    x: 0.000985738704912
    y: -0.0579005666077
    z: -0.00891555380076
  orientation: 
    x: 0.0190084493538
    y: 0.000721831366033
    z: -0.0325928129474
    w: 0.999287679478
---
header: 
  seq: 269
  stamp: 
    secs: 758
    nsecs: 449000000
  frame_id: "world"
pose: 
  position: 
    x: 0.00231639738195
    y: -0.0563741363585
    z: -0.00803096778691
  orientation: 
    x: 0.022083142343
    y: 0.00131397377473
    z: -0.0420040331066
    w: 0.998872499121
---
header: 
  seq: 270
  stamp: 
    secs: 758
    nsecs: 742000000
  frame_id: "world"
pose: 
  position: 
    x: 0.00590639840811
    y: -0.0407933034003
    z: -0.00620668753982
  orientation: 
    x: 0.0230113464407
    y: 0.000587004099077
    z: -0.0505138952509
    w: 0.998458051071
---
header: 
  seq: 271
  stamp: 
    secs: 759
    nsecs:  50000000
  frame_id: "world"
pose: 
  position: 
    x: 0.00303030922078
    y: -0.0429660193622
    z: -0.00359291606583
  orientation: 
    x: 0.0239270946172
    y: -0.000322554961713
    z: -0.0336194525523
    w: 0.999148198473
---
header: 
  seq: 272
  stamp: 
    secs: 759
    nsecs: 362000000
  frame_id: "world"
pose: 
  position: 
    x: -8.11184418126e-06
    y: -0.0463707000017
    z: 0.000818009488285
  orientation: 
    x: 0.0272730879869
    y: -0.000577361133356
    z: -0.0282676771409
    w: 0.999228093958
---
header: 
  seq: 273
  stamp: 
    secs: 759
    nsecs: 714000000
  frame_id: "world"
pose: 
  position: 
    x: -0.0122806672007
    y: -0.0564712323248
    z: 0.00871487334371
  orientation: 
    x: 0.0171726429688
    y: 0.003826066408
    z: -0.0239100759715
    w: 0.999559287795
---
header: 
  seq: 274
  stamp: 
    secs: 760
    nsecs: 156000000
  frame_id: "world"
pose: 
  position: 
    x: 0.0178255271167
    y: -0.0225927010179
    z: 0.020496128127
  orientation: 
    x: 0.0367592847363
    y: -0.0165077437192
    z: -0.0308780109985
    w: 0.998710567592
---
header: 
  seq: 275
  stamp: 
    secs: 760
    nsecs: 389000000
  frame_id: "world"
pose: 
  position: 
    x: 0.013361973688
    y: -0.0231650117785
    z: 0.0228549428284
  orientation: 
    x: 0.0379329905487
    y: -0.0185811158702
    z: -0.0307506423004
    w: 0.998634181449
---
header: 
  seq: 276
  stamp: 
    secs: 760
    nsecs: 605000000
  frame_id: "world"
pose: 
  position: 
    x: 0.0217288415879
    y: -0.0209244601429
    z: 0.0286617260426
  orientation: 
    x: 0.0384798068278
    y: -0.0262611402337
    z: -0.0273018894345
    w: 0.998541067665
---
header: 
  seq: 277
  stamp: 
    secs: 760
    nsecs: 815000000
  frame_id: "world"
pose: 
  position: 
    x: 0.0179981570691
    y: -0.0150483902544
    z: 0.0330716818571
  orientation: 
    x: 0.0379108922863
    y: -0.0271559236765
    z: -0.0287570329039
    w: 0.998498048628
---
header: 
  seq: 278
  stamp: 
    secs: 761
    nsecs:  29000000
  frame_id: "world"
pose: 
  position: 
    x: 0.0281463172287
    y: -0.0152502199635
    z: 0.0365232340991
  orientation: 
    x: 0.0408434621915
    y: -0.0372440682763
    z: -0.0307394361009
    w: 0.997997884789
---
header: 
  seq: 279
  stamp: 
    secs: 761
    nsecs: 319000000
  frame_id: "world"
pose: 
  position: 
    x: 0.0339558012784
    y: -0.0143124442548
    z: 0.0432128384709
  orientation: 
    x: 0.0418061210674
    y: -0.0475381577717
    z: -0.034314194026
    w: 0.997404084554
---
header: 
  seq: 280
  stamp: 
    secs: 761
    nsecs: 641000000
  frame_id: "world"
pose: 
  position: 
    x: 0.0421587601304
    y: -0.0228540413082
    z: 0.0493330024183
  orientation: 
    x: 0.0372243370452
    y: -0.0604557388267
    z: -0.0245940161
    w: 0.997173298252
---
header: 
  seq: 281
  stamp: 
    secs: 762
    nsecs:   3000000
  frame_id: "world"
pose: 
  position: 
    x: 0.0356312058866
    y: -0.0236780866981
    z: 0.0571162775159
  orientation: 
    x: 0.0360464585095
    y: -0.0643433375509
    z: -0.0310786351277
    w: 0.996792208126
---
header: 
  seq: 282
  stamp: 
    secs: 762
    nsecs: 442000000
  frame_id: "world"
pose: 
  position: 
    x: 0.0696098655462
    y: -0.0240762531757
    z: 0.0639949887991
  orientation: 
    x: 0.0362672912212
    y: -0.0835214170454
    z: -0.0285620871457
    w: 0.995436117317
---
header: 
  seq: 283
  stamp: 
    secs: 762
    nsecs: 747000000
  frame_id: "world"
pose: 
  position: 
    x: 0.0673977658153
    y: -0.0250497572124
    z: 0.0666103512049
  orientation: 
    x: 0.0373429676258
    y: -0.0838299951485
    z: -0.0352634473461
    w: 0.995155527525
---
header: 
  seq: 284
  stamp: 
    secs: 762
    nsecs: 946000000
  frame_id: "world"
pose: 
  position: 
    x: 0.0653915032744
    y: -0.0223015733063
    z: 0.0665180385113
  orientation: 
    x: 0.0363309321642
    y: -0.0872093156781
    z: -0.0289028882118
    w: 0.995107643263
---
header: 
  seq: 285
  stamp: 
    secs: 763
    nsecs: 147000000
  frame_id: "world"
pose: 
  position: 
    x: 0.0710835233331
    y: -0.01904008165
    z: 0.0679864734411
  orientation: 
    x: 0.0350537759341
    y: -0.0912541011312
    z: -0.0261106248907
    w: 0.994867909367
---
header: 
  seq: 286
  stamp: 
    secs: 763
    nsecs: 360000000
  frame_id: "world"
pose: 
  position: 
    x: 0.0451697260141
    y: -0.00154729001224
    z: 0.0597753971815
  orientation: 
    x: 0.0462526812727
    y: -0.085692469917
    z: -0.0186056991463
    w: 0.995073523934
---
header: 
  seq: 287
  stamp: 
    secs: 763
    nsecs: 568000000
  frame_id: "world"
pose: 
  position: 
    x: 0.0400502830744
    y: 0.000876849400811
    z: 0.0693566277623
  orientation: 
    x: 0.0502552724299
    y: -0.0856513081148
    z: -0.0204583163867
    w: 0.994846580284
---
header: 
  seq: 288
  stamp: 
    secs: 763
    nsecs: 893000000
  frame_id: "world"
pose: 
  position: 
    x: 0.0386366769671
    y: 0.000841930741444
    z: 0.0683387517929
  orientation: 
    x: 0.0501745735857
    y: -0.0858989626639
    z: -0.0194894180497
    w: 0.994848753813
---
header: 
  seq: 289
  stamp: 
    secs: 764
    nsecs: 200000000
  frame_id: "world"
pose: 
  position: 
    x: 0.0347130820155
    y: 0.00183492840733
    z: 0.0682441592216
  orientation: 
    x: 0.0495738530381
    y: -0.0859746848526
    z: -0.0172494815528
    w: 0.994913685726
---
header: 
  seq: 290
  stamp: 
    secs: 764
    nsecs: 535000000
  frame_id: "world"
pose: 
  position: 
    x: 0.0614258423448
    y: 0.0121709387749
    z: 0.0723993778229
  orientation: 
    x: 0.0546898128492
    y: -0.0944991186788
    z: -0.0238782353633
    w: 0.993734758784
---
header: 
  seq: 291
  stamp: 
    secs: 764
    nsecs: 959000000
  frame_id: "world"
pose: 
  position: 
    x: 0.0569368824363
    y: 0.0118925767019
    z: 0.077204503119
  orientation: 
    x: 0.053434377157
    y: -0.0942520385181
    z: -0.019069506918
    w: 0.993930417323
---
header: 
  seq: 292
  stamp: 
    secs: 765
    nsecs: 239000000
  frame_id: "world"
pose: 
  position: 
    x: 0.0526737943292
    y: 0.00935643631965
    z: 0.0793118700385
  orientation: 
    x: 0.054550410736
    y: -0.0929084008395
    z: -0.0218202667399
    w: 0.993939715326
---
header: 
  seq: 293
  stamp: 
    secs: 765
    nsecs: 450000000
  frame_id: "world"
pose: 
  position: 
    x: 0.0462758094072
    y: 0.0101911807433
    z: 0.0843713954091
  orientation: 
    x: 0.0533098250819
    y: -0.0930155538512
    z: -0.0195014093415
    w: 0.994045202355
---
header: 
  seq: 294
  stamp: 
    secs: 765
    nsecs: 650000000
  frame_id: "world"
pose: 
  position: 
    x: 0.046078234911
    y: 0.0101311104372
    z: 0.0845793709159
  orientation: 
    x: 0.0533348895836
    y: -0.0930600276728
    z: -0.0195843960416
    w: 0.994038063775
---
header: 
  seq: 295
  stamp: 
    secs: 765
    nsecs: 855000000
  frame_id: "world"
pose: 
  position: 
    x: 0.032003633678
    y: 0.0124990642071
    z: 0.0826887711883
  orientation: 
    x: 0.051187817211
    y: -0.0859161854286
    z: -0.0192647861102
    w: 0.99480002235
---
header: 
  seq: 296
  stamp: 
    secs: 766
    nsecs:  69000000
  frame_id: "world"
pose: 
  position: 
    x: 0.0288551244885
    y: 0.00909117795527
    z: 0.0879738181829
  orientation: 
    x: 0.0520190354
    y: -0.0863757027325
    z: -0.0190026343356
    w: 0.994722151066
---
header: 
  seq: 297
  stamp: 
    secs: 766
    nsecs: 419000000
  frame_id: "world"
pose: 
  position: 
    x: 0.0167762655765
    y: 0.00459313672036
    z: 0.0970921963453
  orientation: 
    x: 0.0500150410469
    y: -0.0857364642853
    z: -0.0143935021498
    w: 0.994957577717
---
header: 
  seq: 298
  stamp: 
    secs: 766
    nsecs: 725000000
  frame_id: "world"
pose: 
  position: 
    x: 0.0119297262281
    y: 0.00802208762616
    z: 0.0881514772773
  orientation: 
    x: 0.0487192914349
    y: -0.0846135416328
    z: -0.0186586461899
    w: 0.995047151715
---
header: 
  seq: 299
  stamp: 
    secs: 767
    nsecs: 101000000
  frame_id: "world"
pose: 
  position: 
    x: 0.00944435223937
    y: 0.00693406630307
    z: 0.0956473350525
  orientation: 
    x: 0.0487325752647
    y: -0.0849752951795
    z: -0.0176350177187
    w: 0.995034341853
---
header: 
  seq: 300
  stamp: 
    secs: 767
    nsecs: 609000000
  frame_id: "world"
pose: 
  position: 
    x: 0.00501737371087
    y: 0.00349043123424
    z: 0.100416779518
  orientation: 
    x: 0.0490759626765
    y: -0.0854283757131
    z: -0.0171084359203
    w: 0.994987861198
---
header: 
  seq: 301
  stamp: 
    secs: 767
    nsecs: 829000000
  frame_id: "world"
pose: 
  position: 
    x: 0.00125001766719
    y: 0.00530029647052
    z: 0.092342056334
  orientation: 
    x: 0.0484727985477
    y: -0.0867432415838
    z: -0.0209759190886
    w: 0.994829638008
---
header: 
  seq: 302
  stamp: 
    secs: 768
    nsecs:  31000000
  frame_id: "world"
pose: 
  position: 
    x: 0.00102421198972
    y: 0.00604030676186
    z: 0.0828011855483
  orientation: 
    x: 0.0476867069535
    y: -0.0868127192022
    z: -0.0163440964174
    w: 0.994948441014
---
header: 
  seq: 303
  stamp: 
    secs: 768
    nsecs: 235000000
  frame_id: "world"
pose: 
  position: 
    x: -0.0114629380405
    y: 0.00547182327136
    z: 0.101088948548
  orientation: 
    x: 0.0454115545628
    y: -0.0820723207198
    z: -0.010889835081
    w: 0.99553168527
---
header: 
  seq: 304
  stamp: 
    secs: 768
    nsecs: 455000000
  frame_id: "world"
pose: 
  position: 
    x: -0.010361042805
    y: 0.00354112265632
    z: 0.101877316833
  orientation: 
    x: 0.0465717961013
    y: -0.0810340077518
    z: -0.0130864384019
    w: 0.995536690698
---
header: 
  seq: 305
  stamp: 
    secs: 768
    nsecs: 729000000
  frame_id: "world"
pose: 
  position: 
    x: -0.0109101859853
    y: 0.000381063146051
    z: 0.0840511545539
  orientation: 
    x: 0.0484435754614
    y: -0.0813490479175
    z: -0.00927183073066
    w: 0.995464507431
---
header: 
  seq: 306
  stamp: 
    secs: 769
    nsecs:  18000000
  frame_id: "world"
pose: 
  position: 
    x: -0.0183282084763
    y: 0.010278660804
    z: 0.0991005375981
  orientation: 
    x: 0.0460892079782
    y: -0.0849780931671
    z: -0.0178277691078
    w: 0.995156610408
---
header: 
  seq: 307
  stamp: 
    secs: 769
    nsecs: 307000000
  frame_id: "world"
pose: 
  position: 
    x: -0.0194823630154
    y: 0.00814345758408
    z: 0.0802216753364
  orientation: 
    x: 0.0476542360512
    y: -0.0851602154148
    z: -0.0210271247356
    w: 0.99500486005
---
header: 
  seq: 308
  stamp: 
    secs: 769
    nsecs: 601000000
  frame_id: "world"
pose: 
  position: 
    x: -0.0281522758305
    y: 0.00657735019922
    z: 0.081806063652
  orientation: 
    x: 0.0456227389182
    y: -0.0853988211086
    z: -0.0163096819142
    w: 0.995168127164
---
header: 
  seq: 309
  stamp: 
    secs: 769
    nsecs: 914000000
  frame_id: "world"
pose: 
  position: 
    x: -0.0599603839219
    y: 0.00314496364444
    z: 0.0421428568661
  orientation: 
    x: 0.0436646325653
    y: -0.0626266947387
    z: -0.0200559880399
    w: 0.996879658892
---
header: 
  seq: 310
  stamp: 
    secs: 770
    nsecs: 287000000
  frame_id: "world"
pose: 
  position: 
    x: -0.0909056216478
    y: 0.000263603782514
    z: 0.0552128814161
  orientation: 
    x: 0.0403181765818
    y: -0.0497352626521
    z: -0.0240851006352
    w: 0.997657634769
---
header: 
  seq: 311
  stamp: 
    secs: 770
    nsecs: 501000000
  frame_id: "world"
pose: 
  position: 
    x: -0.098408639431
    y: 0.0131733594462
    z: 0.100037179887
  orientation: 
    x: 0.0477349887458
    y: -0.039920559368
    z: -0.0275469559982
    w: 0.997681755373
---
header: 
  seq: 312
  stamp: 
    secs: 770
    nsecs: 698000000
  frame_id: "world"
pose: 
  position: 
    x: -0.098964586854
    y: 0.0186487138271
    z: 0.10573682189
  orientation: 
    x: 0.0501578193303
    y: -0.0401028666032
    z: -0.0219360668514
    w: 0.997694723962
---
header: 
  seq: 313
  stamp: 
    secs: 770
    nsecs: 897000000
  frame_id: "world"
pose: 
  position: 
    x: -0.124543592334
    y: 0.0261150337756
    z: 0.100265868008
  orientation: 
    x: 0.0570555967415
    y: -0.0236515519723
    z: -0.0232095090506
    w: 0.997820916628
---
header: 
  seq: 314
  stamp: 
    secs: 771
    nsecs: 108000000
  frame_id: "world"
pose: 
  position: 
    x: -0.140726178885
    y: 0.0170268509537
    z: 0.127691477537
  orientation: 
    x: 0.0548757592111
