header: 
  seq: 1433
  stamp: 
    secs: 22160
    nsecs: 787000000
  frame_id: "world"
pose: 
  position: 
    x: 0.0223095213225
    y: -0.629204744258
    z: 0.0851831720556
  orientation: 
    x: -0.239614696072
    y: 0.0639902707185
    z: -0.0758535450842
    w: 0.96578273042
---
header: 
  seq: 1434
  stamp: 
    secs: 22161
    nsecs: 239000000
  frame_id: "world"
pose: 
  position: 
    x: 0.0234912322218
    y: -0.628236297594
    z: 0.0870798784153
  orientation: 
    x: -0.23893600934
    y: 0.0635150956259
    z: -0.0772341431678
    w: 0.96587281937
---
header: 
  seq: 1435
  stamp: 
    secs: 22161
    nsecs: 807000000
  frame_id: "world"
pose: 
  position: 
    x: 0.0233307854892
    y: -0.628774679347
    z: 0.0866051647903
  orientation: 
    x: -0.239246293873
    y: 0.0635781029225
    z: -0.0767901072302
    w: 0.96582726982
---
header: 
  seq: 1436
  stamp: 
    secs: 22162
    nsecs: 229000000
  frame_id: "world"
pose: 
  position: 
    x: 0.0223246787053
    y: -0.629098931645
    z: 0.0852026376894
  orientation: 
    x: -0.239374857623
    y: 0.0640237565493
    z: -0.0762375764399
    w: 0.965809747349
---
header: 
  seq: 1437
  stamp: 
    secs: 22162
    nsecs: 563000000
  frame_id: "world"
pose: 
  position: 
    x: 0.0235212150926
    y: -0.628422965989
    z: 0.087142311606
  orientation: 
    x: -0.239217749479
    y: 0.0634950108978
    z: -0.076619917064
    w: 0.965853322319
---
header: 
  seq: 1438
  stamp: 
    secs: 22162
    nsecs: 731000000
  frame_id: "world"
pose: 
  position: 
    x: 0.0234487294772
    y: -0.628504602242
    z: 0.0870136523686
  orientation: 
    x: -0.239239880032
    y: 0.0635242400797
    z: -0.0766209887196
    w: 0.965845833874
---
header: 
  seq: 1439
  stamp: 
    secs: 22163
    nsecs:  54000000
  frame_id: "world"
pose: 
  position: 
    x: 0.0233493948722
    y: -0.628732750282
    z: 0.0865491005081
  orientation: 
    x: -0.239168022499
    y: 0.0635932305939
    z: -0.0767988532967
    w: 0.965844963837
---
header: 
  seq: 1440
  stamp: 
    secs: 22163
    nsecs: 392000000
  frame_id: "world"
pose: 
  position: 
    x: 0.0233191364051
    y: -0.628741383042
    z: 0.0866132183579
  orientation: 
    x: -0.23921625406
    y: 0.0635820826822
    z: -0.0766672345144
    w: 0.965844209853
---
header: 
  seq: 1441
  stamp: 
    secs: 22163
    nsecs: 929000000
  frame_id: "world"
pose: 
  position: 
    x: 0.0223349404165
    y: -0.629025237106
    z: 0.0851756003689
  orientation: 
    x: -0.239339561827
    y: 0.0640148525667
    z: -0.076326496824
    w: 0.965812061779
---
header: 
  seq: 1442
  stamp: 
    secs: 22164
    nsecs: 208000000
  frame_id: "world"
pose: 
  position: 
    x: 0.0223963244489
    y: -0.628995065884
    z: 0.0853648866114
  orientation: 
    x: -0.239365418353
    y: 0.0639934942096
    z: -0.0763099511509
    w: 0.965808376724
---
header: 
  seq: 1443
  stamp: 
    secs: 22164
    nsecs: 568000000
  frame_id: "world"
pose: 
  position: 
    x: 0.0224001338042
    y: -0.629001669805
    z: 0.085360534607
  orientation: 
    x: -0.239368375329
    y: 0.0639909714325
    z: -0.0763056238054
    w: 0.965808152918
---
header: 
  seq: 1444
  stamp: 
    secs: 22164
    nsecs: 974000000
  frame_id: "world"
pose: 
  position: 
    x: 0.023458901349
    y: -0.628493799123
    z: 0.0868085572906
  orientation: 
    x: -0.239023835565
    y: 0.0635032682987
    z: -0.0770769783862
    w: 0.965864421309
---
header: 
  seq: 1445
  stamp: 
    secs: 22165
    nsecs: 292000000
  frame_id: "world"
pose: 
  position: 
    x: 0.0233974282425
    y: -0.628681610571
    z: 0.0866440539854
  orientation: 
    x: -0.239145700777
    y: 0.063564429606
    z: -0.0767633085939
    w: 0.965855212515
---
header: 
  seq: 1446
  stamp: 
    secs: 22165
    nsecs: 750000000
  frame_id: "world"
pose: 
  position: 
    x: 0.0224946306769
    y: -0.629048694154
    z: 0.0853676043124
  orientation: 
    x: -0.239363375248
    y: 0.0639093569499
    z: -0.0762787457532
    w: 0.965816919313
---
header: 
  seq: 1447
  stamp: 
    secs: 22166
    nsecs:  18000000
  frame_id: "world"
pose: 
  position: 
    x: 0.0223540015736
    y: -0.629291649609
    z: 0.0849703972086
  orientation: 
    x: -0.239367962547
    y: 0.063983687775
    z: -0.0762725481427
    w: 0.965811350422
---
header: 
  seq: 1448
  stamp: 
    secs: 22166
    nsecs: 267000000
  frame_id: "world"
pose: 
  position: 
    x: 0.021973064516
    y: -0.629474719004
    z: 0.0848165918289
  orientation: 
    x: -0.23953944133
    y: 0.064115634195
    z: -0.0759440121128
    w: 0.965785974491
---
header: 
  seq: 1449
  stamp: 
    secs: 22166
    nsecs: 517000000
  frame_id: "world"
pose: 
  position: 
    x: 0.0222675528098
    y: -0.629011770978
    z: 0.0852110846717
  orientation: 
    x: -0.239335748462
    y: 0.0640326019654
    z: -0.0764099997284
    w: 0.965805227432
---
header: 
  seq: 1450
  stamp: 
    secs: 22166
    nsecs: 960000000
  frame_id: "world"
pose: 
  position: 
    x: 0.0235624877004
    y: -0.628259353269
    z: 0.0871271166648
  orientation: 
    x: -0.238958155328
    y: 0.0634533520652
    z: -0.0770833961002
    w: 0.965883441291
---
header: 
  seq: 1451
  stamp: 
    secs: 22167
    nsecs: 351000000
  frame_id: "world"
pose: 
  position: 
    x: 0.0225017603178
    y: -0.628891281248
    z: 0.0853575287863
  orientation: 
    x: -0.239384512175
    y: 0.0639249743527
    z: -0.0761581988325
    w: 0.965820160141
---
header: 
  seq: 1452
  stamp: 
    secs: 22167
    nsecs: 740000000
  frame_id: "world"
pose: 
  position: 
    x: 0.0224526589229
    y: -0.629210933263
    z: 0.0850649426727
  orientation: 
    x: -0.239337525895
    y: 0.0639574643735
    z: -0.0762862192703
    w: 0.965819550537
---
header: 
  seq: 1453
  stamp: 
    secs: 22168
    nsecs:  87000000
  frame_id: "world"
pose: 
  position: 
    x: 0.018972335812
    y: -0.633801834917
    z: 0.0896837426012
  orientation: 
    x: -0.236510212241
    y: 0.0632289014476
    z: -0.0762692801727
    w: 0.966565063733
---
header: 
  seq: 1454
  stamp: 
    secs: 22168
    nsecs: 468000000
  frame_id: "world"
pose: 
  position: 
    x: 0.0170063292726
    y: -0.661743037003
    z: 0.105932914963
  orientation: 
    x: -0.226181803631
    y: 0.0556830941604
    z: -0.0739454540341
    w: 0.969676881522
---
header: 
  seq: 1455
  stamp: 
    secs: 22169
    nsecs:  19000000
  frame_id: "world"
pose: 
  position: 
    x: 0.00917532558207
    y: -0.689767216685
    z: 0.123426830716
  orientation: 
    x: -0.21264415786
    y: 0.0447638302909
    z: -0.0721109377105
    w: 0.973436528125
---
header: 
  seq: 1456
  stamp: 
    secs: 22169
    nsecs: 413000000
  frame_id: "world"
pose: 
  position: 
    x: 0.00441019982288
    y: -0.696945373912
    z: 0.124029088802
  orientation: 
    x: -0.21153693935
    y: 0.0369965614957
    z: -0.0701973568954
    w: 0.974143577104
---
header: 
  seq: 1457
  stamp: 
    secs: 22170
    nsecs:  78000000
  frame_id: "world"
pose: 
  position: 
    x: 0.000794513741492
    y: -0.697676579987
    z: 0.122928750943
  orientation: 
    x: -0.21257498057
    y: 0.0220117471982
    z: -0.0669168009546
    w: 0.974602227768
---
header: 
  seq: 1458
  stamp: 
    secs: 22170
    nsecs: 415000000
  frame_id: "world"
pose: 
  position: 
    x: 0.00471254969358
    y: -0.693226198432
    z: 0.124588636583
  orientation: 
    x: -0.212513776769
    y: 0.0120827884984
    z: -0.0657180898391
    w: 0.974870777885
---
header: 
  seq: 1459
  stamp: 
    secs: 22170
    nsecs: 920000000
  frame_id: "world"
pose: 
  position: 
    x: 0.0023325646762
    y: -0.691836134229
    z: 0.121883462516
  orientation: 
    x: -0.215162910506
    y: 0.000447119457204
    z: -0.0639521414066
    w: 0.974481834431
---
header: 
  seq: 1460
  stamp: 
    secs: 22171
    nsecs: 494000000
  frame_id: "world"
pose: 
  position: 
    x: 0.00133279620839
    y: -0.684714593621
    z: 0.124642192203
  orientation: 
    x: -0.216279503199
    y: -0.0135752146536
    z: -0.0605803866047
    w: 0.974355636717
---
header: 
  seq: 1461
  stamp: 
    secs: 22172
    nsecs: 271000000
  frame_id: "world"
pose: 
  position: 
    x: 0.000399104616349
    y: -0.67787070545
    z: 0.122499513722
  orientation: 
    x: -0.218633597875
    y: -0.0320720352648
    z: -0.0580650001328
    w: 0.973549788246
---
header: 
  seq: 1462
  stamp: 
    secs: 22172
    nsecs: 903000000
  frame_id: "world"
pose: 
  position: 
    x: -0.00101496976105
    y: -0.674185915469
    z: 0.122294275291
  orientation: 
    x: -0.221047349218
    y: -0.0472655735655
    z: -0.0548811219707
    w: 0.972569841919
---
header: 
  seq: 1463
  stamp: 
    secs: 22173
    nsecs: 241000000
  frame_id: "world"
pose: 
  position: 
    x: -0.00369100149152
    y: -0.672615213685
    z: 0.120304025135
  orientation: 
    x: -0.222314144574
    y: -0.0537558975952
    z: -0.0530190916654
    w: 0.972047169902
---
header: 
  seq: 1464
  stamp: 
    secs: 22173
    nsecs: 691000000
  frame_id: "world"
pose: 
  position: 
    x: 0.00125740622188
    y: -0.656792244959
    z: 0.137759348835
  orientation: 
    x: -0.218988062368
    y: -0.0605673051637
    z: -0.0507602278849
    w: 0.972522097102
---
header: 
  seq: 1465
  stamp: 
    secs: 22174
    nsecs: 173000000
  frame_id: "world"
pose: 
  position: 
    x: -0.0164497695508
    y: -0.692046212155
    z: 0.124340411807
  orientation: 
    x: -0.246934626107
    y: -0.0581801778015
    z: -0.0471026009855
    w: 0.966136482243
---
header: 
  seq: 1466
  stamp: 
    secs: 22174
    nsecs: 611000000
  frame_id: "world"
pose: 
  position: 
    x: -0.0226581823146
    y: -0.697193617359
    z: 0.123880560725
  orientation: 
    x: -0.248119398353
    y: -0.0584202383102
    z: -0.0449563354817
    w: 0.96592068402
---
header: 
  seq: 1467
  stamp: 
    secs: 22175
    nsecs: 122000000
  frame_id: "world"
pose: 
  position: 
    x: -0.0146465374454
    y: -0.701098923222
    z: 0.12573715526
  orientation: 
    x: -0.248941999179
    y: -0.0682174241265
    z: -0.0471022422804
    w: 0.96496406299
---
header: 
  seq: 1468
  stamp: 
    secs: 22175
    nsecs: 526000000
  frame_id: "world"
pose: 
  position: 
    x: -0.0275778963674
    y: -0.715753877586
    z: 0.124219885942
  orientation: 
    x: -0.242434178139
    y: -0.0670151060235
    z: -0.0440058104891
    w: 0.966849591962
---
header: 
  seq: 1469
  stamp: 
    secs: 22175
    nsecs: 917000000
  frame_id: "world"
pose: 
  position: 
    x: -0.026469947077
    y: -0.715062692985
    z: 0.121287589773
  orientation: 
    x: -0.243266558166
    y: -0.0672786532601
    z: -0.0486505515075
    w: 0.966399549012
---
header: 
  seq: 1470
  stamp: 
    secs: 22176
    nsecs: 571000000
  frame_id: "world"
pose: 
  position: 
    x: -0.0317488846142
    y: -0.722276999753
    z: 0.119358548414
  orientation: 
    x: -0.238433277869
    y: -0.0554519373074
    z: -0.0572278946024
    w: 0.967884095712
---
header: 
  seq: 1471
  stamp: 
    secs: 22177
    nsecs: 132000000
  frame_id: "world"
pose: 
  position: 
    x: -0.0343324376239
    y: -0.733319086844
    z: 0.113469822838
  orientation: 
    x: -0.234980758493
    y: -0.04346129822
    z: -0.0609663077864
    w: 0.969112102912
---
header: 
  seq: 1472
  stamp: 
    secs: 22177
    nsecs: 503000000
  frame_id: "world"
pose: 
  position: 
    x: -0.0373023704485
    y: -0.743392999514
    z: 0.111428599272
  orientation: 
    x: -0.233570374509
    y: -0.0361734811824
    z: -0.0625453796994
    w: 0.969651708032
---
header: 
  seq: 1473
  stamp: 
    secs: 22178
    nsecs: 102000000
  frame_id: "world"
pose: 
  position: 
    x: -0.0327326177418
    y: -0.743899263294
    z: 0.113139951225
  orientation: 
    x: -0.227168875118
    y: -0.0270588794749
    z: -0.0671571609167
    w: 0.971160148975
---
header: 
  seq: 1474
  stamp: 
    secs: 22178
    nsecs: 500000000
  frame_id: "world"
pose: 
  position: 
    x: -0.0356205724101
    y: -0.751676442109
    z: 0.118361160177
  orientation: 
    x: -0.228478693528
    y: -0.0187099605394
    z: -0.0678018565025
    w: 0.971004805465
---
header: 
  seq: 1475
  stamp: 
    secs: 22178
    nsecs: 902000000
  frame_id: "world"
pose: 
  position: 
    x: -0.0240265955511
    y: -0.741182427745
    z: 0.129539975783
  orientation: 
    x: -0.242186529888
    y: -0.0230458690332
    z: -0.0649940518077
    w: 0.967775979187
---
header: 
  seq: 1476
  stamp: 
    secs: 22179
    nsecs: 210000000
  frame_id: "world"
pose: 
  position: 
    x: -0.0168301644143
    y: -0.732529502525
    z: 0.143784851551
  orientation: 
    x: -0.234067348893
    y: -0.029615888515
    z: -0.0668940292404
    w: 0.969464060284
---
header: 
  seq: 1477
  stamp: 
    secs: 22179
    nsecs: 851000000
  frame_id: "world"
pose: 
  position: 
    x: -0.0255250799509
    y: -0.732240556672
    z: 0.14798994687
  orientation: 
    x: -0.222824295392
    y: -0.031058689946
    z: -0.0637290950995
    w: 0.972277374827
---
header: 
  seq: 1478
  stamp: 
    secs: 22180
    nsecs: 590000000
  frame_id: "world"
pose: 
  position: 
    x: -0.0245847352604
    y: -0.72050339836
    z: 0.174815497391
  orientation: 
    x: -0.225786476317
    y: -0.0444713807823
    z: -0.0577688098476
    w: 0.971445072051
---
header: 
  seq: 1479
  stamp: 
    secs: 22180
    nsecs: 995000000
  frame_id: "world"
pose: 
  position: 
    x: -0.0326445160489
    y: -0.715882463134
    z: 0.177786387028
  orientation: 
    x: -0.222840967833
    y: -0.0486590569339
    z: -0.0639525071687
    w: 0.971537068804
---
header: 
  seq: 1480
  stamp: 
    secs: 22181
    nsecs: 585000000
  frame_id: "world"
pose: 
  position: 
    x: -0.0415596875526
    y: -0.716525573097
    z: 0.182099463327
  orientation: 
    x: -0.225984004831
    y: -0.0493791620016
    z: -0.0621012680534
    w: 0.9708946186
---
header: 
  seq: 1481
  stamp: 
    secs: 22181
    nsecs: 860000000
  frame_id: "world"
pose: 
  position: 
    x: -0.0409880181399
    y: -0.710317020032
    z: 0.189680935545
  orientation: 
    x: -0.226988539948
    y: -0.0598123333324
    z: -0.0657002687953
    w: 0.969836152241
---
header: 
  seq: 1482
  stamp: 
    secs: 22182
    nsecs: 205000000
  frame_id: "world"
pose: 
  position: 
    x: -0.0300552401876
    y: -0.702818368584
    z: 0.204828674628
  orientation: 
    x: -0.229552202439
    y: -0.0694681331035
    z: -0.0595724399625
    w: 0.968984566046
---
header: 
  seq: 1483
  stamp: 
    secs: 22182
    nsecs: 686000000
  frame_id: "world"
pose: 
  position: 
    x: -0.0378430661644
    y: -0.69794054776
    z: 0.217555190583
  orientation: 
    x: -0.230209825005
    y: -0.0755932882466
    z: -0.0560897364076
    w: 0.968577840296
---
header: 
  seq: 1484
  stamp: 
    secs: 22183
    nsecs: 425000000
  frame_id: "world"
pose: 
  position: 
    x: -0.0316481395088
    y: -0.683323243842
    z: 0.251791999123
  orientation: 
    x: -0.227336392916
    y: -0.0915960818321
    z: -0.0545797000476
    w: 0.967961455117
---
header: 
  seq: 1485
  stamp: 
    secs: 22183
    nsecs: 960000000
  frame_id: "world"
pose: 
  position: 
    x: 0.00138005893674
    y: -0.661215489012
    z: 0.331893540988
  orientation: 
    x: -0.258889896173
    y: -0.119638009162
    z: -0.0161921020273
    w: 0.958332188886
---
header: 
  seq: 1486
  stamp: 
    secs: 22184
    nsecs: 727000000
  frame_id: "world"
pose: 
  position: 
    x: -0.00323134601342
    y: -0.65170946775
    z: 0.348518950167
  orientation: 
    x: -0.260330779001
    y: -0.127429579287
    z: -0.0150615564964
    w: 0.95695492963
---
header: 
  seq: 1487
  stamp: 
    secs: 22185
    nsecs: 467000000
  frame_id: "world"
pose: 
  position: 
    x: -0.00781204733816
    y: -0.640800190044
    z: 0.365199103494
  orientation: 
    x: -0.262775969076
    y: -0.137808937877
    z: -0.00807505648945
    w: 0.954930510655
---
header: 
  seq: 1488
  stamp: 
    secs: 22186
    nsecs:  51000000
  frame_id: "world"
pose: 
  position: 
    x: -0.0101213151085
    y: -0.632878956724
    z: 0.377401718555
  orientation: 
    x: -0.256899884418
    y: -0.147259341488
    z: -0.00998536040993
    w: 0.955100742492
---
header: 
  seq: 1489
  stamp: 
    secs: 22186
    nsecs: 657000000
  frame_id: "world"
pose: 
  position: 
    x: -0.0151214049001
    y: -0.627282985281
    z: 0.38859099822
  orientation: 
    x: -0.260010474828
    y: -0.158367877071
    z: -0.00898537086661
    w: 0.952488021763
---
header: 
  seq: 1490
  stamp: 
    secs: 22186
    nsecs: 860000000
  frame_id: "world"
pose: 
  position: 
    x: -0.0171856609465
    y: -0.62465434708
    z: 0.392230076722
  orientation: 
    x: -0.260055149872
    y: -0.158337576255
    z: 0.00117044148485
    w: 0.952522525213
---
header: 
  seq: 1491
  stamp: 
    secs: 22187
    nsecs: 187000000
  frame_id: "world"
pose: 
  position: 
    x: -0.0185487139236
    y: -0.62009613447
    z: 0.400350116647
  orientation: 
    x: -0.25977459436
    y: -0.164766478722
    z: -0.00111997808455
    w: 0.951508230791
---
header: 
  seq: 1492
  stamp: 
    secs: 22187
    nsecs: 434000000
  frame_id: "world"
pose: 
  position: 
    x: -0.021077616547
    y: -0.617985970447
    z: 0.403992870284
  orientation: 
    x: -0.255540628335
    y: -0.168778051604
    z: -0.00144491377476
    w: 0.951951085293
---
header: 
  seq: 1493
  stamp: 
    secs: 22187
    nsecs: 770000000
  frame_id: "world"
pose: 
  position: 
    x: -0.0225281629599
    y: -0.613842280781
    z: 0.41213067378
  orientation: 
    x: -0.260105906105
    y: -0.173050809964
    z: 0.000553297496438
    w: 0.949946329348
---
header: 
  seq: 1494
  stamp: 
    secs: 22188
    nsecs: 358000000
  frame_id: "world"
pose: 
  position: 
    x: -0.0286166518713
    y: -0.608325639657
    z: 0.424114941437
  orientation: 
    x: -0.252163721511
    y: -0.181399651196
    z: 0.00256639582234
    w: 0.950526715938
---
header: 
  seq: 1495
  stamp: 
    secs: 22188
    nsecs: 857000000
  frame_id: "world"
pose: 
  position: 
    x: -0.0329410759252
    y: -0.60280064701
    z: 0.431510059865
  orientation: 
    x: -0.256549455903
    y: -0.18715293281
    z: 0.00388863388865
    w: 0.948230475646
---
header: 
  seq: 1496
  stamp: 
    secs: 22189
    nsecs:  88000000
  frame_id: "world"
pose: 
  position: 
    x: -0.0333528730463
    y: -0.600848284424
    z: 0.435334902343
  orientation: 
    x: -0.256728461842
    y: -0.191054209798
    z: 0.00526249143011
    w: 0.947397008641
---
header: 
  seq: 1497
  stamp: 
    secs: 22189
    nsecs: 816000000
  frame_id: "world"
pose: 
  position: 
    x: -0.0434554830436
    y: -0.595210954344
    z: 0.446632639971
  orientation: 
    x: -0.256133496821
    y: -0.198694056841
    z: 0.00833941377922
    w: 0.945963401914
---
header: 
  seq: 1498
  stamp: 
    secs: 22190
    nsecs: 435000000
  frame_id: "world"
pose: 
  position: 
    x: -0.0494990486522
    y: -0.591329972011
    z: 0.45623690449
  orientation: 
    x: -0.241700503715
    y: -0.209441821953
    z: -0.000390066659869
    w: 0.947478146222
---
header: 
  seq: 1499
  stamp: 
    secs: 22191
    nsecs: 137000000
  frame_id: "world"
pose: 
  position: 
    x: -0.0626197934264
    y: -0.593539236613
    z: 0.455299775416
  orientation: 
    x: -0.25809223968
    y: -0.190380017758
    z: 0.00695042855409
    w: 0.947151274189
---
header: 
  seq: 1500
  stamp: 
    secs: 22191
    nsecs: 765000000
  frame_id: "world"
pose: 
  position: 
    x: -0.0739087837687
    y: -0.593554787642
    z: 0.450883095324
  orientation: 
    x: -0.259865815904
    y: -0.18602867651
    z: 0.0106583712786
    w: 0.947496431847
---
header: 
  seq: 1501
  stamp: 
    secs: 22192
    nsecs: 197000000
  frame_id: "world"
pose: 
  position: 
    x: -0.0839518620204
    y: -0.597243418644
    z: 0.448831106314
  orientation: 
    x: -0.256125995765
    y: -0.182237669935
    z: 0.00596765665129
    w: 0.949290942243
---
header: 
  seq: 1502
  stamp: 
    secs: 22192
    nsecs: 734000000
  frame_id: "world"
pose: 
  position: 
    x: -0.0961228490281
    y: -0.602482673736
    z: 0.441692098816
  orientation: 
    x: -0.262077266411
    y: -0.17545598155
    z: 0.0102696348428
    w: 0.948907392515
---
header: 
  seq: 1503
  stamp: 
    secs: 22193
    nsecs: 393000000
  frame_id: "world"
pose: 
  position: 
    x: -0.112282860939
    y: -0.608830911574
    z: 0.434743461008
  orientation: 
    x: -0.264528468512
    y: -0.163128803452
    z: 0.00427700042737
    w: 0.950471141118
---
header: 
  seq: 1504
  stamp: 
    secs: 22194
    nsecs:   3000000
  frame_id: "world"
pose: 
  position: 
    x: -0.119273455226
    y: -0.609687811401
    z: 0.427872698044
  orientation: 
    x: -0.262914418141
    y: -0.168683016303
    z: 0.00610333963881
    w: 0.949939365428
---
header: 
  seq: 1505
  stamp: 
    secs: 22194
    nsecs: 557000000
  frame_id: "world"
pose: 
  position: 
    x: -0.125291240692
    y: -0.611355257469
    z: 0.423859226391
  orientation: 
    x: -0.26498480172
    y: -0.17304194342
    z: 0.0111916085848
    w: 0.948532702953
---
header: 
  seq: 1506
  stamp: 
    secs: 22195
    nsecs:  26000000
  frame_id: "world"
pose: 
  position: 
    x: -0.133097986032
    y: -0.616910732927
    z: 0.414715613151
  orientation: 
    x: -0.266706124675
    y: -0.165164381724
    z: 0.0019326209073
    w: 0.949518212067
---
header: 
  seq: 1507
  stamp: 
    secs: 22195
    nsecs: 388000000
  frame_id: "world"
pose: 
  position: 
    x: -0.139910064459
    y: -0.619881889371
    z: 0.411230371182
  orientation: 
    x: -0.271773301048
    y: -0.160444251995
    z: 0.0065277019343
    w: 0.948870014252
---
header: 
  seq: 1508
  stamp: 
    secs: 22195
    nsecs: 926000000
  frame_id: "world"
pose: 
  position: 
    x: -0.150147934255
    y: -0.627799064388
    z: 0.405648321773
  orientation: 
    x: -0.266951627353
    y: -0.148141767774
    z: -0.000330934371853
    w: 0.952255604225
---
header: 
  seq: 1509
  stamp: 
    secs: 22196
    nsecs: 474000000
  frame_id: "world"
pose: 
  position: 
    x: -0.159480343401
    y: -0.63138070876
    z: 0.401833908092
  orientation: 
    x: -0.268347301606
    y: -0.147738844197
    z: 0.000140026052549
    w: 0.951925910998
---
header: 
  seq: 1510
  stamp: 
    secs: 22196
    nsecs: 841000000
  frame_id: "world"
pose: 
  position: 
    x: -0.16474253424
    y: -0.632843091702
    z: 0.400656254981
  orientation: 
    x: -0.271046075625
    y: -0.145758173491
    z: 0.00422040604829
    w: 0.951457181339
---
header: 
  seq: 1511
  stamp: 
    secs: 22197
    nsecs: 356000000
  frame_id: "world"
pose: 
  position: 
    x: -0.169532141316
    y: -0.627268237294
    z: 0.40188459202
  orientation: 
    x: -0.266331677789
    y: -0.143085043474
    z: 0.00516452367767
    w: 0.953188037816
---
header: 
  seq: 1512
  stamp: 
    secs: 22197
    nsecs: 620000000
  frame_id: "world"
pose: 
  position: 
    x: -0.175107951649
    y: -0.630805042393
    z: 0.39518637681
  orientation: 
    x: -0.270174311173
    y: -0.140424626362
    z: 0.00263225282061
    w: 0.952512381619
---
header: 
  seq: 1513
  stamp: 
    secs: 22198
    nsecs: 181000000
  frame_id: "world"
pose: 
  position: 
    x: -0.19357826772
    y: -0.643376517232
    z: 0.379305135612
  orientation: 
    x: -0.271538478035
    y: -0.128248424568
    z: -0.00122739747923
    w: 0.953843640246
---
header: 
  seq: 1514
  stamp: 
    secs: 22198
    nsecs: 637000000
  frame_id: "world"
pose: 
  position: 
    x: -0.206716055974
    y: -0.654791712418
    z: 0.372998971675
  orientation: 
    x: -0.27145794827
    y: -0.115645139432
    z: 0.0030628852007
    w: 0.955472345377
---
header: 
  seq: 1515
  stamp: 
    secs: 22199
    nsecs:  28000000
  frame_id: "world"
pose: 
  position: 
    x: -0.214033472309
    y: -0.657348415072
    z: 0.370314633135
  orientation: 
    x: -0.278766469422
    y: -0.111447185457
    z: 0.0030865745523
    w: 0.95386542732
---
header: 
  seq: 1516
  stamp: 
    secs: 22199
    nsecs: 670000000
  frame_id: "world"
pose: 
  position: 
    x: -0.219428481263
    y: -0.656061867154
    z: 0.370356111334
  orientation: 
    x: -0.282454829269
    y: -0.113501086865
    z: -0.00076978355102
    w: 0.952541957153
---
header: 
  seq: 1517
  stamp: 
    secs: 22200
    nsecs: 211000000
  frame_id: "world"
pose: 
  position: 
    x: -0.227041909037
    y: -0.656431809998
    z: 0.372069666716
  orientation: 
    x: -0.284015455964
    y: -0.111342000081
    z: 0.00261088639734
    w: 0.952329440406
---
header: 
  seq: 1518
  stamp: 
    secs: 22200
    nsecs: 566000000
  frame_id: "world"
pose: 
  position: 
    x: -0.235936598011
    y: -0.665562225036
    z: 0.366459938908
  orientation: 
    x: -0.283922918723
    y: -0.117884691055
    z: 0.00212361306482
    w: 0.951570526081
---
header: 
  seq: 1519
  stamp: 
    secs: 22201
    nsecs:  50000000
  frame_id: "world"
pose: 
  position: 
    x: -0.247091172166
    y: -0.672068137114
    z: 0.361896440161
  orientation: 
    x: -0.288273421299
    y: -0.125592781676
    z: 0.0137803043947
    w: 0.949175953643
---
header: 
  seq: 1520
  stamp: 
    secs: 22201
    nsecs: 569000000
  frame_id: "world"
pose: 
  position: 
    x: -0.276542143535
    y: -0.65545276172
    z: 0.322196117054
  orientation: 
    x: -0.250286038169
    y: -0.132496841005
    z: -0.00833071642969
    w: 0.959026634346
---
header: 
  seq: 1521
  stamp: 
    secs: 22202
    nsecs:  89000000
  frame_id: "world"
pose: 
  position: 
    x: -0.28888960626
    y: -0.664726901192
    z: 0.31411227487
  orientation: 
    x: -0.256034838659
    y: -0.142324995373
    z: -0.00197384468846
    w: 0.95613067152
---
header: 
  seq: 1522
  stamp: 
    secs: 22202
    nsecs: 549000000
  frame_id: "world"
pose: 
  position: 
    x: -0.275028124252
    y: -0.679387353001
    z: 0.278025906808
  orientation: 
    x: -0.248953688148
    y: -0.149240230735
    z: 0.00687575568312
    w: 0.956923266867
---
header: 
  seq: 1523
  stamp: 
    secs: 22203
    nsecs:  62000000
  frame_id: "world"
pose: 
  position: 
    x: -0.288792359128
    y: -0.69064568101
    z: 0.268822784835
  orientation: 
    x: -0.249744370868
    y: -0.159178541719
    z: 0.00883886730159
    w: 0.955097804154
---
header: 
  seq: 1524
  stamp: 
    secs: 22203
    nsecs: 757000000
  frame_id: "world"
pose: 
  position: 
    x: -0.30813926927
    y: -0.709084567296
    z: 0.255568774704
  orientation: 
    x: -0.253473282131
    y: -0.17244175805
    z: 0.0196222593965
    w: 0.951645996294
---
header: 
  seq: 1525
  stamp: 
    secs: 22204
    nsecs: 357000000
  frame_id: "world"
pose: 
  position: 
    x: -0.328316036385
    y: -0.727595431381
    z: 0.243155460638
  orientation: 
    x: -0.25686809136
    y: -0.182121492207
    z: 0.0271787886719
    w: 0.948742251174
---
header: 
  seq: 1526
  stamp: 
    secs: 22204
    nsecs: 975000000
  frame_id: "world"
pose: 
  position: 
    x: -0.35124484045
    y: -0.750931410548
    z: 0.229660783499
  orientation: 
    x: -0.261863969005
    y: -0.191771281211
    z: 0.0327251977822
    w: 0.945293657479
---
header: 
  seq: 1527
  stamp: 
    secs: 22205
    nsecs: 379000000
  frame_id: "world"
pose: 
  position: 
    x: -0.432231938082
    y: -0.727062698865
    z: 0.218024765404
  orientation: 
    x: -0.223642492763
    y: -0.170720569615
    z: 0.0486529818981
    w: 0.958369140725
---
header: 
  seq: 1528
  stamp: 
    secs: 22205
    nsecs: 712000000
  frame_id: "world"
pose: 
  position: 
    x: -0.437930641696
    y: -0.730349512342
    z: 0.210618198125
  orientation: 
    x: -0.233849212934
    y: -0.173175641574
    z: 0.020745087405
    w: 0.95650111559
---
header: 
  seq: 1529
  stamp: 
    secs: 22206
    nsecs: 196000000
  frame_id: "world"
pose: 
  position: 
    x: -0.438690523655
    y: -0.731655791562
    z: 0.197065843529
  orientation: 
    x: -0.242615113946
    y: -0.172630303887
    z: 0.0138262385623
    w: 0.954539428097
---
header: 
  seq: 1530
  stamp: 
    secs: 22206
    nsecs: 756000000
  frame_id: "world"
pose: 
  position: 
    x: -0.436677683044
    y: -0.736404748529
    z: 0.180135238721
  orientation: 
    x: -0.24736698897
    y: -0.175345996588
    z: 0.0143722501642
    w: 0.952815193347
---
header: 
  seq: 1531
  stamp: 
    secs: 22207
    nsecs: 207000000
  frame_id: "world"
pose: 
  position: 
    x: -0.4328457891
    y: -0.738759429668
    z: 0.169987863156
  orientation: 
    x: -0.247350568045
    y: -0.178906483816
    z: 0.0128698810909
    w: 0.952178834409
---
header: 
  seq: 1532
  stamp: 
    secs: 22207
    nsecs: 605000000
  frame_id: "world"
pose: 
  position: 
    x: -0.430141495351
    y: -0.743434835372
    z: 0.157693933589
  orientation: 
    x: -0.240157664944
    y: -0.170900399074
    z: 0.00963608320712
    w: 0.955523152762
---
header: 
  seq: 1533
  stamp: 
    secs: 22208
    nsecs:  72000000
  frame_id: "world"
pose: 
  position: 
    x: -0.424207411832
    y: -0.747578223181
    z: 0.143624618545
  orientation: 
    x: -0.246957647178
    y: -0.168661145587
    z: 0.00844241671397
    w: 0.954198126214
---
header: 
  seq: 1534
  stamp: 
    secs: 22208
    nsecs: 472000000
  frame_id: "world"
pose: 
  position: 
    x: -0.419069012326
    y: -0.749913066872
    z: 0.134997345429
  orientation: 
    x: -0.244455149697
    y: -0.165458449415
    z: 0.00915104534886
    w: 0.955395959628
---
header: 
  seq: 1535
  stamp: 
    secs: 22208
    nsecs: 913000000
  frame_id: "world"
pose: 
  position: 
    x: -0.414617979808
    y: -0.759241521464
    z: 0.117115916495
  orientation: 
    x: -0.239205489064
    y: -0.162983962249
    z: 0.01291311437
    w: 0.957105121462
---
header: 
  seq: 1536
  stamp: 
    secs: 22209
    nsecs: 295000000
  frame_id: "world"
pose: 
  position: 
    x: -0.410247711705
    y: -0.762513920919
    z: 0.107500676428
  orientation: 
    x: -0.241417191485
    y: -0.159609409394
    z: 0.00412660769183
    w: 0.957196712906
---
header: 
  seq: 1537
  stamp: 
    secs: 22209
    nsecs: 701000000
  frame_id: "world"
pose: 
  position: 
    x: -0.406924120957
    y: -0.76928349484
    z: 0.0922282100693
  orientation: 
    x: -0.246347690332
    y: -0.150834897503
    z: 5.09187650682e-05
    w: 0.957372261229
---
header: 
  seq: 1538
  stamp: 
    secs: 22210
    nsecs: 179000000
  frame_id: "world"
pose: 
  position: 
    x: -0.402737332191
    y: -0.771070594594
    z: 0.0818941214994
  orientation: 
    x: -0.242877732744
    y: -0.150048669526
    z: 0.00176833738548
    w: 0.958380235968
---
header: 
  seq: 1539
  stamp: 
    secs: 22210
    nsecs: 801000000
  frame_id: "world"
pose: 
  position: 
    x: -0.406731995635
    y: -0.658371420565
    z: 0.130974959344
  orientation: 
    x: -0.216597708155
    y: -0.143817926823
    z: -0.0108581537573
    w: 0.965548516255
---
header: 
  seq: 1540
  stamp: 
    secs: 22211
    nsecs: 495000000
  frame_id: "world"
pose: 
  position: 
    x: -0.411815966881
    y: -0.664010374961
    z: 0.108678027392
  orientation: 
    x: -0.212606617018
    y: -0.140445897396
    z: -0.0172525209049
    w: 0.966838004439
---
header: 
  seq: 1541
  stamp: 
    secs: 22212
    nsecs: 309000000
  frame_id: "world"
pose: 
  position: 
    x: -0.406978789268
    y: -0.669121441737
    z: 0.0874918341616
  orientation: 
    x: -0.217245243851
    y: -0.133559746964
    z: -0.0215884904254
    w: 0.96669552347
---
header: 
  seq: 1542
  stamp: 
    secs: 22212
    nsecs: 767000000
  frame_id: "world"
pose: 
  position: 
    x: -0.404727077262
    y: -0.674934266333
    z: 0.0752085889472
  orientation: 
    x: -0.210247134574
    y: -0.132541790982
    z: -0.0217529286387
    w: 0.968377832327
---
header: 
  seq: 1543
  stamp: 
    secs: 22213
    nsecs: 232000000
  frame_id: "world"
pose: 
  position: 
    x: -0.403337156459
    y: -0.679127398707
    z: 0.0660806413843
  orientation: 
    x: -0.213550311857
    y: -0.123626269023
    z: -0.0205180629812
    w: 0.968861093762
---
header: 
  seq: 1544
  stamp: 
    secs: 22213
    nsecs: 827000000
  frame_id: "world"
pose: 
  position: 
    x: -0.397949664023
    y: -0.685860446886
    z: 0.0508861626779
  orientation: 
    x: -0.215929340582
    y: -0.118177423622
    z: -0.0254464952529
    w: 0.968896842962
---
header: 
  seq: 1545
  stamp: 
    secs: 22214
    nsecs: 365000000
  frame_id: "world"
pose: 
  position: 
    x: -0.397696783915
    y: -0.692732284519
    z: 0.0379860827686
  orientation: 
    x: -0.213273016346
    y: -0.113785393379
    z: -0.0197612947031
    w: 0.970142770928
---
header: 
  seq: 1546
  stamp: 
    secs: 22214
    nsecs: 769000000
  frame_id: "world"
pose: 
  position: 
    x: -0.394612406517
    y: -0.698315735759
    z: 0.0277462483991
  orientation: 
    x: -0.213872622484
    y: -0.111169698624
    z: -0.0252576704157
    w: 0.970186502454
---
header: 
  seq: 1547
  stamp: 
    secs: 22215
    nsecs: 169000000
  frame_id: "world"
pose: 
  position: 
    x: -0.391279562041
    y: -0.703081714445
    z: 0.0164491646028
  orientation: 
    x: -0.216002258487
    y: -0.109956552933
    z: -0.0224399212989
    w: 0.969922177666
---
header: 
  seq: 1548
  stamp: 
    secs: 22215
    nsecs: 552000000
  frame_id: "world"
pose: 
  position: 
    x: -0.389221955522
    y: -0.703368793718
    z: 0.00902918997652
  orientation: 
    x: -0.212034195172
    y: -0.109062138685
    z: -0.0241886936565
    w: 0.970856249443
---
header: 
  seq: 1549
  stamp: 
    secs: 22216
    nsecs:  18000000
  frame_id: "world"
pose: 
  position: 
    x: -0.388460819164
    y: -0.709649539963
    z: -0.00249879395272
  orientation: 
    x: -0.218757487816
    y: -0.0997610387474
    z: -0.0272979027546
    w: 0.970282289428
---
header: 
  seq: 1550
  stamp: 
    secs: 22216
    nsecs: 497000000
  frame_id: "world"
pose: 
  position: 
    x: -0.385510846339
    y: -0.716592787719
    z: -0.0112724895877
  orientation: 
    x: -0.213760523563
    y: -0.0877549917016
    z: -0.0314298143683
    w: 0.97242874637
---
header: 
  seq: 1551
  stamp: 
    secs: 22217
    nsecs:  82000000
  frame_id: "world"
pose: 
  position: 
    x: -0.403364850314
    y: -0.693339448061
    z: 0.0119055052922
  orientation: 
    x: -0.208371311809
    y: -0.0705416382167
    z: -0.0454353121574
    w: 0.974443895821
---
header: 
  seq: 1552
  stamp: 
    secs: 22217
    nsecs: 788000000
  frame_id: "world"
pose: 
  position: 
    x: -0.404111551164
    y: -0.701152642826
    z: -0.00670513377236
  orientation: 
    x: -0.208900038531
    y: -0.0802207323809
    z: -0.0423961640427
    w: 0.97371863147
---
header: 
  seq: 1553
  stamp: 
    secs: 22218
    nsecs: 559000000
  frame_id: "world"
pose: 
  position: 
    x: -0.405206858196
    y: -0.712703895324
    z: -0.0291197542262
  orientation: 
    x: -0.210096172352
    y: -0.0907157662209
    z: -0.0399257117983
    w: 0.97264391514
---
header: 
  seq: 1554
  stamp: 
    secs: 22219
    nsecs: 152000000
  frame_id: "world"
pose: 
  position: 
    x: -0.405053727385
    y: -0.720366694538
    z: -0.0457741726087
  orientation: 
    x: -0.210655679225
    y: -0.0984093496084
    z: -0.0380514896162
    w: 0.971849715161
---
header: 
  seq: 1555
  stamp: 
    secs: 22219
    nsecs: 767000000
  frame_id: "world"
pose: 
  position: 
    x: -0.405199442646
    y: -0.728948749904
    z: -0.0640153766007
  orientation: 
    x: -0.211212376059
    y: -0.107068883196
    z: -0.0362678005544
    w: 0.970881163219
---
header: 
  seq: 1556
  stamp: 
    secs: 22220
    nsecs: 216000000
  frame_id: "world"
pose: 
  position: 
    x: -0.405004116349
    y: -0.73325325304
    z: -0.0760152844555
  orientation: 
    x: -0.239570133901
    y: -0.0998126846196
    z: -0.0193666940358
    w: 0.965540527422
---
header: 
  seq: 1557
  stamp: 
    secs: 22220
    nsecs: 674000000
  frame_id: "world"
pose: 
  position: 
    x: -0.396132291269
    y: -0.733925408651
    z: -0.0744845357777
  orientation: 
    x: -0.216929767944
    y: -0.0989855213676
    z: -0.0332613038679
    w: 0.97058591995
---
header: 
  seq: 1558
  stamp: 
    secs: 22221
    nsecs: 322000000
  frame_id: "world"
pose: 
  position: 
    x: -0.381784453285
    y: -0.734175737333
    z: -0.0692212141403
  orientation: 
    x: -0.214753935955
    y: -0.0943290445721
    z: -0.0420251711958
    w: 0.971193422202
---
header: 
  seq: 1559
  stamp: 
    secs: 22221
    nsecs: 852000000
  frame_id: "world"
pose: 
  position: 
    x: -0.365119476621
    y: -0.732895869851
    z: -0.063157895709
  orientation: 
    x: -0.206725087274
    y: -0.0897710821722
    z: -0.040023317728
    w: 0.973449549353
---
header: 
  seq: 1560
  stamp: 
    secs: 22222
    nsecs: 244000000
  frame_id: "world"
pose: 
  position: 
    x: -0.354907210856
    y: -0.731218994103
    z: -0.0643756385527
  orientation: 
    x: -0.211817282635
    y: -0.0893980890344
    z: -0.0486547807178
    w: 0.97199492425
---
header: 
  seq: 1561
  stamp: 
    secs: 22222
    nsecs: 595000000
  frame_id: "world"
pose: 
  position: 
    x: -0.346873110275
    y: -0.731972687977
    z: -0.0605029177595
  orientation: 
    x: -0.207251537716
    y: -0.0858092408546
    z: -0.0381163748699
    w: 0.973771388091
---
header: 
  seq: 1562
  stamp: 
    secs: 22223
    nsecs: 108000000
  frame_id: "world"
pose: 
  position: 
    x: -0.330976356355
    y: -0.73353685787
    z: -0.0545790198241
  orientation: 
    x: -0.210721160567
    y: -0.0876139940826
    z: -0.0475420831166
    w: 0.972450580165
---
header: 
  seq: 1563
  stamp: 
    secs: 22223
    nsecs: 428000000
  frame_id: "world"
pose: 
  position: 
    x: -0.321767314101
    y: -0.735178785846
    z: -0.0551576271936
  orientation: 
    x: -0.212965311198
    y: -0.0879269569842
    z: -0.0441719183199
    w: 0.972092314595
---
header: 
  seq: 1564
  stamp: 
    secs: 22223
    nsecs: 973000000
  frame_id: "world"
pose: 
  position: 
    x: -0.305950366017
    y: -0.733711227161
    z: -0.049153060516
  orientation: 
    x: -0.211256229842
    y: -0.0813703421523
    z: -0.0449972661298
    w: 0.972997902779
---
header: 
  seq: 1565
  stamp: 
    secs: 22224
    nsecs: 605000000
  frame_id: "world"
pose: 
  position: 
    x: -0.287798713977
    y: -0.732661065806
    z: -0.0471785385867
  orientation: 
    x: -0.210244583067
    y: -0.0748978497349
    z: -0.0437455406853
    w: 0.973793538213
---
header: 
  seq: 1566
  stamp: 
    secs: 22224
    nsecs: 895000000
  frame_id: "world"
pose: 
  position: 
    x: -0.280884294381
    y: -0.733044726775
    z: -0.0470091898415
  orientation: 
    x: -0.211605800644
    y: -0.0783027248174
    z: -0.0462583895883
    w: 0.973114499847
---
header: 
  seq: 1567
  stamp: 
    secs: 22225
    nsecs: 299000000
  frame_id: "world"
pose: 
  position: 
    x: -0.268352676243
    y: -0.732440153641
    z: -0.0450461494937
  orientation: 
    x: -0.212350654906
    y: -0.0748181341397
    z: -0.0511418976995
    w: 0.972981989795
---
header: 
  seq: 1568
  stamp: 
    secs: 22225
    nsecs: 786000000
  frame_id: "world"
pose: 
  position: 
    x: -0.254710772527
    y: -0.733113889682
    z: -0.0417718260006
  orientation: 
    x: -0.212071279713
    y: -0.0754206490544
    z: -0.0511625230075
    w: 0.972995320778
---
header: 
  seq: 1569
  stamp: 
    secs: 22226
    nsecs: 310000000
  frame_id: "world"
pose: 
  position: 
    x: -0.238805063834
    y: -0.731873037964
    z: -0.0376198410688
  orientation: 
    x: -0.213793102066
    y: -0.0766958839583
    z: -0.0521892997849
    w: 0.972464152491
---
header: 
  seq: 1570
  stamp: 
    secs: 22226
    nsecs: 726000000
  frame_id: "world"
pose: 
  position: 
    x: -0.227443774832
    y: -0.731077715467
    z: -0.0382097184789
  orientation: 
    x: -0.211542609852
    y: -0.0824817830197
    z: -0.0460608949617
    w: 0.972792307557
---
header: 
  seq: 1571
  stamp: 
    secs: 22227
    nsecs:  47000000
  frame_id: "world"
pose: 
  position: 
    x: -0.214531515625
    y: -0.731676482251
    z: -0.0362215641913
  orientation: 
    x: -0.218563953271
    y: -0.0906776091515
    z: -0.0473362809227
    w: 0.970446621941
---
header: 
  seq: 1572
  stamp: 
    secs: 22227
    nsecs: 519000000
  frame_id: "world"
pose: 
  position: 
    x: -0.206083524854
    y: -0.726631749408
    z: -0.0360807890355
  orientation: 
    x: -0.215175545541
    y: -0.0933602685376
    z: -0.046550342226
    w: 0.97098733797
---
header: 
  seq: 1573
  stamp: 
    secs: 22227
    nsecs: 907000000
  frame_id: "world"
pose: 
  position: 
    x: -0.194717257366
    y: -0.727139940885
    z: -0.0332322524005
  orientation: 
    x: -0.212461870823
    y: -0.0992215263161
    z: -0.0398656215469
    w: 0.971301072984
---
header: 
  seq: 1574
  stamp: 
    secs: 22228
    nsecs: 305000000
  frame_id: "world"
pose: 
  position: 
    x: -0.184224564535
    y: -0.726787136242
    z: -0.0317966465574
  orientation: 
    x: -0.210772197581
    y: -0.103946282674
    z: -0.0424405325517
    w: 0.971065936094
---
header: 
  seq: 1575
  stamp: 
    secs: 22228
    nsecs: 570000000
  frame_id: "world"
pose: 
  position: 
    x: -0.175855066084
    y: -0.726870833992
    z: -0.0297005902544
  orientation: 
    x: -0.214403666745
    y: -0.108550745273
    z: -0.0442539049955
    w: 0.969685204218
---
header: 
  seq: 1576
  stamp: 
    secs: 22228
    nsecs: 895000000
  frame_id: "world"
pose: 
  position: 
    x: -0.167387692411
    y: -0.727031783682
    z: -0.0276865339455
  orientation: 
    x: -0.220103938299
    y: -0.108723247071
    z: -0.0425051413321
    w: 0.968466222876
---
header: 
  seq: 1577
  stamp: 
    secs: 22229
    nsecs: 479000000
  frame_id: "world"
pose: 
  position: 
    x: -0.146481735747
    y: -0.727499927529
    z: -0.0196405070259
  orientation: 
    x: -0.215898920661
    y: -0.112870400961
    z: -0.0382675709815
    w: 0.969114813454
---
header: 
  seq: 1578
  stamp: 
    secs: 22229
    nsecs: 847000000
  frame_id: "world"
pose: 
  position: 
    x: -0.137100787381
    y: -0.727542650441
    z: -0.0177007590322
  orientation: 
    x: -0.218378221248
    y: -0.121616018588
    z: -0.0415223965193
    w: 0.967365694603
---
header: 
  seq: 1579
  stamp: 
    secs: 22230
    nsecs: 133000000
  frame_id: "world"
pose: 
  position: 
    x: -0.143485497287
    y: -0.737672115558
    z: -0.0515277821523
  orientation: 
    x: -0.214247961336
    y: -0.119877684544
    z: -0.0374491687441
    w: 0.968671622157
---
header: 
  seq: 1580
  stamp: 
    secs: 22230
    nsecs: 502000000
  frame_id: "world"
pose: 
  position: 
    x: -0.133176642938
    y: -0.736174374545
    z: -0.0490236914612
  orientation: 
    x: -0.218761703696
    y: -0.124473608099
    z: -0.037013926728
    w: 0.967098550878
---
header: 
  seq: 1581
  stamp: 
    secs: 22230
    nsecs: 980000000
  frame_id: "world"
pose: 
  position: 
    x: -0.118055948989
    y: -0.735641661941
    z: -0.0437428729408
  orientation: 
    x: -0.216123402908
    y: -0.123169026828
    z: -0.0322706123679
    w: 0.968028239838
---
header: 
  seq: 1582
  stamp: 
    secs: 22231
    nsecs: 568000000
  frame_id: "world"
pose: 
  position: 
    x: -0.0987659446646
    y: -0.735165512495
    z: -0.0407343424615
  orientation: 
    x: -0.214194607354
    y: -0.121164984153
    z: -0.0399814819342
    w: 0.96842201436
---
header: 
  seq: 1583
  stamp: 
    secs: 22232
    nsecs: 323000000
  frame_id: "world"
pose: 
  position: 
    x: -0.0760053248457
    y: -0.741739375841
    z: -0.0386023632186
  orientation: 
    x: -0.215900913982
    y: -0.115215531836
    z: -0.0397091023792
    w: 0.968780348559
---
header: 
  seq: 1584
  stamp: 
    secs: 22232
    nsecs: 765000000
  frame_id: "world"
pose: 
  position: 
    x: -0.0635131699375
    y: -0.743892590213
    z: -0.0374373720546
  orientation: 
    x: -0.215420390839
    y: -0.111477371106
    z: -0.0403145353156
    w: 0.969299535327
---
header: 
  seq: 1585
  stamp: 
    secs: 22233
    nsecs: 257000000
  frame_id: "world"
pose: 
  position: 
    x: -0.0647295966117
    y: -0.738737122819
    z: -0.0318981787037
  orientation: 
    x: -0.213264539631
    y: -0.106427757064
    z: -0.0406989819748
    w: 0.970327244556
---
header: 
  seq: 1586
  stamp: 
    secs: 22233
    nsecs: 880000000
  frame_id: "world"
pose: 
  position: 
    x: -0.0474124003598
    y: -0.738787873889
    z: -0.0337690547199
  orientation: 
    x: -0.22263577587
    y: -0.0999038036887
    z: -0.0586418030984
    w: 0.967994669531
---
header: 
  seq: 1587
  stamp: 
    secs: 22234
    nsecs: 481000000
  frame_id: "world"
pose: 
  position: 
    x: -0.0428964579501
    y: -0.73268093818
    z: -0.0354844738016
  orientation: 
    x: -0.211477260418
    y: -0.0885092056341
    z: -0.040843828056
    w: 0.972509779156
---
header: 
  seq: 1588
  stamp: 
    secs: 22235
    nsecs:   8000000
  frame_id: "world"
pose: 
  position: 
    x: -0.0398915496834
    y: -0.724499650675
    z: -0.0425267453318
  orientation: 
    x: -0.212887975699
    y: -0.0864469235057
    z: -0.0436798772167
    w: 0.972264216942
---
header: 
  seq: 1589
  stamp: 
    secs: 22235
    nsecs: 389000000
  frame_id: "world"
pose: 
  position: 
    x: -0.0378991671701
    y: -0.720350360868
    z: -0.0448540708186
  orientation: 
    x: -0.211687087192
    y: -0.0823912015078
    z: -0.0472983083683
    w: 0.972709173934
---
header: 
  seq: 1590
  stamp: 
    secs: 22235
    nsecs: 605000000
  frame_id: "world"
pose: 
  position: 
    x: -0.0368020723146
    y: -0.715859275875
    z: -0.0462814930901
  orientation: 
    x: -0.214040021243
    y: -0.0793808959672
    z: -0.048855632457
    w: 0.972367559022
---
header: 
  seq: 1591
  stamp: 
    secs: 22235
    nsecs: 902000000
  frame_id: "world"
pose: 
  position: 
    x: -0.0344770713215
    y: -0.710077039041
    z: -0.0521200973886
  orientation: 
    x: -0.217470784423
    y: -0.0799271411205
    z: -0.0532517178258
    w: 0.971330203681
---
header: 
  seq: 1592
  stamp: 
    secs: 22236
    nsecs: 563000000
  frame_id: "world"
pose: 
  position: 
    x: -0.0316337665654
    y: -0.701575216574
    z: -0.0530020285773
  orientation: 
    x: -0.214104416391
    y: -0.0960548707243
    z: -0.0411390022468
    w: 0.971205613239
---
header: 
  seq: 1593
  stamp: 
    secs: 22237
    nsecs:  65000000
  frame_id: "world"
pose: 
  position: 
    x: -0.0302045912351
    y: -0.698034667141
    z: -0.054768298612
  orientation: 
    x: -0.215009988825
    y: -0.110190942171
    z: -0.0399274489418
    w: 0.9695537426
---
header: 
  seq: 1594
  stamp: 
    secs: 22237
    nsecs: 593000000
  frame_id: "world"
pose: 
  position: 
    x: -0.0284899101525
    y: -0.693592663035
    z: -0.0556717063539
  orientation: 
    x: -0.21584419476
    y: -0.124484870525
    z: -0.0373117556894
    w: 0.967740995043
---
header: 
  seq: 1595
  stamp: 
    secs: 22238
    nsecs:  78000000
  frame_id: "world"
pose: 
  position: 
    x: -0.0264229138841
    y: -0.68969868939
    z: -0.0567217964881
  orientation: 
    x: -0.216785644613
    y: -0.13798090361
    z: -0.0346801608108
    w: 0.965796324788
---
header: 
  seq: 1596
  stamp: 
    secs: 22238
    nsecs: 587000000
  frame_id: "world"
pose: 
  position: 
    x: -0.023792600473
    y: -0.683934333598
    z: -0.0569948752754
  orientation: 
    x: -0.217574577077
    y: -0.151885232241
    z: -0.0319592314498
    w: 0.963623778848
---
header: 
  seq: 1597
  stamp: 
    secs: 22239
    nsecs:  59000000
  frame_id: "world"
pose: 
  position: 
    x: -0.0185156507745
    y: -0.663329664655
    z: -0.0677230120817
  orientation: 
    x: -0.217958104295
    y: -0.164867272185
    z: -0.0291896506741
    w: 0.961488955541
---
header: 
  seq: 1598
  stamp: 
    secs: 22239
    nsecs: 579000000
  frame_id: "world"
pose: 
  position: 
    x: -0.0122862667421
    y: -0.633611312065
    z: -0.0816971340071
  orientation: 
    x: -0.217767226517
    y: -0.174725317334
    z: -0.026922360056
    w: 0.959856075183
---
header: 
  seq: 1599
  stamp: 
    secs: 22240
    nsecs:  51000000
  frame_id: "world"
pose: 
  position: 
    x: -0.0122472865001
    y: -0.633962830018
    z: -0.0822510083974
  orientation: 
    x: -0.217798781501
    y: -0.174682380796
    z: -0.0269748938673
    w: 0.959855255607
---
header: 
  seq: 1600
  stamp: 
    secs: 22240
    nsecs: 386000000
  frame_id: "world"
pose: 
  position: 
    x: -0.0121057038494
    y: -0.633755912438
    z: -0.0815362762539
  orientation: 
    x: -0.217841453418
    y: -0.174802256765
    z: -0.0270430161957
    w: 0.959821831111
---
header: 
  seq: 1601
  stamp: 
    secs: 22240
    nsecs: 646000000
  frame_id: "world"
pose: 
  position: 
    x: -0.0119049065339
    y: -0.634231576698
    z: -0.0824997355293
  orientation: 
    x: -0.217834554667
    y: -0.174868086693
    z: -0.0269553658168
    w: 0.959813871176
---
