header: 
  seq: 32122
  stamp: 
    secs: 21888
    nsecs: 768000000
  frame_id: "map"
pose: 
  position: 
    x: 6.62808229361
    y: -2.49463845379
    z: 0.0399960441835
  orientation: 
    x: -1.97518194457e-05
    y: 9.64728476713e-07
    z: 0.998816208481
    w: 0.0486434094632
---
header: 
  seq: 32123
  stamp: 
    secs: 21888
    nsecs: 778000000
  frame_id: "map"
pose: 
  position: 
    x: 6.62808386799
    y: -2.4946386073
    z: 0.0399999991779
  orientation: 
    x: 1.11099854954e-11
    y: 4.65006436327e-12
    z: 0.998816208737
    w: 0.0486434082321
---
header: 
  seq: 32124
  stamp: 
    secs: 21888
    nsecs: 788000000
  frame_id: "map"
pose: 
  position: 
    x: 6.62808544248
    y: -2.49463876101
    z: 0.0399941540916
  orientation: 
    x: 1.97518514882e-05
    y: -9.64721260223e-07
    z: 0.998816208526
    w: 0.0486434085456
---
header: 
  seq: 32125
  stamp: 
    secs: 21888
    nsecs: 798000000
  frame_id: "map"
pose: 
  position: 
    x: 6.628082293
    y: -2.49463845272
    z: 0.0399960441835
  orientation: 
    x: -1.97518194462e-05
    y: 9.64728467766e-07
    z: 0.998816208503
    w: 0.0486434090107
---
header: 
  seq: 32126
  stamp: 
    secs: 21888
    nsecs: 808000000
  frame_id: "map"
pose: 
  position: 
    x: 6.62808386738
    y: -2.49463860623
    z: 0.0399999991779
  orientation: 
    x: 1.11100053939e-11
    y: 4.65005321865e-12
    z: 0.998816208759
    w: 0.0486434077796
---
header: 
  seq: 32127
  stamp: 
    secs: 21888
    nsecs: 818000000
  frame_id: "map"
pose: 
  position: 
    x: 6.62808544187
    y: -2.49463875995
    z: 0.0399941540916
  orientation: 
    x: 1.97518514887e-05
    y: -9.64721251294e-07
    z: 0.998816208548
    w: 0.0486434080931
---
header: 
  seq: 32128
  stamp: 
    secs: 21888
    nsecs: 828000000
  frame_id: "map"
pose: 
  position: 
    x: 6.6280822924
    y: -2.49463845166
    z: 0.0399960441835
  orientation: 
    x: -1.97518194466e-05
    y: 9.64728458823e-07
    z: 0.998816208525
    w: 0.0486434085581
---
header: 
  seq: 32129
  stamp: 
    secs: 21888
    nsecs: 838000000
  frame_id: "map"
pose: 
  position: 
    x: 6.62808386678
    y: -2.49463860517
    z: 0.0399999991779
  orientation: 
    x: 1.11100015145e-11
    y: 4.65004441141e-12
    z: 0.998816208781
    w: 0.048643407327
---
header: 
  seq: 32130
  stamp: 
    secs: 21888
    nsecs: 848000000
  frame_id: "map"
pose: 
  position: 
    x: 6.62808544127
    y: -2.49463875888
    z: 0.0399941540916
  orientation: 
    x: 1.97518514891e-05
    y: -9.64721242319e-07
    z: 0.99881620857
    w: 0.0486434076405
---
header: 
  seq: 32131
  stamp: 
    secs: 21888
    nsecs: 858000000
  frame_id: "map"
pose: 
  position: 
    x: 6.62808229179
    y: -2.49463845059
    z: 0.0399960441835
  orientation: 
    x: -1.9751819447e-05
    y: 9.64728449895e-07
    z: 0.998816208547
    w: 0.0486434081055
---
header: 
  seq: 32132
  stamp: 
    secs: 21888
    nsecs: 868000000
  frame_id: "map"
pose: 
  position: 
    x: 6.62808386617
    y: -2.4946386041
    z: 0.0399999991779
  orientation: 
    x: 1.1109993505e-11
    y: 4.65005582031e-12
    z: 0.998816208803
    w: 0.0486434068744
---
header: 
  seq: 32133
  stamp: 
    secs: 21888
    nsecs: 878000000
  frame_id: "map"
pose: 
  position: 
    x: 6.62808544066
    y: -2.49463875782
    z: 0.0399941540916
  orientation: 
    x: 1.97518514896e-05
    y: -9.6472123338e-07
    z: 0.998816208592
    w: 0.0486434071879
---
header: 
  seq: 32134
  stamp: 
    secs: 21888
    nsecs: 888000000
  frame_id: "map"
pose: 
  position: 
    x: 6.62808229118
    y: -2.49463844952
    z: 0.0399960441835
  orientation: 
    x: -1.97518194475e-05
    y: 9.64728440951e-07
    z: 0.998816208569
    w: 0.0486434076529
---
header: 
  seq: 32135
  stamp: 
    secs: 21888
    nsecs: 898000000
  frame_id: "map"
pose: 
  position: 
    x: 6.62808386557
    y: -2.49463860303
    z: 0.0399999991779
  orientation: 
    x: 1.11100064138e-11
    y: 4.65005282923e-12
    z: 0.998816208825
    w: 0.0486434064218
---
header: 
  seq: 32136
  stamp: 
    secs: 21888
    nsecs: 908000000
  frame_id: "map"
pose: 
  position: 
    x: 6.62808544006
    y: -2.49463875675
    z: 0.0399941540916
  orientation: 
    x: 1.975185149e-05
    y: -9.64721224462e-07
    z: 0.998816208614
    w: 0.0486434067353
---
header: 
  seq: 32137
  stamp: 
    secs: 21888
    nsecs: 918000000
  frame_id: "map"
pose: 
  position: 
    x: 6.62808229058
    y: -2.49463844846
    z: 0.0399960441835
  orientation: 
    x: -1.97518194479e-05
    y: 9.64728431995e-07
    z: 0.998816208591
    w: 0.0486434072003
---
header: 
  seq: 32138
  stamp: 
    secs: 21888
    nsecs: 928000000
  frame_id: "map"
pose: 
  position: 
    x: 6.62808386496
    y: -2.49463860197
    z: 0.0399999991779
  orientation: 
    x: 1.11100088803e-11
    y: 4.65004197725e-12
    z: 0.998816208847
    w: 0.0486434059693
---
header: 
  seq: 32139
  stamp: 
    secs: 21888
    nsecs: 938000000
  frame_id: "map"
pose: 
  position: 
    x: 6.62808543945
    y: -2.49463875568
    z: 0.0399941540916
  orientation: 
    x: 1.97518514905e-05
    y: -9.64721215505e-07
    z: 0.998816208636
    w: 0.0486434062827
---
header: 
  seq: 32140
  stamp: 
    secs: 21888
    nsecs: 948000000
  frame_id: "map"
pose: 
  position: 
    x: 6.62808228997
    y: -2.49463844739
    z: 0.0399960441835
  orientation: 
    x: -1.97518194484e-05
    y: 9.64728423056e-07
    z: 0.998816208613
    w: 0.0486434067478
---
header: 
  seq: 32141
  stamp: 
    secs: 21888
    nsecs: 958000000
  frame_id: "map"
pose: 
  position: 
    x: 6.62808386435
    y: -2.4946386009
    z: 0.0399999991779
  orientation: 
    x: 1.1110000244e-11
    y: 4.65005207833e-12
    z: 0.998816208869
    w: 0.0486434055167
---
header: 
  seq: 32142
  stamp: 
    secs: 21888
    nsecs: 968000000
  frame_id: "map"
pose: 
  position: 
    x: 6.62808543884
    y: -2.49463875462
    z: 0.0399941540916
  orientation: 
    x: 1.97518514909e-05
    y: -9.6472120658e-07
    z: 0.998816208658
    w: 0.0486434058302
---
header: 
  seq: 32143
  stamp: 
    secs: 21888
    nsecs: 978000000
  frame_id: "map"
pose: 
  position: 
    x: 6.62808228937
    y: -2.49463844632
    z: 0.0399960441835
  orientation: 
    x: -1.97518194488e-05
    y: 9.64728414123e-07
    z: 0.998816208635
    w: 0.0486434062952
---
header: 
  seq: 32144
  stamp: 
    secs: 21888
    nsecs: 988000000
  frame_id: "map"
pose: 
  position: 
    x: 6.62808386375
    y: -2.49463859983
    z: 0.0399999991779
  orientation: 
    x: 1.11100114485e-11
    y: 4.65004555258e-12
    z: 0.998816208891
    w: 0.0486434050641
---
header: 
  seq: 32145
  stamp: 
    secs: 21888
    nsecs: 998000000
  frame_id: "map"
pose: 
  position: 
    x: 6.62808543824
    y: -2.49463875355
    z: 0.0399941540916
  orientation: 
    x: 1.97518514913e-05
    y: -9.64721197627e-07
    z: 0.99881620868
    w: 0.0486434053776
---
header: 
  seq: 32146
  stamp: 
    secs: 21889
    nsecs:   8000000
  frame_id: "map"
pose: 
  position: 
    x: 6.62808228876
    y: -2.49463844526
    z: 0.0399960441835
  orientation: 
    x: -1.97518194492e-05
    y: 9.6472840518e-07
    z: 0.998816208658
    w: 0.0486434058426
---
header: 
  seq: 32147
  stamp: 
    secs: 21889
    nsecs:  18000000
  frame_id: "map"
pose: 
  position: 
    x: 6.62808386314
    y: -2.49463859877
    z: 0.0399999991779
  orientation: 
    x: 1.1110014674e-11
    y: 4.65004196921e-12
    z: 0.998816208913
    w: 0.0486434046115
---
header: 
  seq: 32148
  stamp: 
    secs: 21889
    nsecs:  28000000
  frame_id: "map"
pose: 
  position: 
    x: 6.62808543763
    y: -2.49463875248
    z: 0.0399941540916
  orientation: 
    x: 1.97518514917e-05
    y: -9.64721188711e-07
    z: 0.998816208702
    w: 0.048643404925
---
header: 
  seq: 32149
  stamp: 
    secs: 21889
    nsecs:  38000000
  frame_id: "map"
pose: 
  position: 
    x: 6.62808228816
    y: -2.49463844419
    z: 0.0399960441835
  orientation: 
    x: -1.97518194497e-05
    y: 9.6472839623e-07
    z: 0.99881620868
    w: 0.04864340539
---
header: 
  seq: 32150
  stamp: 
    secs: 21889
    nsecs:  48000000
  frame_id: "map"
pose: 
  position: 
    x: 6.62808386254
    y: -2.4946385977
    z: 0.0399999991779
  orientation: 
    x: 1.11100104761e-11
    y: 4.6500481536e-12
    z: 0.998816208935
    w: 0.048643404159
---
header: 
  seq: 32151
  stamp: 
    secs: 21889
    nsecs:  58000000
  frame_id: "map"
pose: 
  position: 
    x: 6.62808543703
    y: -2.49463875142
    z: 0.0399941540916
  orientation: 
    x: 1.97518514922e-05
    y: -9.64721179755e-07
    z: 0.998816208724
    w: 0.0486434044724
---
header: 
  seq: 32152
  stamp: 
    secs: 21889
    nsecs:  68000000
  frame_id: "map"
pose: 
  position: 
    x: 6.62808228755
    y: -2.49463844313
    z: 0.0399960441835
  orientation: 
    x: -1.97518194501e-05
    y: 9.64728387292e-07
    z: 0.998816208702
    w: 0.0486434049375
---
header: 
  seq: 32153
  stamp: 
    secs: 21889
    nsecs:  88000000
  frame_id: "map"
pose: 
  position: 
    x: 6.62808543642
    y: -2.49463875035
    z: 0.0399941540916
  orientation: 
    x: 1.97518514927e-05
    y: -9.64721170795e-07
    z: 0.998816208746
    w: 0.0486434040199
---
header: 
  seq: 32154
  stamp: 
    secs: 21889
    nsecs:  98000000
  frame_id: "map"
pose: 
  position: 
    x: 6.62808228695
    y: -2.49463844206
    z: 0.0399960441835
  orientation: 
    x: -1.97518194505e-05
    y: 9.6472837836e-07
    z: 0.998816208724
    w: 0.0486434044849
---
header: 
  seq: 32155
  stamp: 
    secs: 21889
    nsecs: 108000000
  frame_id: "map"
pose: 
  position: 
    x: 6.62808386133
    y: -2.49463859557
    z: 0.0399999991779
  orientation: 
    x: 1.11100067153e-11
    y: 4.6500564342e-12
    z: 0.998816208979
    w: 0.0486434032538
---
header: 
  seq: 32156
  stamp: 
    secs: 21889
    nsecs: 118000000
  frame_id: "map"
pose: 
  position: 
    x: 6.62808543582
    y: -2.49463874929
    z: 0.0399941540916
  orientation: 
    x: 1.9751851493e-05
    y: -9.64721161852e-07
    z: 0.998816208768
    w: 0.0486434035673
---
header: 
  seq: 32157
  stamp: 
    secs: 21889
    nsecs: 128000000
  frame_id: "map"
pose: 
  position: 
    x: 6.62808228634
    y: -2.49463844099
    z: 0.0399960441835
  orientation: 
    x: -1.9751819451e-05
    y: 9.64728369413e-07
    z: 0.998816208746
    w: 0.0486434040323
---
header: 
  seq: 32158
  stamp: 
    secs: 21889
    nsecs: 138000000
  frame_id: "map"
pose: 
  position: 
    x: 6.62808386072
    y: -2.4946385945
    z: 0.0399999991779
  orientation: 
    x: 1.1110008118e-11
    y: 4.65003842882e-12
    z: 0.998816209001
    w: 0.0486434028012
---
header: 
  seq: 32159
  stamp: 
    secs: 21889
    nsecs: 148000000
  frame_id: "map"
pose: 
  position: 
    x: 6.62808543521
    y: -2.49463874822
    z: 0.0399941540916
  orientation: 
    x: 1.97518514935e-05
    y: -9.64721152924e-07
    z: 0.99881620879
    w: 0.0486434031147
---
header: 
  seq: 32160
  stamp: 
    secs: 21889
    nsecs: 158000000
  frame_id: "map"
pose: 
  position: 
    x: 6.62808228573
    y: -2.49463843993
    z: 0.0399960441835
  orientation: 
    x: -1.97518194514e-05
    y: 9.64728360471e-07
    z: 0.998816208768
    w: 0.0486434035797
---
header: 
  seq: 32161
  stamp: 
    secs: 21889
    nsecs: 168000000
  frame_id: "map"
pose: 
  position: 
    x: 6.62808386012
    y: -2.49463859344
    z: 0.0399999991779
  orientation: 
    x: 1.11100084941e-11
    y: 4.65004905951e-12
    z: 0.998816209023
    w: 0.0486434023486
---
header: 
  seq: 32162
  stamp: 
    secs: 21889
    nsecs: 178000000
  frame_id: "map"
pose: 
  position: 
    x: 6.6280854346
    y: -2.49463874715
    z: 0.0399941540916
  orientation: 
    x: 1.97518514939e-05
    y: -9.64721143989e-07
    z: 0.998816208812
    w: 0.0486434026621
---
header: 
  seq: 32163
  stamp: 
    secs: 21889
    nsecs: 188000000
  frame_id: "map"
pose: 
  position: 
    x: 6.62808228513
    y: -2.49463843886
    z: 0.0399960441835
  orientation: 
    x: -1.97518194518e-05
    y: 9.64728351529e-07
    z: 0.99881620879
    w: 0.0486434031272
---
header: 
  seq: 32164
  stamp: 
    secs: 21889
    nsecs: 198000000
  frame_id: "map"
pose: 
  position: 
    x: 6.62808385951
    y: -2.49463859237
    z: 0.0399999991779
  orientation: 
    x: 1.11100100357e-11
    y: 4.65004537724e-12
    z: 0.998816209045
    w: 0.0486434018961
---
header: 
  seq: 32165
  stamp: 
    secs: 21889
    nsecs: 208000000
  frame_id: "map"
pose: 
  position: 
    x: 6.628085434
    y: -2.49463874609
    z: 0.0399941540916
  orientation: 
    x: 1.97518514944e-05
    y: -9.64721135036e-07
    z: 0.998816208834
    w: 0.0486434022096
---
header: 
  seq: 32166
  stamp: 
    secs: 21889
    nsecs: 218000000
  frame_id: "map"
pose: 
  position: 
    x: 6.62808228452
    y: -2.49463843779
    z: 0.0399960441835
  orientation: 
    x: -1.97518194523e-05
    y: 9.64728342588e-07
    z: 0.998816208812
    w: 0.0486434026746
---
header: 
  seq: 32167
  stamp: 
    secs: 21889
    nsecs: 228000000
  frame_id: "map"
pose: 
  position: 
    x: 6.6280838589
    y: -2.4946385913
    z: 0.0399999991779
  orientation: 
    x: 1.11099986041e-11
    y: 4.65004434259e-12
    z: 0.998816209068
    w: 0.0486434014435
---
header: 
  seq: 32168
  stamp: 
    secs: 21889
    nsecs: 238000000
  frame_id: "map"
pose: 
  position: 
    x: 6.62808543339
    y: -2.49463874502
    z: 0.0399941540916
  orientation: 
    x: 1.97518514948e-05
    y: -9.64721126119e-07
    z: 0.998816208856
    w: 0.048643401757
---
header: 
  seq: 32169
  stamp: 
    secs: 21889
    nsecs: 248000000
  frame_id: "map"
pose: 
  position: 
    x: 6.62808228392
    y: -2.49463843673
    z: 0.0399960441835
  orientation: 
    x: -1.97518194527e-05
    y: 9.64728333649e-07
    z: 0.998816208834
    w: 0.048643402222
---
header: 
  seq: 32170
  stamp: 
    secs: 21889
    nsecs: 258000000
  frame_id: "map"
pose: 
  position: 
    x: 6.6280838583
    y: -2.49463859024
    z: 0.0399999991779
  orientation: 
    x: 1.11099961003e-11
    y: 4.65005000776e-12
    z: 0.99881620909
    w: 0.0486434009909
---
header: 
  seq: 32171
  stamp: 
    secs: 21889
    nsecs: 268000000
  frame_id: "map"
pose: 
  position: 
    x: 6.62808543279
    y: -2.49463874395
    z: 0.0399941540916
  orientation: 
    x: 1.97518514953e-05
    y: -9.64721117137e-07
    z: 0.998816208879
    w: 0.0486434013044
---
header: 
  seq: 32172
  stamp: 
    secs: 21889
    nsecs: 278000000
  frame_id: "map"
pose: 
  position: 
    x: 6.62808228331
    y: -2.49463843566
    z: 0.0399960441835
  orientation: 
    x: -1.97518194531e-05
    y: 9.6472832471e-07
    z: 0.998816208856
    w: 0.0486434017694
---
header: 
  seq: 32173
  stamp: 
    secs: 21889
    nsecs: 288000000
  frame_id: "map"
pose: 
  position: 
    x: 6.62808385769
    y: -2.49463858917
    z: 0.0399999991779
  orientation: 
    x: 1.11100013858e-11
    y: 4.65004065101e-12
    z: 0.998816209112
    w: 0.0486434005383
---
header: 
  seq: 32174
  stamp: 
    secs: 21889
    nsecs: 298000000
  frame_id: "map"
pose: 
  position: 
    x: 6.62808543218
    y: -2.49463874289
    z: 0.0399941540916
  orientation: 
    x: 1.97518514957e-05
    y: -9.64721108216e-07
    z: 0.998816208901
    w: 0.0486434008518
---
header: 
  seq: 32175
  stamp: 
    secs: 21889
    nsecs: 308000000
  frame_id: "map"
pose: 
  position: 
    x: 6.62808228271
    y: -2.4946384346
    z: 0.0399960441835
  orientation: 
    x: -1.97518194536e-05
    y: 9.64728315777e-07
    z: 0.998816208878
    w: 0.0486434013169
---
header: 
  seq: 32176
  stamp: 
    secs: 21889
    nsecs: 318000000
  frame_id: "map"
pose: 
  position: 
    x: 6.62808385709
    y: -2.49463858811
    z: 0.0399999991779
  orientation: 
    x: 1.11100018838e-11
    y: 4.65005337133e-12
    z: 0.998816209134
    w: 0.0486434000858
---
header: 
  seq: 32177
  stamp: 
    secs: 21889
    nsecs: 328000000
  frame_id: "map"
pose: 
  position: 
    x: 6.62808543158
    y: -2.49463874182
    z: 0.0399941540916
  orientation: 
    x: 1.97518514961e-05
    y: -9.64721099269e-07
    z: 0.998816208923
    w: 0.0486434003993
---
header: 
  seq: 32178
  stamp: 
    secs: 21889
    nsecs: 338000000
  frame_id: "map"
pose: 
  position: 
    x: 6.6280822821
    y: -2.49463843353
    z: 0.0399960441835
  orientation: 
    x: -1.9751819454e-05
    y: 9.64728306823e-07
    z: 0.9988162089
    w: 0.0486434008643
---
header: 
  seq: 32179
  stamp: 
    secs: 21889
    nsecs: 348000000
  frame_id: "map"
pose: 
  position: 
    x: 6.62808385648
    y: -2.49463858704
    z: 0.0399999991779
  orientation: 
    x: 1.11099974454e-11
    y: 4.65005762386e-12
    z: 0.998816209156
    w: 0.0486433996332
---
header: 
  seq: 32180
  stamp: 
    secs: 21889
    nsecs: 358000000
  frame_id: "map"
pose: 
  position: 
    x: 6.62808543097
    y: -2.49463874076
    z: 0.0399941540916
  orientation: 
    x: 1.97518514966e-05
    y: -9.64721090329e-07
    z: 0.998816208945
    w: 0.0486433999467
---
header: 
  seq: 32181
  stamp: 
    secs: 21889
    nsecs: 368000000
  frame_id: "map"
pose: 
  position: 
    x: 6.62808228149
    y: -2.49463843246
    z: 0.0399960441835
  orientation: 
    x: -1.97518194545e-05
    y: 9.64728297877e-07
    z: 0.998816208922
    w: 0.0486434004117
---
header: 
  seq: 32182
  stamp: 
    secs: 21889
    nsecs: 378000000
  frame_id: "map"
pose: 
  position: 
    x: 6.62808385588
    y: -2.49463858597
    z: 0.0399999991779
  orientation: 
    x: 1.11099844519e-11
    y: 4.65005255648e-12
    z: 0.998816209178
    w: 0.0486433991806
---
header: 
  seq: 32183
  stamp: 
    secs: 21889
    nsecs: 388000000
  frame_id: "map"
pose: 
  position: 
    x: 6.62808543037
    y: -2.49463873969
    z: 0.0399941540916
  orientation: 
    x: 1.9751851497e-05
    y: -9.6472108138e-07
    z: 0.998816208967
    w: 0.0486433994941
---
header: 
  seq: 32184
  stamp: 
    secs: 21889
    nsecs: 398000000
  frame_id: "map"
pose: 
  position: 
    x: 6.62808228089
    y: -2.4946384314
    z: 0.0399960441835
  orientation: 
    x: -1.97518194549e-05
    y: 9.64728288944e-07
    z: 0.998816208944
    w: 0.0486433999591
---
header: 
  seq: 32185
  stamp: 
    secs: 21889
    nsecs: 408000000
  frame_id: "map"
pose: 
  position: 
    x: 6.62808385527
    y: -2.49463858491
    z: 0.0399999991779
  orientation: 
    x: 1.11100083518e-11
    y: 4.65004297294e-12
    z: 0.9988162092
    w: 0.048643398728
---
header: 
  seq: 32186
  stamp: 
    secs: 21889
    nsecs: 418000000
  frame_id: "map"
pose: 
  position: 
    x: 6.62808542976
    y: -2.49463873862
    z: 0.0399941540916
  orientation: 
    x: 1.97518514974e-05
    y: -9.64721072465e-07
    z: 0.998816208989
    w: 0.0486433990415
---
header: 
  seq: 32187
  stamp: 
    secs: 21889
    nsecs: 428000000
  frame_id: "map"
pose: 
  position: 
    x: 6.62808228028
    y: -2.49463843033
    z: 0.0399960441835
  orientation: 
    x: -1.97518194553e-05
    y: 9.64728280009e-07
    z: 0.998816208966
    w: 0.0486433995066
---
header: 
  seq: 32188
  stamp: 
    secs: 21889
    nsecs: 438000000
  frame_id: "map"
pose: 
  position: 
    x: 6.62808385466
    y: -2.49463858384
    z: 0.0399999991779
  orientation: 
    x: 1.11100006065e-11
    y: 4.65004810299e-12
    z: 0.998816209222
    w: 0.0486433982755
---
header: 
  seq: 32189
  stamp: 
    secs: 21889
    nsecs: 448000000
  frame_id: "map"
pose: 
  position: 
    x: 6.62808542915
    y: -2.49463873756
    z: 0.0399941540916
  orientation: 
    x: 1.97518514979e-05
    y: -9.64721063518e-07
    z: 0.998816209011
    w: 0.048643398589
---
header: 
  seq: 32190
  stamp: 
    secs: 21889
    nsecs: 458000000
  frame_id: "map"
pose: 
  position: 
    x: 6.62808227968
    y: -2.49463842926
    z: 0.0399960441835
  orientation: 
    x: -1.97518194558e-05
    y: 9.64728271049e-07
    z: 0.998816208988
    w: 0.048643399054
---
header: 
  seq: 32191
  stamp: 
    secs: 21889
    nsecs: 468000000
  frame_id: "map"
pose: 
  position: 
    x: 6.62808385406
    y: -2.49463858277
    z: 0.0399999991779
  orientation: 
    x: 1.11100017653e-11
    y: 4.65004916263e-12
    z: 0.998816209244
    w: 0.0486433978229
---
header: 
  seq: 32192
  stamp: 
    secs: 21889
    nsecs: 478000000
  frame_id: "map"
pose: 
  position: 
    x: 6.62808542855
    y: -2.49463873649
    z: 0.0399941540916
  orientation: 
    x: 1.97518514983e-05
    y: -9.6472105459e-07
    z: 0.998816209033
    w: 0.0486433981364
---
header: 
  seq: 32193
  stamp: 
    secs: 21889
    nsecs: 488000000
  frame_id: "map"
pose: 
  position: 
    x: 6.62808227907
    y: -2.4946384282
    z: 0.0399960441835
  orientation: 
    x: -1.97518194562e-05
    y: 9.64728262122e-07
    z: 0.99881620901
    w: 0.0486433986014
---
header: 
  seq: 32194
  stamp: 
    secs: 21889
    nsecs: 498000000
  frame_id: "map"
pose: 
  position: 
    x: 6.62808385345
    y: -2.49463858171
    z: 0.0399999991779
  orientation: 
    x: 1.11099910554e-11
    y: 4.65005662902e-12
    z: 0.998816209266
    w: 0.0486433973703
---
header: 
  seq: 32195
  stamp: 
    secs: 21889
    nsecs: 508000000
  frame_id: "map"
pose: 
  position: 
    x: 6.62808542794
    y: -2.49463873542
    z: 0.0399941540916
  orientation: 
    x: 1.97518514987e-05
    y: -9.64721045624e-07
    z: 0.998816209055
    w: 0.0486433976838
---
header: 
  seq: 32196
  stamp: 
    secs: 21889
    nsecs: 518000000
  frame_id: "map"
pose: 
  position: 
    x: 6.62808227847
    y: -2.49463842713
    z: 0.0399960441835
  orientation: 
    x: -1.97518194566e-05
    y: 9.64728253172e-07
    z: 0.998816209032
    w: 0.0486433981488
---
header: 
  seq: 32197
  stamp: 
    secs: 21889
    nsecs: 528000000
  frame_id: "map"
pose: 
  position: 
    x: 6.62808385285
    y: -2.49463858064
    z: 0.0399999991779
  orientation: 
    x: 1.11100052686e-11
    y: 4.65005611889e-12
    z: 0.998816209288
    w: 0.0486433969177
---
header: 
  seq: 32198
  stamp: 
    secs: 21889
    nsecs: 538000000
  frame_id: "map"
pose: 
  position: 
    x: 6.62808542734
    y: -2.49463873436
    z: 0.0399941540916
  orientation: 
    x: 1.97518514992e-05
    y: -9.64721036691e-07
    z: 0.998816209077
    w: 0.0486433972312
---
header: 
  seq: 32199
  stamp: 
    secs: 21889
    nsecs: 548000000
  frame_id: "map"
pose: 
  position: 
    x: 6.62808227786
    y: -2.49463842607
    z: 0.0399960441835
  orientation: 
    x: -1.97518194571e-05
    y: 9.64728244242e-07
    z: 0.998816209054
    w: 0.0486433976962
---
header: 
  seq: 32200
  stamp: 
    secs: 21889
    nsecs: 558000000
  frame_id: "map"
pose: 
  position: 
    x: 6.62808385224
    y: -2.49463857958
    z: 0.0399999991779
  orientation: 
    x: 1.11100121905e-11
    y: 4.65004144341e-12
    z: 0.99881620931
    w: 0.0486433964652
---
header: 
  seq: 32201
  stamp: 
    secs: 21889
    nsecs: 568000000
  frame_id: "map"
pose: 
  position: 
    x: 6.62808542673
    y: -2.49463873329
    z: 0.0399941540916
  orientation: 
    x: 1.97518514996e-05
    y: -9.64721027767e-07
    z: 0.998816209099
    w: 0.0486433967787
---
header: 
  seq: 32202
  stamp: 
    secs: 21889
    nsecs: 578000000
  frame_id: "map"
pose: 
  position: 
    x: 6.62808227725
    y: -2.494638425
    z: 0.0399960441835
  orientation: 
    x: -1.97518194575e-05
    y: 9.64728235292e-07
    z: 0.998816209076
    w: 0.0486433972437
---
header: 
  seq: 32203
  stamp: 
    secs: 21889
    nsecs: 588000000
  frame_id: "map"
pose: 
  position: 
    x: 6.62808385164
    y: -2.49463857851
    z: 0.0399999991779
  orientation: 
    x: 1.11099943114e-11
    y: 4.65005220793e-12
    z: 0.998816209332
    w: 0.0486433960126
---
header: 
  seq: 32204
  stamp: 
    secs: 21889
    nsecs: 598000000
  frame_id: "map"
pose: 
  position: 
    x: 6.62808542613
    y: -2.49463873223
    z: 0.0399941540916
  orientation: 
    x: 1.97518515e-05
    y: -9.64721018788e-07
    z: 0.998816209121
    w: 0.0486433963261
---
header: 
  seq: 32205
  stamp: 
    secs: 21889
    nsecs: 608000000
  frame_id: "map"
pose: 
  position: 
    x: 6.62808227665
    y: -2.49463842393
    z: 0.0399960441835
  orientation: 
    x: -1.9751819458e-05
    y: 9.64728226346e-07
    z: 0.998816209098
    w: 0.0486433967911
---
header: 
  seq: 32206
  stamp: 
    secs: 21889
    nsecs: 618000000
  frame_id: "map"
pose: 
  position: 
    x: 6.62808385103
    y: -2.49463857744
    z: 0.0399999991779
  orientation: 
    x: 1.11100045435e-11
    y: 4.65004721573e-12
    z: 0.998816209354
    w: 0.04864339556
---
header: 
  seq: 32207
  stamp: 
    secs: 21889
    nsecs: 628000000
  frame_id: "map"
pose: 
  position: 
    x: 6.62808542552
    y: -2.49463873116
    z: 0.0399941540916
  orientation: 
    x: 1.97518515005e-05
    y: -9.6472100987e-07
    z: 0.998816209143
    w: 0.0486433958735
---
header: 
  seq: 32208
  stamp: 
    secs: 21889
    nsecs: 638000000
  frame_id: "map"
pose: 
  position: 
    x: 6.62808227604
    y: -2.49463842287
    z: 0.0399960441835
  orientation: 
    x: -1.97518194584e-05
    y: 9.64728217412e-07
    z: 0.99881620912
    w: 0.0486433963385
---
header: 
  seq: 32209
  stamp: 
    secs: 21889
    nsecs: 648000000
  frame_id: "map"
pose: 
  position: 
    x: 6.62808385042
    y: -2.49463857638
    z: 0.0399999991779
  orientation: 
    x: 1.1110002016e-11
    y: 4.65004159312e-12
    z: 0.998816209376
    w: 0.0486433951074
---
header: 
  seq: 32210
  stamp: 
    secs: 21889
    nsecs: 658000000
  frame_id: "map"
pose: 
  position: 
    x: 6.62808542491
    y: -2.49463873009
    z: 0.0399941540916
  orientation: 
    x: 1.97518515009e-05
    y: -9.64721000909e-07
    z: 0.998816209165
    w: 0.0486433954209
---
header: 
  seq: 32211
  stamp: 
    secs: 21889
    nsecs: 668000000
  frame_id: "map"
pose: 
  position: 
    x: 6.62808227544
    y: -2.4946384218
    z: 0.0399960441835
  orientation: 
    x: -1.97518194588e-05
    y: 9.64728208471e-07
    z: 0.998816209142
    w: 0.0486433958859
---
header: 
  seq: 32212
  stamp: 
    secs: 21889
    nsecs: 678000000
  frame_id: "map"
pose: 
  position: 
    x: 6.62808384982
    y: -2.49463857531
    z: 0.0399999991779
  orientation: 
    x: 1.11100150874e-11
    y: 4.65003555378e-12
    z: 0.998816209398
    w: 0.0486433946549
---
header: 
  seq: 32213
  stamp: 
    secs: 21889
    nsecs: 688000000
  frame_id: "map"
pose: 
  position: 
    x: 6.62808542431
    y: -2.49463872903
    z: 0.0399941540916
  orientation: 
    x: 1.97518515014e-05
    y: -9.64720991994e-07
    z: 0.998816209187
    w: 0.0486433949684
---
header: 
  seq: 32214
  stamp: 
    secs: 21889
    nsecs: 698000000
  frame_id: "map"
pose: 
  position: 
    x: 6.62808227483
    y: -2.49463842073
    z: 0.0399960441835
  orientation: 
    x: -1.97518194593e-05
    y: 9.64728199532e-07
    z: 0.998816209164
    w: 0.0486433954334
---
header: 
  seq: 32215
  stamp: 
    secs: 21889
    nsecs: 708000000
  frame_id: "map"
pose: 
  position: 
    x: 6.62808384921
    y: -2.49463857424
    z: 0.0399999991779
  orientation: 
    x: 1.11100054888e-11
    y: 4.65005200443e-12
    z: 0.99881620942
    w: 0.0486433942023
---
header: 
  seq: 32216
  stamp: 
    secs: 21889
    nsecs: 718000000
  frame_id: "map"
pose: 
  position: 
    x: 6.6280854237
    y: -2.49463872796
    z: 0.0399941540916
  orientation: 
    x: 1.97518515018e-05
    y: -9.64720983062e-07
    z: 0.998816209209
    w: 0.0486433945158
---
header: 
  seq: 32217
  stamp: 
    secs: 21889
    nsecs: 728000000
  frame_id: "map"
pose: 
  position: 
    x: 6.62808227423
    y: -2.49463841967
    z: 0.0399960441835
  orientation: 
    x: -1.97518194597e-05
    y: 9.64728190582e-07
    z: 0.998816209186
    w: 0.0486433949808
---
header: 
  seq: 32218
  stamp: 
    secs: 21889
    nsecs: 738000000
  frame_id: "map"
pose: 
  position: 
    x: 6.62808384861
    y: -2.49463857318
    z: 0.0399999991779
  orientation: 
    x: 1.11100050992e-11
    y: 4.65003858192e-12
    z: 0.998816209442
    w: 0.0486433937497
---
header: 
  seq: 32219
  stamp: 
    secs: 21889
    nsecs: 748000000
  frame_id: "map"
pose: 
  position: 
    x: 6.6280854231
    y: -2.49463872689
    z: 0.0399941540916
  orientation: 
    x: 1.97518515022e-05
    y: -9.64720974111e-07
    z: 0.998816209231
    w: 0.0486433940632
---
header: 
  seq: 32220
  stamp: 
    secs: 21889
    nsecs: 758000000
  frame_id: "map"
pose: 
  position: 
    x: 6.62808227362
    y: -2.4946384186
    z: 0.0399960441835
  orientation: 
    x: -1.97518194601e-05
    y: 9.64728181644e-07
    z: 0.998816209209
    w: 0.0486433945282
---
header: 
  seq: 32221
  stamp: 
    secs: 21889
    nsecs: 768000000
  frame_id: "map"
pose: 
  position: 
    x: 6.628083848
    y: -2.49463857211
    z: 0.0399999991779
  orientation: 
    x: 1.11099923564e-11
    y: 4.65005996188e-12
    z: 0.998816209464
    w: 0.0486433932971
---
header: 
  seq: 32222
  stamp: 
    secs: 21889
    nsecs: 778000000
  frame_id: "map"
pose: 
  position: 
    x: 6.62808542249
    y: -2.49463872583
    z: 0.0399941540916
  orientation: 
    x: 1.97518515027e-05
    y: -9.64720965165e-07
    z: 0.998816209253
    w: 0.0486433936106
---
header: 
  seq: 32223
  stamp: 
    secs: 21889
    nsecs: 788000000
  frame_id: "map"
pose: 
  position: 
    x: 6.62808227301
    y: -2.49463841754
    z: 0.0399960441835
  orientation: 
    x: -1.97518194606e-05
    y: 9.64728172715e-07
    z: 0.998816209231
    w: 0.0486433940756
---
header: 
  seq: 32224
  stamp: 
    secs: 21889
    nsecs: 798000000
  frame_id: "map"
pose: 
  position: 
    x: 6.6280838474
    y: -2.49463857105
    z: 0.0399999991779
  orientation: 
    x: 1.11100011893e-11
    y: 4.65004552632e-12
    z: 0.998816209486
    w: 0.0486433928446
---
header: 
  seq: 32225
  stamp: 
    secs: 21889
    nsecs: 808000000
  frame_id: "map"
pose: 
  position: 
    x: 6.62808542189
    y: -2.49463872476
    z: 0.0399941540916
  orientation: 
    x: 1.97518515031e-05
    y: -9.64720956211e-07
    z: 0.998816209275
    w: 0.048643393158
---
header: 
  seq: 32226
  stamp: 
    secs: 21889
    nsecs: 818000000
  frame_id: "map"
pose: 
  position: 
    x: 6.62808227241
    y: -2.49463841647
    z: 0.0399960441835
  orientation: 
    x: -1.9751819461e-05
    y: 9.64728163758e-07
    z: 0.998816209253
    w: 0.0486433936231
---
header: 
  seq: 32227
  stamp: 
    secs: 21889
    nsecs: 828000000
  frame_id: "map"
pose: 
  position: 
    x: 6.62808384679
    y: -2.49463856998
    z: 0.0399999991779
  orientation: 
    x: 1.1109992807e-11
    y: 4.65005984922e-12
    z: 0.998816209508
    w: 0.048643392392
---
header: 
  seq: 32228
  stamp: 
    secs: 21889
    nsecs: 838000000
  frame_id: "map"
pose: 
  position: 
    x: 6.62808542128
    y: -2.4946387237
    z: 0.0399941540916
  orientation: 
    x: 1.97518515036e-05
    y: -9.64720947273e-07
    z: 0.998816209297
    w: 0.0486433927055
---
header: 
  seq: 32229
  stamp: 
    secs: 21889
    nsecs: 848000000
  frame_id: "map"
pose: 
  position: 
    x: 6.6280822718
    y: -2.4946384154
    z: 0.0399960441835
  orientation: 
    x: -1.97518194614e-05
    y: 9.64728154821e-07
    z: 0.998816209275
    w: 0.0486433931705
---
header: 
  seq: 32230
  stamp: 
    secs: 21889
    nsecs: 858000000
  frame_id: "map"
pose: 
  position: 
    x: 6.62808384618
    y: -2.49463856891
    z: 0.0399999991779
  orientation: 
    x: 1.11100005184e-11
    y: 4.65005691722e-12
    z: 0.99881620953
    w: 0.0486433919394
---
header: 
  seq: 32231
  stamp: 
    secs: 21889
    nsecs: 868000000
  frame_id: "map"
pose: 
  position: 
    x: 6.62808542067
    y: -2.49463872263
    z: 0.0399941540916
  orientation: 
    x: 1.9751851504e-05
    y: -9.6472093835e-07
    z: 0.998816209319
    w: 0.0486433922529
---
header: 
  seq: 32232
  stamp: 
    secs: 21889
    nsecs: 878000000
  frame_id: "map"
pose: 
  position: 
    x: 6.6280822712
    y: -2.49463841434
    z: 0.0399960441835
  orientation: 
    x: -1.97518194619e-05
    y: 9.6472814589e-07
    z: 0.998816209297
    w: 0.0486433927179
---
header: 
  seq: 32233
  stamp: 
    secs: 21889
    nsecs: 888000000
  frame_id: "map"
pose: 
  position: 
    x: 6.62808384558
    y: -2.49463856785
    z: 0.0399999991779
  orientation: 
    x: 1.11100085314e-11
    y: 4.65004637759e-12
    z: 0.998816209552
    w: 0.0486433914868
---
header: 
  seq: 32234
  stamp: 
    secs: 21889
    nsecs: 898000000
  frame_id: "map"
pose: 
  position: 
    x: 6.62808542007
    y: -2.49463872156
    z: 0.0399941540916
  orientation: 
    x: 1.97518515044e-05
    y: -9.64720929397e-07
    z: 0.998816209341
    w: 0.0486433918003
---
header: 
  seq: 32235
  stamp: 
    secs: 21889
    nsecs: 908000000
  frame_id: "map"
pose: 
  position: 
    x: 6.62808227059
    y: -2.49463841327
    z: 0.0399960441835
  orientation: 
    x: -1.97518194623e-05
    y: 9.64728136937e-07
    z: 0.998816209319
    w: 0.0486433922653
---
header: 
  seq: 32236
  stamp: 
    secs: 21889
    nsecs: 918000000
  frame_id: "map"
pose: 
  position: 
    x: 6.62808384497
    y: -2.49463856678
    z: 0.0399999991779
  orientation: 
    x: 1.1109990249e-11
    y: 4.6500562362e-12
    z: 0.998816209574
    w: 0.0486433910343
---
header: 
  seq: 32237
  stamp: 
    secs: 21889
    nsecs: 928000000
  frame_id: "map"
pose: 
  position: 
    x: 6.62808541946
    y: -2.4946387205
    z: 0.0399941540916
  orientation: 
    x: 1.97518515049e-05
    y: -9.64720920457e-07
    z: 0.998816209363
    w: 0.0486433913477
---
header: 
  seq: 32238
  stamp: 
    secs: 21889
    nsecs: 938000000
  frame_id: "map"
pose: 
  position: 
    x: 6.62808226999
    y: -2.4946384122
    z: 0.0399960441835
  orientation: 
    x: -1.97518194628e-05
    y: 9.64728128003e-07
    z: 0.998816209341
    w: 0.0486433918128
---
header: 
  seq: 32239
  stamp: 
    secs: 21889
    nsecs: 948000000
  frame_id: "map"
pose: 
  position: 
    x: 6.62808384437
    y: -2.49463856571
    z: 0.0399999991779
  orientation: 
    x: 1.11100005083e-11
    y: 4.65004485081e-12
    z: 0.998816209596
    w: 0.0486433905817
---
header: 
  seq: 32240
  stamp: 
    secs: 21889
    nsecs: 958000000
  frame_id: "map"
pose: 
  position: 
    x: 6.62808541886
    y: -2.49463871943
    z: 0.0399941540916
  orientation: 
    x: 1.97518515053e-05
    y: -9.64720911516e-07
    z: 0.998816209385
    w: 0.0486433908952
---
header: 
  seq: 32241
  stamp: 
    secs: 21889
    nsecs: 968000000
  frame_id: "map"
pose: 
  position: 
    x: 6.62808226938
    y: -2.49463841114
    z: 0.0399960441835
  orientation: 
    x: -1.97518194632e-05
    y: 9.64728119047e-07
    z: 0.998816209363
    w: 0.0486433913602
---
header: 
  seq: 32242
  stamp: 
    secs: 21889
    nsecs: 978000000
  frame_id: "map"
pose: 
  position: 
    x: 6.62808384376
    y: -2.49463856465
    z: 0.0399999991779
  orientation: 
    x: 1.11100054482e-11
    y: 4.65004432396e-12
    z: 0.998816209619
    w: 0.0486433901291
---
header: 
  seq: 32243
  stamp: 
    secs: 21889
    nsecs: 988000000
  frame_id: "map"
pose: 
  position: 
    x: 6.62808541825
    y: -2.49463871836
    z: 0.0399941540916
  orientation: 
    x: 1.97518515057e-05
    y: -9.64720902554e-07
    z: 0.998816209408
    w: 0.0486433904426
---
header: 
  seq: 32244
  stamp: 
    secs: 21889
    nsecs: 998000000
  frame_id: "map"
pose: 
  position: 
    x: 6.62808226877
    y: -2.49463841007
    z: 0.0399960441835
  orientation: 
    x: -1.97518194636e-05
    y: 9.64728110119e-07
    z: 0.998816209385
    w: 0.0486433909076
---
header: 
  seq: 32245
  stamp: 
    secs: 21890
    nsecs:   8000000
  frame_id: "map"
pose: 
  position: 
    x: 6.62808384316
    y: -2.49463856358
    z: 0.0399999991779
  orientation: 
    x: 1.1109997032e-11
    y: 4.65005701082e-12
    z: 0.998816209641
    w: 0.0486433896765
---
header: 
  seq: 32246
  stamp: 
    secs: 21890
    nsecs:  18000000
  frame_id: "map"
pose: 
  position: 
    x: 6.62808541765
    y: -2.4946387173
    z: 0.0399941540916
  orientation: 
    x: 1.97518515062e-05
    y: -9.64720893639e-07
    z: 0.99881620943
    w: 0.04864338999
---
header: 
  seq: 32247
  stamp: 
    secs: 21890
    nsecs:  28000000
  frame_id: "map"
pose: 
  position: 
    x: 6.62808226817
    y: -2.49463840901
    z: 0.0399960441835
  orientation: 
    x: -1.97518194641e-05
    y: 9.64728101183e-07
    z: 0.998816209407
    w: 0.048643390455
---
header: 
  seq: 32248
  stamp: 
    secs: 21890
    nsecs:  38000000
  frame_id: "map"
pose: 
  position: 
    x: 6.62808384255
    y: -2.49463856252
    z: 0.0399999991779
  orientation: 
    x: 1.11099974962e-11
    y: 4.65006330914e-12
    z: 0.998816209663
    w: 0.048643389224
---
header: 
  seq: 32249
  stamp: 
    secs: 21890
    nsecs:  48000000
  frame_id: "map"
pose: 
  position: 
    x: 6.62808541704
    y: -2.49463871623
    z: 0.0399941540916
  orientation: 
    x: 1.97518515066e-05
    y: -9.64720884696e-07
    z: 0.998816209452
    w: 0.0486433895374
---
header: 
  seq: 32250
  stamp: 
    secs: 21890
    nsecs:  58000000
  frame_id: "map"
pose: 
  position: 
    x: 6.62808226756
    y: -2.49463840794
    z: 0.0399960441835
  orientation: 
    x: -1.97518194645e-05
    y: 9.64728092234e-07
    z: 0.998816209429
    w: 0.0486433900025
---
header: 
  seq: 32251
  stamp: 
    secs: 21890
    nsecs:  68000000
  frame_id: "map"
pose: 
  position: 
    x: 6.62808384195
    y: -2.49463856145
    z: 0.0399999991779
  orientation: 
    x: 1.11100087889e-11
    y: 4.6500351688e-12
    z: 0.998816209685
    w: 0.0486433887714
---
header: 
  seq: 32252
  stamp: 
    secs: 21890
    nsecs:  78000000
  frame_id: "map"
pose: 
  position: 
    x: 6.62808541643
    y: -2.49463871517
    z: 0.0399941540916
  orientation: 
    x: 1.97518515071e-05
    y: -9.64720875741e-07
    z: 0.998816209474
    w: 0.0486433890849
---
header: 
  seq: 32253
  stamp: 
    secs: 21890
    nsecs:  88000000
  frame_id: "map"
pose: 
  position: 
    x: 6.62808226696
    y: -2.49463840687
    z: 0.0399960441835
  orientation: 
    x: -1.97518194649e-05
    y: 9.64728083295e-07
    z: 0.998816209451
    w: 0.0486433895499
---
header: 
  seq: 32254
  stamp: 
    secs: 21890
    nsecs:  98000000
  frame_id: "map"
pose: 
  position: 
    x: 6.62808384134
    y: -2.49463856038
    z: 0.0399999991779
  orientation: 
    x: 1.11099908419e-11
    y: 4.65005992652e-12
    z: 0.998816209707
    w: 0.0486433883188
---
header: 
  seq: 32255
  stamp: 
    secs: 21890
    nsecs: 108000000
  frame_id: "map"
pose: 
  position: 
    x: 6.62808541583
    y: -2.4946387141
    z: 0.0399941540916
  orientation: 
    x: 1.97518515075e-05
    y: -9.647208668e-07
    z: 0.998816209496
    w: 0.0486433886323
---
header: 
  seq: 32256
  stamp: 
    secs: 21890
    nsecs: 118000000
  frame_id: "map"
pose: 
  position: 
    x: 6.62808226635
    y: -2.49463840581
    z: 0.0399960441835
  orientation: 
    x: -1.97518194654e-05
    y: 9.64728074351e-07
    z: 0.998816209473
    w: 0.0486433890973
---
header: 
  seq: 32257
  stamp: 
    secs: 21890
    nsecs: 128000000
  frame_id: "map"
pose: 
  position: 
    x: 6.62808384073
    y: -2.49463855932
    z: 0.0399999991779
  orientation: 
    x: 1.11100026699e-11
    y: 4.65005187314e-12
    z: 0.998816209729
    w: 0.0486433878662
---
header: 
  seq: 32258
  stamp: 
    secs: 21890
    nsecs: 138000000
  frame_id: "map"
pose: 
  position: 
    x: 6.62808541522
    y: -2.49463871303
    z: 0.0399941540916
  orientation: 
    x: 1.97518515079e-05
    y: -9.64720857853e-07
    z: 0.998816209518
    w: 0.0486433881797
---
header: 
  seq: 32259
  stamp: 
    secs: 21890
    nsecs: 148000000
  frame_id: "map"
pose: 
  position: 
    x: 6.62808226575
    y: -2.49463840474
    z: 0.0399960441835
  orientation: 
    x: -1.97518194658e-05
    y: 9.64728065405e-07
    z: 0.998816209495
    w: 0.0486433886447
---
header: 
  seq: 32260
  stamp: 
    secs: 21890
    nsecs: 158000000
  frame_id: "map"
pose: 
  position: 
    x: 6.62808384013
    y: -2.49463855825
    z: 0.0399999991779
  orientation: 
    x: 1.11100016839e-11
    y: 4.65004084837e-12
    z: 0.998816209751
    w: 0.0486433874137
---
header: 
  seq: 32261
  stamp: 
    secs: 21890
    nsecs: 168000000
  frame_id: "map"
pose: 
  position: 
    x: 6.62808541462
    y: -2.49463871197
    z: 0.0399941540916
  orientation: 
    x: 1.97518515083e-05
    y: -9.64720848922e-07
    z: 0.99881620954
    w: 0.0486433877271
---
header: 
  seq: 32262
  stamp: 
    secs: 21890
    nsecs: 178000000
  frame_id: "map"
pose: 
  position: 
    x: 6.62808226514
    y: -2.49463840367
    z: 0.0399960441835
  orientation: 
    x: -1.97518194663e-05
    y: 9.64728056465e-07
    z: 0.998816209517
    w: 0.0486433881922
---
header: 
  seq: 32263
  stamp: 
    secs: 21890
    nsecs: 188000000
  frame_id: "map"
pose: 
  position: 
    x: 6.62808383952
    y: -2.49463855718
    z: 0.0399999991779
  orientation: 
    x: 1.1109999258e-11
    y: 4.65005427977e-12
    z: 0.998816209773
    w: 0.0486433869611
---
header: 
  seq: 32264
  stamp: 
    secs: 21890
    nsecs: 198000000
  frame_id: "map"
pose: 
  position: 
    x: 6.62808541401
    y: -2.4946387109
    z: 0.0399941540916
  orientation: 
    x: 1.97518515088e-05
    y: -9.64720839974e-07
    z: 0.998816209562
    w: 0.0486433872746
---
header: 
  seq: 32265
  stamp: 
    secs: 21890
    nsecs: 208000000
  frame_id: "map"
pose: 
  position: 
    x: 6.62808226454
    y: -2.49463840261
    z: 0.0399960441835
  orientation: 
    x: -1.97518194667e-05
    y: 9.64728047526e-07
    z: 0.998816209539
    w: 0.0486433877396
---
header: 
  seq: 32266
  stamp: 
    secs: 21890
    nsecs: 218000000
  frame_id: "map"
pose: 
  position: 
    x: 6.62808383892
    y: -2.49463855612
    z: 0.0399999991779
  orientation: 
    x: 1.11100136237e-11
    y: 4.65003872549e-12
    z: 0.998816209795
    w: 0.0486433865085
---
header: 
  seq: 32267
  stamp: 
    secs: 21890
    nsecs: 228000000
  frame_id: "map"
pose: 
  position: 
    x: 6.62808541341
    y: -2.49463870983
    z: 0.0399941540916
  orientation: 
    x: 1.97518515092e-05
    y: -9.64720831044e-07
    z: 0.998816209584
    w: 0.048643386822
---
header: 
  seq: 32268
  stamp: 
    secs: 21890
    nsecs: 238000000
  frame_id: "map"
pose: 
  position: 
    x: 6.62808226393
    y: -2.49463840154
    z: 0.0399960441835
  orientation: 
    x: -1.97518194671e-05
    y: 9.64728038582e-07
    z: 0.998816209561
    w: 0.048643387287
---
header: 
  seq: 32269
  stamp: 
    secs: 21890
    nsecs: 248000000
  frame_id: "map"
pose: 
  position: 
    x: 6.62808383831
    y: -2.49463855505
    z: 0.0399999991779
  orientation: 
    x: 1.11100073286e-11
    y: 4.65004364273e-12
    z: 0.998816209817
    w: 0.0486433860559
---
header: 
  seq: 32270
  stamp: 
    secs: 21890
    nsecs: 258000000
  frame_id: "map"
pose: 
  position: 
    x: 6.6280854128
    y: -2.49463870877
    z: 0.0399941540916
  orientation: 
    x: 1.97518515097e-05
    y: -9.64720822102e-07
    z: 0.998816209606
    w: 0.0486433863694
---
header: 
  seq: 32271
  stamp: 
    secs: 21890
    nsecs: 268000000
  frame_id: "map"
pose: 
  position: 
    x: 6.62808226332
    y: -2.49463840048
    z: 0.0399960441835
  orientation: 
    x: -1.97518194676e-05
    y: 9.64728029641e-07
    z: 0.998816209583
    w: 0.0486433868344
---
header: 
  seq: 32272
  stamp: 
    secs: 21890
    nsecs: 278000000
  frame_id: "map"
pose: 
  position: 
    x: 6.62808383771
    y: -2.49463855399
    z: 0.0399999991779
  orientation: 
    x: 1.11100021684e-11
    y: 4.65005676073e-12
    z: 0.998816209839
    w: 0.0486433856034
---
header: 
  seq: 32273
  stamp: 
    secs: 21890
    nsecs: 288000000
  frame_id: "map"
pose: 
  position: 
    x: 6.6280854122
    y: -2.4946387077
    z: 0.0399941540916
  orientation: 
    x: 1.97518515101e-05
    y: -9.6472081316e-07
    z: 0.998816209628
    w: 0.0486433859168
---
header: 
  seq: 32274
  stamp: 
    secs: 21890
    nsecs: 298000000
  frame_id: "map"
pose: 
  position: 
    x: 6.62808226272
    y: -2.49463839941
    z: 0.0399960441835
  orientation: 
    x: -1.9751819468e-05
    y: 9.64728020694e-07
    z: 0.998816209605
    w: 0.0486433863819
---
header: 
  seq: 32275
  stamp: 
    secs: 21890
    nsecs: 308000000
  frame_id: "map"
pose: 
  position: 
    x: 6.6280838371
    y: -2.49463855292
    z: 0.0399999991779
  orientation: 
    x: 1.11099990649e-11
    y: 4.65005410083e-12
    z: 0.998816209861
    w: 0.0486433851508
---
header: 
  seq: 32276
  stamp: 
    secs: 21890
    nsecs: 318000000
  frame_id: "map"
pose: 
  position: 
    x: 6.62808541159
    y: -2.49463870664
    z: 0.0399941540916
  orientation: 
    x: 1.97518515105e-05
    y: -9.64720804217e-07
    z: 0.99881620965
    w: 0.0486433854643
---
header: 
  seq: 32277
  stamp: 
    secs: 21890
    nsecs: 328000000
  frame_id: "map"
pose: 
  position: 
    x: 6.62808226211
    y: -2.49463839834
    z: 0.0399960441835
  orientation: 
    x: -1.97518194685e-05
    y: 9.64728011762e-07
    z: 0.998816209627
    w: 0.0486433859293
---
header: 
  seq: 32278
  stamp: 
    secs: 21890
    nsecs: 338000000
  frame_id: "map"
pose: 
  position: 
    x: 6.62808383649
    y: -2.49463855185
    z: 0.0399999991779
  orientation: 
    x: 1.11099976182e-11
    y: 4.65005376922e-12
    z: 0.998816209883
    w: 0.0486433846982
---
header: 
  seq: 32279
  stamp: 
    secs: 21890
    nsecs: 348000000
  frame_id: "map"
pose: 
  position: 
    x: 6.62808541098
    y: -2.49463870557
    z: 0.0399941540916
  orientation: 
    x: 1.9751851511e-05
    y: -9.64720795267e-07
    z: 0.998816209672
    w: 0.0486433850117
---
header: 
  seq: 32280
  stamp: 
    secs: 21890
    nsecs: 358000000
  frame_id: "map"
pose: 
  position: 
    x: 6.62808226151
    y: -2.49463839728
    z: 0.0399960441835
  orientation: 
    x: -1.97518194689e-05
    y: 9.64728002815e-07
    z: 0.998816209649
    w: 0.0486433854767
---
header: 
  seq: 32281
  stamp: 
    secs: 21890
    nsecs: 368000000
  frame_id: "map"
pose: 
  position: 
    x: 6.62808383589
    y: -2.49463855079
    z: 0.0399999991779
  orientation: 
    x: 1.11100081654e-11
    y: 4.6500407192e-12
    z: 0.998816209905
    w: 0.0486433842456
---
header: 
  seq: 32282
  stamp: 
    secs: 21890
    nsecs: 378000000
  frame_id: "map"
pose: 
  position: 
    x: 6.62808541038
    y: -2.4946387045
    z: 0.0399941540916
  orientation: 
    x: 1.97518515114e-05
    y: -9.64720786355e-07
    z: 0.998816209694
    w: 0.0486433845591
---
header: 
  seq: 32283
  stamp: 
    secs: 21890
    nsecs: 388000000
  frame_id: "map"
pose: 
  position: 
    x: 6.6280822609
    y: -2.49463839621
    z: 0.0399960441835
  orientation: 
    x: -1.97518194693e-05
    y: 9.64727993884e-07
    z: 0.998816209671
    w: 0.0486433850241
---
header: 
  seq: 32284
  stamp: 
    secs: 21890
    nsecs: 398000000
  frame_id: "map"
pose: 
  position: 
    x: 6.62808383528
    y: -2.49463854972
    z: 0.0399999991779
  orientation: 
    x: 1.11099929663e-11
    y: 4.65006155197e-12
    z: 0.998816209927
    w: 0.0486433837931
---
header: 
  seq: 32285
  stamp: 
    secs: 21890
    nsecs: 408000000
  frame_id: "map"
pose: 
  position: 
    x: 6.62808540977
    y: -2.49463870344
    z: 0.0399941540916
  orientation: 
    x: 1.97518515119e-05
    y: -9.64720777407e-07
    z: 0.998816209716
    w: 0.0486433841065
---
header: 
  seq: 32286
  stamp: 
    secs: 21890
    nsecs: 418000000
  frame_id: "map"
pose: 
  position: 
    x: 6.6280822603
    y: -2.49463839514
    z: 0.0399960441835
  orientation: 
    x: -1.97518194698e-05
    y: 9.64727984935e-07
    z: 0.998816209693
    w: 0.0486433845716
---
header: 
  seq: 32287
  stamp: 
    secs: 21890
    nsecs: 428000000
  frame_id: "map"
pose: 
  position: 
    x: 6.62808383468
    y: -2.49463854865
    z: 0.0399999991779
  orientation: 
    x: 1.11100046587e-11
    y: 4.6500485318e-12
    z: 0.998816209949
    w: 0.0486433833405
---
header: 
  seq: 32288
  stamp: 
    secs: 21890
    nsecs: 438000000
  frame_id: "map"
pose: 
  position: 
    x: 6.62808540917
    y: -2.49463870237
    z: 0.0399941540916
  orientation: 
    x: 1.97518515123e-05
    y: -9.64720768427e-07
    z: 0.998816209738
    w: 0.048643383654
---
header: 
  seq: 32289
  stamp: 
    secs: 21890
    nsecs: 448000000
  frame_id: "map"
pose: 
  position: 
    x: 6.62808225969
    y: -2.49463839408
    z: 0.0399960441835
  orientation: 
    x: -1.97518194702e-05
    y: 9.64727976005e-07
    z: 0.998816209715
    w: 0.048643384119
---
header: 
  seq: 32290
  stamp: 
    secs: 21890
    nsecs: 458000000
  frame_id: "map"
pose: 
  position: 
    x: 6.62808383407
    y: -2.49463854759
    z: 0.0399999991779
  orientation: 
    x: 1.11100050755e-11
    y: 4.65004425429e-12
    z: 0.998816209971
    w: 0.0486433828879
---
header: 
  seq: 32291
  stamp: 
    secs: 21890
    nsecs: 468000000
  frame_id: "map"
pose: 
  position: 
    x: 6.62808540856
    y: -2.4946387013
    z: 0.0399941540916
  orientation: 
    x: 1.97518515127e-05
    y: -9.64720759519e-07
    z: 0.99881620976
    w: 0.0486433832014
---
header: 
  seq: 32292
  stamp: 
    secs: 21890
    nsecs: 478000000
  frame_id: "map"
pose: 
  position: 
    x: 6.62808225908
    y: -2.49463839301
    z: 0.0399960441835
  orientation: 
    x: -1.97518194706e-05
    y: 9.64727967055e-07
    z: 0.998816209738
    w: 0.0486433836664
---
header: 
  seq: 32293
  stamp: 
    secs: 21890
    nsecs: 488000000
  frame_id: "map"
pose: 
  position: 
    x: 6.62808383347
    y: -2.49463854652
    z: 0.0399999991779
  orientation: 
    x: 1.11100017788e-11
    y: 4.65004431591e-12
    z: 0.998816209993
    w: 0.0486433824353
---
header: 
  seq: 32294
  stamp: 
    secs: 21890
    nsecs: 498000000
  frame_id: "map"
pose: 
  position: 
    x: 6.62808540796
    y: -2.49463870024
    z: 0.0399941540916
  orientation: 
    x: 1.97518515132e-05
    y: -9.64720750566e-07
    z: 0.998816209782
    w: 0.0486433827488
---
header: 
  seq: 32295
  stamp: 
    secs: 21890
    nsecs: 508000000
  frame_id: "map"
pose: 
  position: 
    x: 6.62808225848
    y: -2.49463839195
    z: 0.0399960441835
  orientation: 
    x: -1.97518194711e-05
    y: 9.64727958115e-07
    z: 0.99881620976
    w: 0.0486433832138
---
header: 
  seq: 32296
  stamp: 
    secs: 21890
    nsecs: 518000000
  frame_id: "map"
pose: 
  position: 
    x: 6.62808383286
    y: -2.49463854546
    z: 0.0399999991779
  orientation: 
    x: 1.11100087245e-11
    y: 4.65004576222e-12
    z: 0.998816210015
    w: 0.0486433819828
---
header: 
  seq: 32297
  stamp: 
    secs: 21890
    nsecs: 528000000
  frame_id: "map"
pose: 
  position: 
    x: 6.62808540735
    y: -2.49463869917
    z: 0.0399941540916
  orientation: 
    x: 1.97518515136e-05
    y: -9.64720741638e-07
    z: 0.998816209804
    w: 0.0486433822962
---
header: 
  seq: 32298
  stamp: 
    secs: 21890
    nsecs: 538000000
  frame_id: "map"
pose: 
  position: 
    x: 6.62808225787
    y: -2.49463839088
    z: 0.0399960441835
  orientation: 
    x: -1.97518194715e-05
    y: 9.64727949169e-07
    z: 0.998816209782
    w: 0.0486433827613
---
header: 
  seq: 32299
  stamp: 
    secs: 21890
    nsecs: 548000000
  frame_id: "map"
pose: 
  position: 
    x: 6.62808383225
    y: -2.49463854439
    z: 0.0399999991779
  orientation: 
    x: 1.11099954464e-11
    y: 4.6500543992e-12
    z: 0.998816210037
    w: 0.0486433815302
---
header: 
  seq: 32300
  stamp: 
    secs: 21890
    nsecs: 558000000
  frame_id: "map"
pose: 
  position: 
    x: 6.62808540674
    y: -2.49463869811
    z: 0.0399941540916
  orientation: 
    x: 1.97518515141e-05
    y: -9.64720732677e-07
    z: 0.998816209826
    w: 0.0486433818437
---
header: 
  seq: 32301
  stamp: 
    secs: 21890
    nsecs: 568000000
  frame_id: "map"
pose: 
  position: 
    x: 6.62808225727
    y: -2.49463838981
    z: 0.0399960441835
  orientation: 
    x: -1.9751819472e-05
    y: 9.64727940231e-07
    z: 0.998816209804
    w: 0.0486433823087
---
header: 
  seq: 32302
  stamp: 
    secs: 21890
    nsecs: 578000000
  frame_id: "map"
pose: 
  position: 
    x: 6.62808383165
    y: -2.49463854332
    z: 0.0399999991779
  orientation: 
    x: 1.11099946265e-11
    y: 4.65005253319e-12
    z: 0.998816210059
    w: 0.0486433810776
---
header: 
  seq: 32303
  stamp: 
    secs: 21890
    nsecs: 588000000
  frame_id: "map"
pose: 
  position: 
    x: 6.62808540614
    y: -2.49463869704
    z: 0.0399941540916
  orientation: 
    x: 1.97518515145e-05
    y: -9.64720723745e-07
    z: 0.998816209848
    w: 0.0486433813911
---
header: 
  seq: 32304
  stamp: 
    secs: 21890
    nsecs: 598000000
  frame_id: "map"
pose: 
  position: 
    x: 6.62808225666
    y: -2.49463838875
    z: 0.0399960441835
  orientation: 
    x: -1.97518194724e-05
    y: 9.64727931292e-07
    z: 0.998816209826
    w: 0.0486433818561
---
header: 
  seq: 32305
  stamp: 
    secs: 21890
    nsecs: 608000000
  frame_id: "map"
pose: 
  position: 
    x: 6.62808383104
    y: -2.49463854226
    z: 0.0399999991779
  orientation: 
    x: 1.11100101306e-11
    y: 4.6500495997e-12
    z: 0.998816210081
    w: 0.048643380625
---
header: 
  seq: 32306
  stamp: 
    secs: 21890
    nsecs: 618000000
  frame_id: "map"
pose: 
  position: 
    x: 6.62808540553
    y: -2.49463869597
    z: 0.0399941540916
  orientation: 
    x: 1.97518515149e-05
    y: -9.6472071479e-07
    z: 0.99881620987
    w: 0.0486433809385
---
header: 
  seq: 32307
  stamp: 
    secs: 21890
    nsecs: 628000000
  frame_id: "map"
pose: 
  position: 
    x: 6.62808225606
    y: -2.49463838768
    z: 0.0399960441835
  orientation: 
    x: -1.97518194728e-05
    y: 9.64727922354e-07
    z: 0.998816209848
    w: 0.0486433814035
---
header: 
  seq: 32308
  stamp: 
    secs: 21890
    nsecs: 638000000
  frame_id: "map"
pose: 
  position: 
    x: 6.62808383044
    y: -2.49463854119
    z: 0.0399999991779
  orientation: 
    x: 1.11100135898e-11
    y: 4.6500462194e-12
    z: 0.998816210103
    w: 0.0486433801725
---
header: 
  seq: 32309
  stamp: 
    secs: 21890
    nsecs: 648000000
  frame_id: "map"
pose: 
  position: 
    x: 6.62808540493
    y: -2.49463869491
    z: 0.0399941540916
  orientation: 
    x: 1.97518515154e-05
    y: -9.6472070586e-07
    z: 0.998816209892
    w: 0.048643380486
---
header: 
  seq: 32310
  stamp: 
    secs: 21890
    nsecs: 658000000
  frame_id: "map"
pose: 
  position: 
    x: 6.62808225545
    y: -2.49463838661
    z: 0.0399960441835
  orientation: 
    x: -1.97518194733e-05
    y: 9.64727913399e-07
    z: 0.99881620987
    w: 0.048643380951
---
header: 
  seq: 32311
  stamp: 
    secs: 21890
    nsecs: 668000000
  frame_id: "map"
pose: 
  position: 
    x: 6.62808382983
    y: -2.49463854012
    z: 0.0399999991779
  orientation: 
    x: 1.11100092971e-11
    y: 4.65004967424e-12
    z: 0.998816210125
    w: 0.0486433797199
---
header: 
  seq: 32312
  stamp: 
    secs: 21890
    nsecs: 678000000
  frame_id: "map"
pose: 
  position: 
    x: 6.62808540432
    y: -2.49463869384
    z: 0.0399941540916
  orientation: 
    x: 1.97518515158e-05
    y: -9.64720696932e-07
    z: 0.998816209914
    w: 0.0486433800334
---
header: 
  seq: 32313
  stamp: 
    secs: 21890
    nsecs: 688000000
  frame_id: "map"
pose: 
  position: 
    x: 6.62808225484
    y: -2.49463838555
    z: 0.0399960441835
  orientation: 
    x: -1.97518194737e-05
    y: 9.64727904469e-07
    z: 0.998816209892
    w: 0.0486433804984
---
header: 
  seq: 32314
  stamp: 
    secs: 21890
    nsecs: 698000000
  frame_id: "map"
pose: 
  position: 
    x: 6.62808382923
    y: -2.49463853906
    z: 0.0399999991779
  orientation: 
    x: 1.11100017483e-11
    y: 4.65004741097e-12
    z: 0.998816210148
    w: 0.0486433792673
---
header: 
  seq: 32315
  stamp: 
    secs: 21890
    nsecs: 708000000
  frame_id: "map"
pose: 
  position: 
    x: 6.62808540372
    y: -2.49463869277
    z: 0.0399941540916
  orientation: 
    x: 1.97518515162e-05
    y: -9.64720687992e-07
    z: 0.998816209936
    w: 0.0486433795808
---
header: 
  seq: 32316
  stamp: 
    secs: 21890
    nsecs: 718000000
  frame_id: "map"
pose: 
  position: 
    x: 6.62808225424
    y: -2.49463838448
    z: 0.0399960441835
  orientation: 
    x: -1.97518194741e-05
    y: 9.6472789553e-07
    z: 0.998816209914
    w: 0.0486433800458
---
header: 
  seq: 32317
  stamp: 
    secs: 21890
    nsecs: 728000000
  frame_id: "map"
pose: 
  position: 
    x: 6.62808382862
    y: -2.49463853799
    z: 0.0399999991779
  orientation: 
    x: 1.11100097883e-11
    y: 4.65003998905e-12
    z: 0.99881621017
    w: 0.0486433788147
---
header: 
  seq: 32318
  stamp: 
    secs: 21890
    nsecs: 738000000
  frame_id: "map"
pose: 
  position: 
    x: 6.62808540311
    y: -2.49463869171
    z: 0.0399941540916
  orientation: 
    x: 1.97518515167e-05
    y: -9.64720679044e-07
    z: 0.998816209959
    w: 0.0486433791282
---
header: 
  seq: 32319
  stamp: 
    secs: 21890
    nsecs: 748000000
  frame_id: "map"
pose: 
  position: 
    x: 6.62808225363
    y: -2.49463838342
    z: 0.0399960441835
  orientation: 
    x: -1.97518194746e-05
    y: 9.64727886586e-07
    z: 0.998816209936
    w: 0.0486433795932
---
header: 
  seq: 32320
  stamp: 
    secs: 21890
    nsecs: 758000000
  frame_id: "map"
pose: 
  position: 
    x: 6.62808382801
    y: -2.49463853692
    z: 0.0399999991779
  orientation: 
    x: 1.11099992343e-11
    y: 4.65005880547e-12
    z: 0.998816210192
    w: 0.0486433783622
---
header: 
  seq: 32321
  stamp: 
    secs: 21890
    nsecs: 768000000
  frame_id: "map"
pose: 
  position: 
    x: 6.6280854025
    y: -2.49463869064
    z: 0.0399941540916
  orientation: 
    x: 1.97518515171e-05
    y: -9.64720670101e-07
    z: 0.998816209981
    w: 0.0486433786757
---
header: 
  seq: 32322
  stamp: 
    secs: 21890
    nsecs: 778000000
  frame_id: "map"
pose: 
  position: 
    x: 6.62808225303
    y: -2.49463838235
    z: 0.0399960441835
  orientation: 
    x: -1.9751819475e-05
    y: 9.64727877641e-07
    z: 0.998816209958
    w: 0.0486433791407
---
header: 
  seq: 32323
  stamp: 
    secs: 21890
    nsecs: 788000000
  frame_id: "map"
pose: 
  position: 
    x: 6.62808382741
    y: -2.49463853586
    z: 0.0399999991779
  orientation: 
    x: 1.11099923259e-11
    y: 4.6500657181e-12
    z: 0.998816210214
    w: 0.0486433779096
---
header: 
  seq: 32324
  stamp: 
    secs: 21890
    nsecs: 798000000
  frame_id: "map"
pose: 
  position: 
    x: 6.6280854019
    y: -2.49463868958
    z: 0.0399941540916
  orientation: 
    x: 1.97518515176e-05
    y: -9.6472066116e-07
    z: 0.998816210003
    w: 0.0486433782231
---
header: 
  seq: 32325
  stamp: 
    secs: 21890
    nsecs: 808000000
  frame_id: "map"
pose: 
  position: 
    x: 6.62808225242
    y: -2.49463838128
    z: 0.0399960441835
  orientation: 
    x: -1.97518194754e-05
    y: 9.64727868702e-07
    z: 0.99881620998
    w: 0.0486433786881
---
header: 
  seq: 32326
  stamp: 
    secs: 21890
    nsecs: 818000000
  frame_id: "map"
pose: 
  position: 
    x: 6.6280838268
    y: -2.49463853479
    z: 0.0399999991779
  orientation: 
    x: 1.1110003107e-11
    y: 4.65005424483e-12
    z: 0.998816210236
    w: 0.048643377457
---
header: 
  seq: 32327
  stamp: 
    secs: 21890
    nsecs: 828000000
  frame_id: "map"
pose: 
  position: 
    x: 6.62808540129
    y: -2.49463868851
    z: 0.0399941540916
  orientation: 
    x: 1.9751851518e-05
    y: -9.64720652219e-07
    z: 0.998816210025
    w: 0.0486433777705
---
header: 
  seq: 32328
  stamp: 
    secs: 21890
    nsecs: 838000000
  frame_id: "map"
pose: 
  position: 
    x: 6.62808225182
    y: -2.49463838022
    z: 0.0399960441835
  orientation: 
    x: -1.97518194759e-05
    y: 9.64727859758e-07
    z: 0.998816210002
    w: 0.0486433782355
---
header: 
  seq: 32329
  stamp: 
    secs: 21890
    nsecs: 848000000
  frame_id: "map"
pose: 
  position: 
    x: 6.6280838262
    y: -2.49463853373
    z: 0.0399999991779
  orientation: 
    x: 1.11099997425e-11
    y: 4.65005442186e-12
    z: 0.998816210258
    w: 0.0486433770044
---
header: 
  seq: 32330
  stamp: 
    secs: 21890
    nsecs: 858000000
  frame_id: "map"
pose: 
  position: 
