header: 
  seq: 47
  stamp: 
    secs: 683
    nsecs: 182000000
  frame_id: "world"
pose: 
  position: 
    x: 0.000108243599243
    y: 0.000112811285362
    z: -3.25534019794e-05
  orientation: 
    x: 2.56817565704e-05
    y: -3.72257672622e-05
    z: -4.5201018064e-06
    w: 0.999999998967
---
header: 
  seq: 48
  stamp: 
    secs: 683
    nsecs: 497000000
  frame_id: "world"
pose: 
  position: 
    x: 6.99866359355e-05
    y: 7.74922664277e-05
    z: -2.27682885452e-05
  orientation: 
    x: 1.79323633266e-05
    y: -2.38771135521e-05
    z: -2.40282997658e-06
    w: 0.999999999551
---
header: 
  seq: 49
  stamp: 
    secs: 683
    nsecs: 835000000
  frame_id: "world"
pose: 
  position: 
    x: -4.39151299361e-05
    y: 6.70044255457e-06
    z: 1.96144465008e-05
  orientation: 
    x: 2.12781542285e-05
    y: 1.5457588228e-05
    z: 1.6249587128e-06
    w: 0.999999999653
---
header: 
  seq: 50
  stamp: 
    secs: 684
    nsecs: 215000000
  frame_id: "world"
pose: 
  position: 
    x: 1.81834036539e-06
    y: 6.89845501256e-06
    z: 5.69694577734e-07
  orientation: 
    x: 3.06609672405e-06
    y: -4.17887946467e-07
    z: -6.84462520436e-07
    w: 0.999999999995
---
header: 
  seq: 51
  stamp: 
    secs: 684
    nsecs: 613000000
  frame_id: "world"
pose: 
  position: 
    x: 6.99338052073e-05
    y: 7.82694260124e-05
    z: -2.25909734581e-05
  orientation: 
    x: 1.83029696844e-05
    y: -2.38428092308e-05
    z: -2.41006887226e-06
    w: 0.999999999545
---
header: 
  seq: 52
  stamp: 
    secs: 685
    nsecs:   9000000
  frame_id: "world"
pose: 
  position: 
    x: 6.97435607435e-05
    y: 7.73063002271e-05
    z: -2.2749261916e-05
  orientation: 
    x: 1.78441932724e-05
    y: -2.37886069848e-05
    z: -2.37110498241e-06
    w: 0.999999999555
---
header: 
  seq: 53
  stamp: 
    secs: 685
    nsecs: 296000000
  frame_id: "world"
pose: 
  position: 
    x: -2.70706241281e-05
    y: 1.6281286662e-05
    z: 2.22208527703e-05
  orientation: 
    x: 2.65044454758e-05
    y: 9.65671642532e-06
    z: 5.29917940428e-07
    w: 0.999999999602
---
header: 
  seq: 54
  stamp: 
    secs: 685
    nsecs: 576000000
  frame_id: "world"
pose: 
  position: 
    x: 0.000108291817014
    y: 0.000112920650281
    z: -3.25618930219e-05
  orientation: 
    x: 2.57468963998e-05
    y: -3.72342837705e-05
    z: -4.55944427341e-06
    w: 0.999999998965
---
header: 
  seq: 55
  stamp: 
    secs: 685
    nsecs: 914000000
  frame_id: "world"
pose: 
  position: 
    x: -2.71345415968e-05
    y: 1.63743516168e-05
    z: 2.22187336476e-05
  orientation: 
    x: 2.6549027087e-05
    y: 9.68505355172e-06
    z: 5.27282736374e-07
    w: 0.999999999601
---
header: 
  seq: 56
  stamp: 
    secs: 686
    nsecs: 280000000
  frame_id: "world"
pose: 
  position: 
    x: -2.82314995275e-05
    y: 1.50246341946e-05
    z: 2.24592313316e-05
  orientation: 
    x: 2.59475691464e-05
    y: 9.99353869315e-06
    z: 5.48987770586e-07
    w: 0.999999999613
---
header: 
  seq: 57
  stamp: 
    secs: 686
    nsecs: 581000000
  frame_id: "world"
pose: 
  position: 
    x: 6.62677848595e-05
    y: 6.55746116536e-05
    z: -2.42676196649e-05
  orientation: 
    x: 1.13277310411e-05
    y: -2.25040584992e-05
    z: -3.55352744803e-06
    w: 0.999999999676
---
header: 
  seq: 58
  stamp: 
    secs: 686
    nsecs: 853000000
  frame_id: "world"
pose: 
  position: 
    x: -4.46407393611e-05
    y: 6.89566695655e-06
    z: 1.98815614567e-05
  orientation: 
    x: 2.14063857053e-05
    y: 1.56720361646e-05
    z: 1.66309030133e-06
    w: 0.999999999647
---
header: 
  seq: 59
  stamp: 
    secs: 687
    nsecs: 175000000
  frame_id: "world"
pose: 
  position: 
    x: 6.61713420413e-05
    y: 6.55488329357e-05
    z: -2.42645619437e-05
  orientation: 
    x: 1.13136893524e-05
    y: -2.24574650856e-05
    z: -3.55018914774e-06
    w: 0.999999999678
---
header: 
  seq: 60
  stamp: 
    secs: 687
    nsecs: 444000000
  frame_id: "world"
pose: 
  position: 
    x: -2.6933486879e-05
    y: 1.63134263858e-05
    z: 2.21830814553e-05
  orientation: 
    x: 2.65166654466e-05
    y: 9.59598491664e-06
    z: 5.37325263181e-07
    w: 0.999999999602
---
header: 
  seq: 61
  stamp: 
    secs: 687
    nsecs: 791000000
  frame_id: "world"
pose: 
  position: 
    x: 1.61741695592e-06
    y: 6.88529644322e-06
    z: 5.99744339524e-07
  orientation: 
    x: 3.07065897685e-06
    y: -3.43516461497e-07
    z: -6.59777697362e-07
    w: 0.999999999995
---
header: 
  seq: 62
  stamp: 
    secs: 688
    nsecs: 149000000
  frame_id: "world"
pose: 
  position: 
    x: -4.50853985967e-05
    y: 7.08146080797e-06
    z: 1.99091082322e-05
  orientation: 
    x: 2.15007257716e-05
    y: 1.58586772102e-05
    z: 1.68720543964e-06
    w: 0.999999999642
---
header: 
  seq: 63
  stamp: 
    secs: 688
    nsecs: 535000000
  frame_id: "world"
pose: 
  position: 
    x: 3.69069903172e-06
    y: 9.33837054617e-06
    z: 7.41816620575e-07
  orientation: 
    x: 4.10240863853e-06
    y: -1.07022617612e-06
    z: -9.75609168554e-07
    w: 0.999999999991
---
header: 
  seq: 64
  stamp: 
    secs: 688
    nsecs: 784000000
  frame_id: "world"
pose: 
  position: 
    x: 1.42812791637e-06
    y: 7.12220298738e-06
    z: 4.8597831892e-07
  orientation: 
    x: 3.15540091831e-06
    y: -2.5282287197e-07
    z: -5.6186416941e-07
    w: 0.999999999995
---
header: 
  seq: 65
  stamp: 
    secs: 689
    nsecs:  67000000
  frame_id: "world"
pose: 
  position: 
    x: -4.509342034e-05
    y: 6.78290234646e-06
    z: 1.98481538973e-05
  orientation: 
    x: 2.13419734716e-05
    y: 1.58459133616e-05
    z: 1.71244448605e-06
    w: 0.999999999645
---
header: 
  seq: 66
  stamp: 
    secs: 689
    nsecs: 325000000
  frame_id: "world"
pose: 
  position: 
    x: -4.5114702516e-05
    y: 6.57809732729e-06
    z: 1.97842473426e-05
  orientation: 
    x: 2.12420309179e-05
    y: 1.58551574658e-05
    z: 1.72568058982e-06
    w: 0.999999999647
---
header: 
  seq: 67
  stamp: 
    secs: 689
    nsecs: 726000000
  frame_id: "world"
pose: 
  position: 
    x: 1.3183567944e-06
    y: 6.71159250487e-06
    z: 5.10861809744e-07
  orientation: 
    x: 2.94584378933e-06
    y: -2.26880274566e-07
    z: -5.28964108068e-07
    w: 0.999999999995
---
header: 
  seq: 68
  stamp: 
    secs: 690
    nsecs:  75000000
  frame_id: "world"
pose: 
  position: 
    x: -4.42894015578e-05
    y: 6.46240505375e-06
    z: 1.95666452782e-05
  orientation: 
    x: 2.11842798234e-05
    y: 1.56159858252e-05
    z: 1.62328467411e-06
    w: 0.999999999652
---
header: 
  seq: 69
  stamp: 
    secs: 690
    nsecs: 441000000
  frame_id: "world"
pose: 
  position: 
    x: -4.43085300503e-05
    y: 6.72942769597e-06
    z: 1.96130204131e-05
  orientation: 
    x: 2.13057592116e-05
    y: 1.56193946113e-05
    z: 1.63262393414e-06
    w: 0.99999999965
---
header: 
  seq: 70
  stamp: 
    secs: 690
    nsecs: 835000000
  frame_id: "world"
pose: 
  position: 
    x: 6.42911036266e-05
    y: 7.25626232452e-05
    z: -2.64263107965e-05
  orientation: 
    x: 1.40459687782e-05
    y: -2.12171162206e-05
    z: -1.8843905985e-06
    w: 0.999999999674
---
header: 
  seq: 71
  stamp: 
    secs: 691
    nsecs: 113000000
  frame_id: "world"
pose: 
  position: 
    x: -4.50478291896e-05
    y: 6.69301743983e-06
    z: 1.98224042833e-05
  orientation: 
    x: 2.13008042844e-05
    y: 1.58308084736e-05
    z: 1.68940277885e-06
    w: 0.999999999646
---
header: 
  seq: 72
  stamp: 
    secs: 691
    nsecs: 365000000
  frame_id: "world"
pose: 
  position: 
    x: -4.80803428218e-05
    y: 9.21988976188e-06
    z: 1.75342011062e-05
  orientation: 
    x: 2.19699941139e-05
    y: 1.73686257698e-05
    z: 3.43939518506e-06
    w: 0.999999999602
---
header: 
  seq: 73
  stamp: 
    secs: 691
    nsecs: 638000000
  frame_id: "world"
pose: 
  position: 
    x: -2.84917841782e-05
    y: 1.46789525388e-05
    z: 2.23270271817e-05
  orientation: 
    x: 2.57869960379e-05
    y: 1.00978641019e-05
    z: 6.23897676393e-07
    w: 0.999999999616
---
header: 
  seq: 74
  stamp: 
    secs: 691
    nsecs: 985000000
  frame_id: "world"
pose: 
  position: 
    x: 1.12885095405e-06
    y: 6.60323075863e-06
    z: 1.14733538226e-08
  orientation: 
    x: 2.88623937193e-06
    y: -5.67079965206e-08
    z: -5.46304079305e-07
    w: 0.999999999996
---
header: 
  seq: 75
  stamp: 
    secs: 692
    nsecs: 263000000
  frame_id: "world"
pose: 
  position: 
    x: 6.41428268864e-05
    y: 7.23812627257e-05
    z: -2.63790370809e-05
  orientation: 
    x: 1.39749909022e-05
    y: -2.11720907759e-05
    z: -1.84905797991e-06
    w: 0.999999999677
---
header: 
  seq: 76
  stamp: 
    secs: 692
    nsecs: 481000000
  frame_id: "world"
pose: 
  position: 
    x: -4.39989853476e-05
    y: 1.01859031929e-05
    z: 1.80696570169e-05
  orientation: 
    x: 2.23889146497e-05
    y: 1.58640286767e-05
    z: 3.10746736313e-06
    w: 0.999999999619
---
header: 
  seq: 77
  stamp: 
    secs: 692
    nsecs: 877000000
  frame_id: "world"
pose: 
  position: 
    x: -4.80588205392e-05
    y: 9.07610501599e-06
    z: 1.75435634446e-05
  orientation: 
    x: 2.19011744688e-05
    y: 1.73660955556e-05
    z: 3.43640476649e-06
    w: 0.999999999603
---
header: 
  seq: 78
  stamp: 
    secs: 693
    nsecs: 162000000
  frame_id: "world"
pose: 
  position: 
    x: -2.89821182378e-05
    y: 1.5399118638e-05
    z: 2.25369713007e-05
  orientation: 
    x: 2.6187561151e-05
    y: 1.02767835374e-05
    z: 5.59408533496e-07
    w: 0.999999999604
---
header: 
  seq: 79
  stamp: 
    secs: 693
    nsecs: 414000000
  frame_id: "world"
pose: 
  position: 
    x: -2.90179923468e-05
    y: 1.54427361849e-05
    z: 2.2541733415e-05
  orientation: 
    x: 2.62103312603e-05
    y: 1.02904532428e-05
    z: 5.61034027901e-07
    w: 0.999999999603
---
header: 
  seq: 80
  stamp: 
    secs: 693
    nsecs: 700000000
  frame_id: "world"
pose: 
  position: 
    x: 0.000100995530374
    y: 0.000138661867823
    z: -2.77517337963e-05
  orientation: 
    x: 3.70253655522e-05
    y: -3.42291422852e-05
    z: -6.65581182196e-06
    w: 0.999999998707
---
header: 
  seq: 81
  stamp: 
    secs: 694
    nsecs:   2000000
  frame_id: "world"
pose: 
  position: 
    x: -2.86688264168e-05
    y: 1.76860339707e-05
    z: 2.27725995501e-05
  orientation: 
    x: 2.7247191599e-05
    y: 1.01804380349e-05
    z: 6.73434157931e-07
    w: 0.999999999577
---
header: 
  seq: 82
  stamp: 
    secs: 694
    nsecs: 380000000
  frame_id: "world"
pose: 
  position: 
    x: -2.90448570013e-05
    y: 1.54473127623e-05
    z: 2.25747990044e-05
  orientation: 
    x: 2.62164121419e-05
    y: 1.02994999866e-05
    z: 5.64259152956e-07
    w: 0.999999999603
---
header: 
  seq: 83
  stamp: 
    secs: 694
    nsecs: 787000000
  frame_id: "world"
pose: 
  position: 
    x: 9.1185643214e-07
    y: 6.5347439886e-06
    z: -2.84992118793e-08
  orientation: 
    x: 2.85972942037e-06
    y: 5.67261331239e-08
    z: -5.57348357686e-07
    w: 0.999999999996
---
header: 
  seq: 84
  stamp: 
    secs: 695
    nsecs: 115000000
  frame_id: "world"
pose: 
  position: 
    x: -4.45889527327e-05
    y: 1.2836492715e-05
    z: 1.82252824743e-05
  orientation: 
    x: 2.37003587146e-05
    y: 1.60974795951e-05
    z: 3.19108107628e-06
    w: 0.999999999584
---
header: 
  seq: 85
  stamp: 
    secs: 695
    nsecs: 348000000
  frame_id: "world"
pose: 
  position: 
    x: 8.58758994582e-07
    y: 6.53787355986e-06
    z: -3.51032056756e-08
  orientation: 
    x: 2.86190697806e-06
    y: 8.01749209242e-08
    z: -5.54943540007e-07
    w: 0.999999999996
---
header: 
  seq: 86
  stamp: 
    secs: 695
    nsecs: 591000000
  frame_id: "world"
pose: 
  position: 
    x: 8.5960840579e-07
    y: 6.49801677355e-06
    z: 1.01468673464e-08
  orientation: 
    x: 2.84361340163e-06
    y: 8.43694110127e-08
    z: -5.55736050953e-07
    w: 0.999999999996
---
header: 
  seq: 87
  stamp: 
    secs: 695
    nsecs: 904000000
  frame_id: "world"
pose: 
  position: 
    x: -2.89112831524e-05
    y: 1.53121709445e-05
    z: 2.25818221224e-05
  orientation: 
    x: 2.61500190287e-05
    y: 1.02435669719e-05
    z: 5.46074829584e-07
    w: 0.999999999605
---
header: 
  seq: 88
  stamp: 
    secs: 696
    nsecs: 209000000
  frame_id: "world"
pose: 
  position: 
    x: 7.60690284096e-07
    y: 6.53218103253e-06
    z: -1.96518730178e-08
  orientation: 
    x: 2.86246313407e-06
    y: 1.23428364418e-07
    z: -5.44604688455e-07
    w: 0.999999999996
---
header: 
  seq: 89
  stamp: 
    secs: 696
    nsecs: 571000000
  frame_id: "world"
pose: 
  position: 
    x: 6.39280769974e-05
    y: 7.24843994249e-05
    z: -2.63950278168e-05
  orientation: 
    x: 1.40537076686e-05
    y: -2.10802154402e-05
    z: -1.87348984976e-06
    w: 0.999999999677
---
header: 
  seq: 90
  stamp: 
    secs: 696
    nsecs: 967000000
  frame_id: "world"
pose: 
  position: 
    x: 6.41419246676e-05
    y: 7.11589600542e-05
    z: -2.6550160328e-05
  orientation: 
    x: 1.34019064675e-05
    y: -2.11898131898e-05
    z: -1.87486648369e-06
    w: 0.999999999684
---
header: 
  seq: 91
  stamp: 
    secs: 697
    nsecs: 221000000
  frame_id: "world"
pose: 
  position: 
    x: -4.38828574261e-05
    y: 1.05910776256e-05
    z: 1.78051377588e-05
  orientation: 
    x: 2.25462626899e-05
    y: 1.58931579729e-05
    z: 3.13320287994e-06
    w: 0.999999999615
---
header: 
  seq: 92
  stamp: 
    secs: 697
    nsecs: 510000000
  frame_id: "world"
pose: 
  position: 
    x: 0.000101217279735
    y: 0.000139491079608
    z: -2.76608298009e-05
  orientation: 
    x: 3.74033078934e-05
    y: -3.43130668175e-05
    z: -6.73326075257e-06
    w: 0.999999998689
---
header: 
  seq: 93
  stamp: 
    secs: 697
    nsecs: 815000000
  frame_id: "world"
pose: 
  position: 
    x: -4.78152724099e-05
    y: 9.58046257438e-06
    z: 1.7235031919e-05
  orientation: 
    x: 2.21041664102e-05
    y: 1.73426196783e-05
    z: 3.4432409834e-06
    w: 0.999999999599
---
header: 
  seq: 94
  stamp: 
    secs: 698
    nsecs: 154000000
  frame_id: "world"
pose: 
  position: 
    x: -4.78152724099e-05
    y: 9.58046257438e-06
    z: 1.7235031919e-05
  orientation: 
    x: 2.21041664102e-05
    y: 1.73426196783e-05
    z: 3.4432409834e-06
    w: 0.999999999599
---
header: 
  seq: 95
  stamp: 
    secs: 698
    nsecs: 585000000
  frame_id: "world"
pose: 
  position: 
    x: 8.42064935114e-07
    y: 6.53081815472e-06
    z: -4.98711862917e-08
  orientation: 
    x: 2.84870611721e-06
    y: 8.43577794281e-08
    z: -5.43504370396e-07
    w: 0.999999999996
---
header: 
  seq: 96
  stamp: 
    secs: 698
    nsecs: 981000000
  frame_id: "world"
pose: 
  position: 
    x: 7.9718500956e-07
    y: 6.50215179121e-06
    z: -2.23313296743e-08
  orientation: 
    x: 2.83350982498e-06
    y: 1.12096131488e-07
    z: -5.36576578722e-07
    w: 0.999999999996
---
header: 
  seq: 97
  stamp: 
    secs: 699
    nsecs: 350000000
  frame_id: "world"
pose: 
  position: 
    x: 7.77602167545e-07
    y: 6.46556827633e-06
    z: -3.50307018948e-08
  orientation: 
    x: 2.81621214525e-06
    y: 1.20689634286e-07
    z: -5.36096877111e-07
    w: 0.999999999996
---
header: 
  seq: 98
  stamp: 
    secs: 699
    nsecs: 621000000
  frame_id: "world"
pose: 
  position: 
    x: -4.52495296486e-05
    y: 1.37884753713e-05
    z: 1.81712766789e-05
  orientation: 
    x: 2.41426350736e-05
    y: 1.63713775621e-05
    z: 3.33665297914e-06
    w: 0.999999999569
---
header: 
  seq: 99
  stamp: 
    secs: 699
    nsecs: 906000000
  frame_id: "world"
pose: 
  position: 
    x: -2.86326667265e-05
    y: 1.51036419993e-05
    z: 2.22735397983e-05
  orientation: 
    x: 2.60591714221e-05
    y: 1.02068615848e-05
    z: 4.72278287404e-07
    w: 0.999999999608
---
header: 
  seq: 100
  stamp: 
    secs: 700
    nsecs: 212000000
  frame_id: "world"
pose: 
  position: 
    x: -2.850537021e-05
    y: 1.51399844981e-05
    z: 2.2293514121e-05
  orientation: 
    x: 2.6074454571e-05
    y: 1.01527157273e-05
    z: 4.63148040627e-07
    w: 0.999999999608
---
header: 
  seq: 101
  stamp: 
    secs: 700
    nsecs: 552000000
  frame_id: "world"
pose: 
  position: 
    x: 0.000101656514744
    y: 0.000139437208418
    z: -2.76879382e-05
  orientation: 
    x: 3.73639085828e-05
    y: -3.44840190793e-05
    z: -6.80381889666e-06
    w: 0.999999998684
---
header: 
  seq: 102
  stamp: 
    secs: 700
    nsecs: 873000000
  frame_id: "world"
pose: 
  position: 
    x: 5.85523775953e-05
    y: 9.85296137515e-05
    z: -2.12183022086e-05
  orientation: 
    x: 2.55791364776e-05
    y: -1.88269950644e-05
    z: -4.20642299798e-06
    w: 0.999999999487
---
header: 
  seq: 103
  stamp: 
    secs: 701
    nsecs: 151000000
  frame_id: "world"
pose: 
  position: 
    x: -4.33469722338e-05
    y: 9.36066862778e-06
    z: 1.72132640728e-05
  orientation: 
    x: 2.19389221375e-05
    y: 1.57370995963e-05
    z: 3.21001493712e-06
    w: 0.99999999963
---
header: 
  seq: 104
  stamp: 
    secs: 701
    nsecs: 493000000
  frame_id: "world"
pose: 
  position: 
    x: -4.71758612548e-05
    y: 9.50976118475e-06
    z: 1.69748109329e-05
  orientation: 
    x: 2.20725196326e-05
    y: 1.71768478981e-05
    z: 3.44019372142e-06
    w: 0.999999999603
---
header: 
  seq: 105
  stamp: 
    secs: 701
    nsecs: 782000000
  frame_id: "world"
pose: 
  position: 
    x: 0.000101742618426
    y: 0.000139391588164
    z: -2.7673168006e-05
  orientation: 
    x: 3.73487855049e-05
    y: -3.45141961134e-05
    z: -6.79341018455e-06
    w: 0.999999998684
---
header: 
  seq: 106
  stamp: 
    secs: 702
    nsecs:  45000000
  frame_id: "world"
pose: 
  position: 
    x: -4.78437796119e-05
    y: 9.68150743574e-06
    z: 1.72086001839e-05
  orientation: 
    x: 2.21722730113e-05
    y: 1.73696735076e-05
    z: 3.49204174059e-06
    w: 0.999999999597
---
header: 
  seq: 107
  stamp: 
    secs: 702
    nsecs: 330000000
  frame_id: "world"
pose: 
  position: 
    x: -4.78437796119e-05
    y: 9.68150743574e-06
    z: 1.72086001839e-05
  orientation: 
    x: 2.21722730113e-05
    y: 1.73696735076e-05
    z: 3.49204174059e-06
    w: 0.999999999597
---
header: 
  seq: 108
  stamp: 
    secs: 702
    nsecs: 622000000
  frame_id: "world"
pose: 
  position: 
    x: 0.000101482655737
    y: 0.000140752934385
    z: -2.75638849416e-05
  orientation: 
    x: 3.79724987799e-05
    y: -3.44205581763e-05
    z: -6.89807028708e-06
    w: 0.999999998663
---
header: 
  seq: 109
  stamp: 
    secs: 702
    nsecs: 836000000
  frame_id: "world"
pose: 
  position: 
    x: 6.26412611382e-06
    y: -1.05734363842e-06
    z: -9.21368064155e-06
  orientation: 
    x: -1.20749768939e-06
    y: -3.39339578658e-07
    z: -1.53554299231e-06
    w: 0.999999999998
---
header: 
  seq: 110
  stamp: 
    secs: 703
    nsecs: 231000000
  frame_id: "world"
pose: 
  position: 
    x: 5.88328402955e-05
    y: 9.90817279671e-05
    z: -2.15044274228e-05
  orientation: 
    x: 2.58003910724e-05
    y: -1.88545782196e-05
    z: -4.30143472617e-06
    w: 0.99999999948
---
header: 
  seq: 111
  stamp: 
    secs: 703
    nsecs: 521000000
  frame_id: "world"
pose: 
  position: 
    x: -4.3896088755e-05
    y: 8.99014958122e-06
    z: 1.71260871866e-05
  orientation: 
    x: 2.17666201853e-05
    y: 1.5960986269e-05
    z: 3.21425295505e-06
    w: 0.999999999631
---
header: 
  seq: 112
  stamp: 
    secs: 703
    nsecs: 864000000
  frame_id: "world"
pose: 
  position: 
    x: 0.000101502941106
    y: 0.000140328949783
    z: -2.78695806628e-05
  orientation: 
    x: 3.77360301581e-05
    y: -3.43768296715e-05
    z: -6.91199783425e-06
    w: 0.999999998673
---
header: 
  seq: 113
  stamp: 
    secs: 704
    nsecs: 114000000
  frame_id: "world"
pose: 
  position: 
    x: 6.42214763502e-06
    y: -1.50751714045e-06
    z: -9.54263305175e-06
  orientation: 
    x: -1.44768034715e-06
    y: -3.40392432462e-07
    z: -1.57284614488e-06
    w: 0.999999999998
---
header: 
  seq: 114
  stamp: 
    secs: 704
    nsecs: 415000000
  frame_id: "world"
pose: 
  position: 
    x: 6.42214763502e-06
    y: -1.50751714045e-06
    z: -9.54263305175e-06
  orientation: 
    x: -1.44768034715e-06
    y: -3.40392432462e-07
    z: -1.57284614488e-06
    w: 0.999999999998
---
header: 
  seq: 115
  stamp: 
    secs: 704
    nsecs: 633000000
  frame_id: "world"
pose: 
  position: 
    x: 6.34223943052e-06
    y: -1.4222559912e-06
    z: -9.52402569965e-06
  orientation: 
    x: -1.41921702834e-06
    y: -3.26945126971e-07
    z: -1.52266716213e-06
    w: 0.999999999998
---
header: 
  seq: 116
  stamp: 
    secs: 704
    nsecs: 972000000
  frame_id: "world"
pose: 
  position: 
    x: 6.29447413303e-06
    y: -1.46358001984e-06
    z: -9.53652943281e-06
  orientation: 
    x: -1.44053717576e-06
    y: -3.04045016718e-07
    z: -1.51809922499e-06
    w: 0.999999999998
---
header: 
  seq: 117
  stamp: 
    secs: 705
    nsecs: 355000000
  frame_id: "world"
pose: 
  position: 
    x: 5.88969814999e-05
    y: 9.80985714705e-05
    z: -2.1909165298e-05
  orientation: 
    x: 2.52671143116e-05
    y: -1.88256617453e-05
    z: -4.30367071895e-06
    w: 0.999999999494
---
header: 
  seq: 118
  stamp: 
    secs: 705
    nsecs: 688000000
  frame_id: "world"
pose: 
  position: 
    x: 5.88969814999e-05
    y: 9.80985714705e-05
    z: -2.1909165298e-05
  orientation: 
    x: 2.52671143116e-05
    y: -1.88256617453e-05
    z: -4.30367071895e-06
    w: 0.999999999494
---
header: 
  seq: 119
  stamp: 
    secs: 706
    nsecs:  76000000
  frame_id: "world"
pose: 
  position: 
    x: 6.31087186775e-06
    y: -1.62655612712e-06
    z: -9.58975761023e-06
  orientation: 
    x: -1.53409666836e-06
    y: -3.07513715824e-07
    z: -1.51570895923e-06
    w: 0.999999999998
---
header: 
  seq: 120
  stamp: 
    secs: 706
    nsecs: 395000000
  frame_id: "world"
pose: 
  position: 
    x: 6.31087186775e-06
    y: -1.62655612712e-06
    z: -9.58975761023e-06
  orientation: 
    x: -1.53409666836e-06
    y: -3.07513715824e-07
    z: -1.51570895923e-06
    w: 0.999999999998
---
header: 
  seq: 121
  stamp: 
    secs: 706
    nsecs: 672000000
  frame_id: "world"
pose: 
  position: 
    x: 0.000101935045677
    y: 0.000138853487442
    z: -2.84045618173e-05
  orientation: 
    x: 3.6989476891e-05
    y: -3.45006664707e-05
    z: -6.87911914624e-06
    w: 0.999999998697
---
header: 
  seq: 122
  stamp: 
    secs: 706
    nsecs: 944000000
  frame_id: "world"
pose: 
  position: 
    x: -2.87283364742e-05
    y: 1.69470313267e-05
    z: 2.22118869715e-05
  orientation: 
    x: 2.69163501686e-05
    y: 1.03181555417e-05
    z: 5.39814663856e-07
    w: 0.999999999584
---
header: 
  seq: 123
  stamp: 
    secs: 707
    nsecs: 290000000
  frame_id: "world"
pose: 
  position: 
    x: 0.000101868135971
    y: 0.000140050513437
    z: -2.82353648799e-05
  orientation: 
    x: 3.75509661766e-05
    y: -3.44622130341e-05
    z: -6.87298005687e-06
    w: 0.999999998678
---
header: 
  seq: 124
  stamp: 
    secs: 707
    nsecs: 672000000
  frame_id: "world"
pose: 
  position: 
    x: 6.30008162261e-06
    y: -1.58812747486e-06
    z: -9.54727329372e-06
  orientation: 
    x: -1.511048481e-06
    y: -3.09240618889e-07
    z: -1.50868822857e-06
    w: 0.999999999998
---
header: 
  seq: 125
  stamp: 
    secs: 708
    nsecs:  48000000
  frame_id: "world"
pose: 
  position: 
    x: 6.30008162261e-06
    y: -1.58812747486e-06
    z: -9.54727329372e-06
  orientation: 
    x: -1.511048481e-06
    y: -3.09240618889e-07
    z: -1.50868822857e-06
    w: 0.999999999998
---
header: 
  seq: 126
  stamp: 
    secs: 708
    nsecs: 335000000
  frame_id: "world"
pose: 
  position: 
    x: 6.30100021226e-06
    y: -1.5469996697e-06
    z: -9.5512250482e-06
  orientation: 
    x: -1.4883746644e-06
    y: -3.02150368724e-07
    z: -1.50626499362e-06
    w: 0.999999999998
---
header: 
  seq: 127
  stamp: 
    secs: 708
    nsecs: 528000000
  frame_id: "world"
pose: 
  position: 
    x: 6.30100021226e-06
    y: -1.5469996697e-06
    z: -9.5512250482e-06
  orientation: 
    x: -1.4883746644e-06
    y: -3.02150368724e-07
    z: -1.50626499362e-06
    w: 0.999999999998
---
header: 
  seq: 128
  stamp: 
    secs: 708
    nsecs: 837000000
  frame_id: "world"
pose: 
  position: 
    x: 6.30100021226e-06
    y: -1.5469996697e-06
    z: -9.5512250482e-06
  orientation: 
    x: -1.4883746644e-06
    y: -3.02150368724e-07
    z: -1.50626499362e-06
    w: 0.999999999998
---
header: 
  seq: 129
  stamp: 
    secs: 709
    nsecs:  99000000
  frame_id: "world"
pose: 
  position: 
    x: 6.27102563158e-05
    y: 9.02400352061e-05
    z: -3.13322634611e-05
  orientation: 
    x: 2.11445294467e-05
    y: -1.85932985838e-05
    z: -5.37772757304e-06
    w: 0.999999999589
---
header: 
  seq: 130
  stamp: 
    secs: 709
    nsecs: 464000000
  frame_id: "world"
pose: 
  position: 
    x: -2.36629693973e-05
    y: 1.54165682034e-05
    z: 2.19833691517e-05
  orientation: 
    x: 2.60861324834e-05
    y: 8.50220112305e-06
    z: 4.30741238071e-08
    w: 0.999999999624
---
header: 
  seq: 131
  stamp: 
    secs: 709
    nsecs: 872000000
  frame_id: "world"
pose: 
  position: 
    x: -2.8952899811e-05
    y: 1.45129070006e-05
    z: 2.19795838348e-05
  orientation: 
    x: 2.57660958496e-05
    y: 1.03868123875e-05
    z: 4.21120603115e-07
    w: 0.999999999614
---
header: 
  seq: 132
  stamp: 
    secs: 710
    nsecs: 181000000
  frame_id: "world"
pose: 
  position: 
    x: -4.79438749608e-05
    y: 8.37263905851e-06
    z: 1.67965608853e-05
  orientation: 
    x: 2.15143718295e-05
    y: 1.74705928589e-05
    z: 3.39988878163e-06
    w: 0.99999999961
---
header: 
  seq: 133
  stamp: 
    secs: 710
    nsecs: 518000000
  frame_id: "world"
pose: 
  position: 
    x: 0.000105607490696
    y: 0.00013108389976
    z: -3.77924116037e-05
  orientation: 
    x: 3.28703608449e-05
    y: -3.41940176045e-05
    z: -7.9693909264e-06
    w: 0.999999998843
---
header: 
  seq: 134
  stamp: 
    secs: 710
    nsecs: 813000000
  frame_id: "world"
pose: 
  position: 
    x: 6.34743810224e-06
    y: -1.49509253333e-06
    z: -9.5532332125e-06
  orientation: 
    x: -1.46786226196e-06
    y: -3.33570369548e-07
    z: -1.49288189277e-06
    w: 0.999999999998
---
header: 
  seq: 135
  stamp: 
    secs: 711
    nsecs:  86000000
  frame_id: "world"
pose: 
  position: 
    x: 6.30252679912e-06
    y: -1.54123677021e-06
    z: -9.503021829e-06
  orientation: 
    x: -1.48052606619e-06
    y: -3.17331171117e-07
    z: -1.50360369843e-06
    w: 0.999999999998
---
header: 
  seq: 136
  stamp: 
    secs: 711
    nsecs: 380000000
  frame_id: "world"
pose: 
  position: 
    x: 6.16296711087e-06
    y: -1.60207855515e-06
    z: -9.52242680796e-06
  orientation: 
    x: -1.52150187204e-06
    y: -2.5589508823e-07
    z: -1.48478079609e-06
    w: 0.999999999998
---
header: 
  seq: 137
  stamp: 
    secs: 711
    nsecs: 635000000
  frame_id: "world"
pose: 
  position: 
    x: 6.23294090474e-06
    y: -1.09811321636e-06
    z: -9.68121275946e-06
  orientation: 
    x: -1.25648807625e-06
    y: -2.3590298781e-07
    z: -1.5647242435e-06
    w: 0.999999999998
---
header: 
  seq: 138
  stamp: 
    secs: 712
    nsecs:  41000000
  frame_id: "world"
pose: 
  position: 
    x: 6.23294090474e-06
    y: -1.09811321636e-06
    z: -9.68121275946e-06
  orientation: 
    x: -1.25648807625e-06
    y: -2.3590298781e-07
    z: -1.5647242435e-06
    w: 0.999999999998
---
header: 
  seq: 139
  stamp: 
    secs: 712
    nsecs: 453000000
  frame_id: "world"
pose: 
  position: 
    x: 6.28393318038e-05
    y: 8.95681878319e-05
    z: -3.14233111567e-05
  orientation: 
    x: 2.07901266465e-05
    y: -1.86423621851e-05
    z: -5.39035818074e-06
    w: 0.999999999596
---
header: 
  seq: 140
  stamp: 
    secs: 712
    nsecs: 761000000
  frame_id: "world"
pose: 
  position: 
    x: -4.32567430835e-05
    y: 7.68301924836e-06
    z: 1.67032740137e-05
  orientation: 
    x: 2.1059724524e-05
    y: 1.58070943088e-05
    z: 3.13234363492e-06
    w: 0.999999999648
---
header: 
  seq: 141
  stamp: 
    secs: 713
    nsecs:  46000000
  frame_id: "world"
pose: 
  position: 
    x: -2.7769814551e-05
    y: 1.44052210089e-05
    z: 2.14567899093e-05
  orientation: 
    x: 2.5630286463e-05
    y: 1.00404986331e-05
    z: 3.86088487257e-07
    w: 0.999999999621
---
header: 
  seq: 142
  stamp: 
    secs: 713
    nsecs: 336000000
  frame_id: "world"
pose: 
  position: 
    x: 4.36737218479e-06
    y: -8.09517496236e-06
    z: -1.04844539237e-05
  orientation: 
    x: -4.46080184697e-06
    y: 2.73917777346e-07
    z: -8.54193217483e-07
    w: 0.99999999999
---
header: 
  seq: 143
  stamp: 
    secs: 713
    nsecs: 551000000
  frame_id: "world"
pose: 
  position: 
    x: 6.27073895885e-05
    y: 9.00796221686e-05
    z: -3.15976321872e-05
  orientation: 
    x: 2.10382931896e-05
    y: -1.8550193992e-05
    z: -5.38609128633e-06
    w: 0.999999999592
---
header: 
  seq: 144
  stamp: 
    secs: 713
    nsecs: 876000000
  frame_id: "world"
pose: 
  position: 
    x: 6.50304491501e-06
    y: -9.10884750738e-07
    z: -9.68712356553e-06
  orientation: 
    x: -1.17969602797e-06
    y: -3.28708438246e-07
    z: -1.62441654083e-06
    w: 0.999999999998
---
header: 
  seq: 145
  stamp: 
    secs: 714
    nsecs: 133000000
  frame_id: "world"
pose: 
  position: 
    x: 6.27711415291e-05
    y: 9.024348401e-05
    z: -3.15515790135e-05
  orientation: 
    x: 2.11289752683e-05
    y: -1.85698427155e-05
    z: -5.42816996817e-06
    w: 0.99999999959
---
header: 
  seq: 146
  stamp: 
    secs: 714
    nsecs: 431000000
  frame_id: "world"
pose: 
  position: 
    x: 6.45496083962e-06
    y: -7.86325472291e-07
    z: -9.51446145336e-06
  orientation: 
    x: -1.10574512746e-06
    y: -3.43961175985e-07
    z: -1.61257582931e-06
    w: 0.999999999998
---
header: 
  seq: 147
  stamp: 
    secs: 714
    nsecs: 783000000
  frame_id: "world"
pose: 
  position: 
    x: 6.45496083962e-06
    y: -7.86325472291e-07
    z: -9.51446145336e-06
  orientation: 
    x: -1.10574512746e-06
    y: -3.43961175985e-07
    z: -1.61257582931e-06
    w: 0.999999999998
---
header: 
  seq: 148
  stamp: 
    secs: 714
    nsecs: 964000000
  frame_id: "world"
pose: 
  position: 
    x: 0.000105415121652
    y: 0.00013111095177
    z: -3.79547891498e-05
  orientation: 
    x: 3.28667265042e-05
    y: -3.40887963437e-05
    z: -7.97746905836e-06
    w: 0.999999998847
---
header: 
  seq: 149
  stamp: 
    secs: 715
    nsecs: 205000000
  frame_id: "world"
pose: 
  position: 
    x: -6.61281092107e-07
    y: 2.42455862463e-05
    z: -4.30071258961e-06
  orientation: 
    x: 1.00653269322e-05
    y: 2.52430913845e-06
    z: -3.70185421139e-06
    w: 0.999999999939
---
header: 
  seq: 150
  stamp: 
    secs: 715
    nsecs: 472000000
  frame_id: "world"
pose: 
  position: 
    x: -6.7652058533e-07
    y: 2.42692312895e-05
    z: -4.31079615737e-06
  orientation: 
    x: 1.00778534027e-05
    y: 2.53189705275e-06
    z: -3.70102134161e-06
    w: 0.999999999939
---
header: 
  seq: 151
  stamp: 
    secs: 715
    nsecs: 827000000
  frame_id: "world"
pose: 
  position: 
    x: -4.395016731e-05
    y: 1.07230471258e-05
    z: 1.71950778167e-05
  orientation: 
    x: 2.25461553695e-05
    y: 1.60166291545e-05
    z: 3.2055404505e-06
    w: 0.999999999612
---
header: 
  seq: 152
  stamp: 
    secs: 716
    nsecs: 287000000
  frame_id: "world"
pose: 
  position: 
    x: 6.30414069747e-05
    y: 9.08130677999e-05
    z: -3.17787780659e-05
  orientation: 
    x: 2.12901031685e-05
    y: -1.86659399255e-05
    z: -5.41542931162e-06
    w: 0.999999999584
---
header: 
  seq: 153
  stamp: 
    secs: 716
    nsecs: 692000000
  frame_id: "world"
pose: 
  position: 
    x: 6.30414069747e-05
    y: 9.08130677999e-05
    z: -3.17787780659e-05
  orientation: 
    x: 2.12901031685e-05
    y: -1.86659399255e-05
    z: -5.41542931162e-06
    w: 0.999999999584
---
header: 
  seq: 154
  stamp: 
    secs: 716
    nsecs: 961000000
  frame_id: "world"
pose: 
  position: 
    x: -4.34602043242e-05
    y: 7.53236008677e-06
    z: 1.63429267559e-05
  orientation: 
    x: 2.09285681121e-05
    y: 1.59483533879e-05
    z: 3.12064525933e-06
    w: 0.999999999649
---
header: 
  seq: 155
  stamp: 
    secs: 717
    nsecs: 231000000
  frame_id: "world"
pose: 
  position: 
    x: -4.34602043242e-05
    y: 7.53236008677e-06
    z: 1.63429267559e-05
  orientation: 
    x: 2.09285681121e-05
    y: 1.59483533879e-05
    z: 3.12064525933e-06
    w: 0.999999999649
---
header: 
  seq: 156
  stamp: 
    secs: 717
    nsecs: 480000000
  frame_id: "world"
pose: 
  position: 
    x: -4.34602043242e-05
    y: 7.53236008677e-06
    z: 1.63429267559e-05
  orientation: 
    x: 2.09285681121e-05
    y: 1.59483533879e-05
    z: 3.12064525933e-06
    w: 0.999999999649
---
header: 
  seq: 157
  stamp: 
    secs: 717
    nsecs: 767000000
  frame_id: "world"
pose: 
  position: 
    x: -5.18155218288e-07
    y: 2.39590644924e-05
    z: -4.41204474555e-06
  orientation: 
    x: 9.92408149555e-06
    y: 2.4732630662e-06
    z: -3.67861252904e-06
    w: 0.999999999941
---
header: 
  seq: 158
  stamp: 
    secs: 718
    nsecs:  72000000
  frame_id: "world"
pose: 
  position: 
    x: 0.000112579124107
    y: 0.000103829392174
    z: -4.3328065658e-05
  orientation: 
    x: 2.07502398363e-05
    y: -3.70070919987e-05
    z: -5.64112269269e-06
    w: 0.999999999084
---
header: 
  seq: 159
  stamp: 
    secs: 718
    nsecs: 299000000
  frame_id: "world"
pose: 
  position: 
    x: -4.41168231191e-05
    y: 7.26207053958e-06
    z: 1.66326844919e-05
  orientation: 
    x: 2.08249566566e-05
    y: 1.62053838664e-05
    z: 3.12622500932e-06
    w: 0.999999999647
---
header: 
  seq: 160
  stamp: 
    secs: 718
    nsecs: 625000000
  frame_id: "world"
pose: 
  position: 
    x: 1.22502271438e-07
    y: 2.38275315496e-05
    z: -4.50925699624e-06
  orientation: 
    x: 9.84642792843e-06
    y: 2.26827046377e-06
    z: -3.71525197785e-06
    w: 0.999999999942
---
header: 
  seq: 161
  stamp: 
    secs: 718
    nsecs: 944000000
  frame_id: "world"
pose: 
  position: 
    x: -2.85789756163e-05
    y: 1.45345093188e-05
    z: 2.09921072383e-05
  orientation: 
    x: 2.56355378853e-05
    y: 1.04506243548e-05
    z: 4.89947922045e-07
    w: 0.999999999617
---
header: 
  seq: 162
  stamp: 
    secs: 719
    nsecs: 274000000
  frame_id: "world"
pose: 
  position: 
    x: -2.8610267691e-05
    y: 1.45181857079e-05
    z: 2.09321169677e-05
  orientation: 
    x: 2.56301827805e-05
    y: 1.04718610561e-05
    z: 4.95132894495e-07
    w: 0.999999999617
---
header: 
  seq: 163
  stamp: 
    secs: 719
    nsecs: 542000000
  frame_id: "world"
pose: 
  position: 
    x: 0.000112539928523
    y: 0.000103904101707
    z: -4.33195564256e-05
  orientation: 
    x: 2.07885386581e-05
    y: -3.70035667972e-05
    z: -5.64272886032e-06
    w: 0.999999999083
---
header: 
  seq: 164
  stamp: 
    secs: 719
    nsecs: 836000000
  frame_id: "world"
pose: 
  position: 
    x: 0.00011223891488
    y: 0.000103041806142
    z: -4.34693065472e-05
  orientation: 
    x: 2.03656490883e-05
    y: -3.69028748203e-05
    z: -5.55131964073e-06
    w: 0.999999999096
---
header: 
  seq: 165
  stamp: 
    secs: 720
    nsecs: 180000000
  frame_id: "world"
pose: 
  position: 
    x: -3.25120527123e-05
    y: 1.66647914739e-05
    z: 1.89556139958e-05
  orientation: 
    x: 2.60836713897e-05
    y: 1.22748215239e-05
    z: 2.15918976119e-06
    w: 0.999999999582
---
header: 
  seq: 166
  stamp: 
    secs: 720
    nsecs: 439000000
  frame_id: "world"
pose: 
  position: 
    x: 6.30193244433e-05
    y: 9.03975233086e-05
    z: -3.18411402986e-05
  orientation: 
    x: 2.10646303371e-05
    y: -1.86646193393e-05
    z: -5.36303059342e-06
    w: 0.99999999959
---
header: 
  seq: 167
  stamp: 
    secs: 720
    nsecs: 881000000
  frame_id: "world"
pose: 
  position: 
    x: -7.04471077029e-08
    y: 2.33184327953e-05
    z: -4.65398670713e-06
  orientation: 
    x: 9.57459633302e-06
    y: 2.33582727547e-06
    z: -3.63691970031e-06
    w: 0.999999999945
---
header: 
  seq: 168
  stamp: 
    secs: 721
    nsecs: 154000000
  frame_id: "world"
pose: 
  position: 
    x: 2.58975614287e-08
    y: 2.3373944714e-05
    z: -4.66397113996e-06
  orientation: 
    x: 9.60135821462e-06
    y: 2.29637907965e-06
    z: -3.64249558495e-06
    w: 0.999999999945
---
header: 
  seq: 169
  stamp: 
    secs: 721
    nsecs: 444000000
  frame_id: "world"
pose: 
  position: 
    x: 0.000113548412628
    y: 0.000112157889816
    z: -4.21145887231e-05
  orientation: 
    x: 2.45986175037e-05
    y: -3.73046859371e-05
    z: -5.69157418217e-06
    w: 0.999999998985
---
header: 
  seq: 170
  stamp: 
    secs: 721
    nsecs: 595000000
  frame_id: "world"
pose: 
  position: 
    x: -3.28853531073e-07
    y: 2.37806616497e-05
    z: -4.44358738605e-06
  orientation: 
    x: 9.8311566029e-06
    y: 2.40803160509e-06
    z: -3.57111412065e-06
    w: 0.999999999942
---
header: 
  seq: 171
  stamp: 
    secs: 721
    nsecs: 950000000
  frame_id: "world"
pose: 
  position: 
    x: -3.30414659402e-05
    y: 1.86443867278e-05
    z: 1.9341123334e-05
  orientation: 
    x: 2.71256503644e-05
    y: 1.24471334801e-05
    z: 2.26359770648e-06
    w: 0.999999999552
---
header: 
  seq: 172
  stamp: 
    secs: 722
    nsecs: 200000000
  frame_id: "world"
pose: 
  position: 
    x: 0.000113541122118
    y: 0.00011209549848
    z: -4.20921460318e-05
  orientation: 
    x: 2.45663358988e-05
    y: -3.73054353608e-05
    z: -5.69050143318e-06
    w: 0.999999998986
---
header: 
  seq: 173
  stamp: 
    secs: 722
    nsecs: 636000000
  frame_id: "world"
pose: 
  position: 
    x: -2.96487627338e-07
    y: 2.38315624301e-05
    z: -4.44709621661e-06
  orientation: 
    x: 9.85296264787e-06
    y: 2.3956265521e-06
    z: -3.57472481462e-06
    w: 0.999999999942
---
header: 
  seq: 174
  stamp: 
    secs: 722
    nsecs: 994000000
  frame_id: "world"
pose: 
  position: 
    x: -3.29941067321e-05
    y: 1.79175985977e-05
    z: 1.92511470232e-05
  orientation: 
    x: 2.67861687344e-05
    y: 1.24406078557e-05
    z: 2.28896487797e-06
    w: 0.999999999561
---
header: 
  seq: 175
  stamp: 
    secs: 723
    nsecs: 249000000
  frame_id: "world"
pose: 
  position: 
    x: -4.93850238854e-05
    y: 8.01872465672e-06
    z: 1.63827135111e-05
  orientation: 
    x: 2.12879622183e-05
    y: 1.8113201797e-05
    z: 3.61270690375e-06
    w: 0.999999999603
---
header: 
  seq: 176
  stamp: 
    secs: 723
    nsecs: 544000000
  frame_id: "world"
pose: 
  position: 
    x: 0.000113414840598
    y: 0.000111971734441
    z: -4.20448668592e-05
  orientation: 
    x: 2.45205246508e-05
    y: -3.72440481066e-05
    z: -5.67734059013e-06
    w: 0.99999999899
---
header: 
  seq: 177
  stamp: 
    secs: 723
    nsecs: 817000000
  frame_id: "world"
pose: 
  position: 
    x: 6.2308194174e-05
    y: 8.97953141248e-05
    z: -3.18634483847e-05
  orientation: 
    x: 2.08293513341e-05
    y: -1.84153541267e-05
    z: -5.25923223694e-06
    w: 0.9999999996
---
header: 
  seq: 178
  stamp: 
    secs: 724
    nsecs: 271000000
  frame_id: "world"
pose: 
  position: 
    x: -3.92960032514e-07
    y: 2.39154032897e-05
    z: -4.47565753348e-06
  orientation: 
    x: 9.89057752974e-06
    y: 2.4385203686e-06
    z: -3.5536145331e-06
    w: 0.999999999942
---
header: 
  seq: 179
  stamp: 
    secs: 724
    nsecs: 553000000
  frame_id: "world"
pose: 
  position: 
    x: -3.46855301814e-07
    y: 2.39324108406e-05
    z: -4.44712122771e-06
  orientation: 
    x: 9.89601630805e-06
    y: 2.41441352941e-06
    z: -3.55688825927e-06
    w: 0.999999999942
---
header: 
  seq: 180
  stamp: 
    secs: 724
    nsecs: 944000000
  frame_id: "world"
pose: 
  position: 
    x: -3.30498733092e-05
    y: 1.64775574376e-05
    z: 1.90147566173e-05
  orientation: 
    x: 2.60358756241e-05
    y: 1.24710322727e-05
    z: 2.28120643346e-06
    w: 0.999999999581
---
header: 
  seq: 181
  stamp: 
    secs: 725
    nsecs: 217000000
  frame_id: "world"
pose: 
  position: 
    x: -4.61258678115e-05
    y: 1.72126055986e-05
    z: 1.89139209397e-05
  orientation: 
    x: 2.58280979199e-05
    y: 1.69499871763e-05
    z: 3.41718737053e-06
    w: 0.999999999517
---
header: 
  seq: 182
  stamp: 
    secs: 725
    nsecs: 486000000
  frame_id: "world"
pose: 
  position: 
    x: -3.7456283053e-07
    y: 2.38670163526e-05
    z: -4.45033947472e-06
  orientation: 
    x: 9.8712725952e-06
    y: 2.42665259961e-06
    z: -3.54540406968e-06
    w: 0.999999999942
---
header: 
  seq: 183
  stamp: 
    secs: 725
    nsecs: 709000000
  frame_id: "world"
pose: 
  position: 
    x: -4.57246424048e-05
    y: 1.10488654173e-05
    z: 1.70453677129e-05
  orientation: 
    x: 2.27164346051e-05
    y: 1.67449288643e-05
    z: 3.41443751357e-06
    w: 0.999999999596
---
header: 
  seq: 184
  stamp: 
    secs: 726
    nsecs:  76000000
  frame_id: "world"
pose: 
  position: 
    x: 0.000113687645353
    y: 0.000112270092359
    z: -4.20222604589e-05
  orientation: 
    x: 2.46507824817e-05
    y: -3.73377769922e-05
    z: -5.6698399873e-06
    w: 0.999999998983
---
header: 
  seq: 185
  stamp: 
    secs: 726
    nsecs: 531000000
  frame_id: "world"
pose: 
  position: 
    x: -4.96002903674e-05
    y: 8.06433672551e-06
    z: 1.64427383424e-05
  orientation: 
    x: 2.13102211916e-05
    y: 1.819507451e-05
    z: 3.64306401789e-06
    w: 0.999999999601
---
header: 
  seq: 186
  stamp: 
    secs: 726
    nsecs: 842000000
  frame_id: "world"
pose: 
  position: 
    x: -6.63450691718e-07
    y: 2.42496989813e-05
    z: -4.08468667956e-06
  orientation: 
    x: 1.00465913414e-05
    y: 2.47035609376e-06
    z: -3.47699483407e-06
    w: 0.99999999994
---
header: 
  seq: 187
  stamp: 
    secs: 727
    nsecs: 180000000
  frame_id: "world"
pose: 
  position: 
    x: 0.0001138072912
    y: 0.000112251756946
    z: -4.22273406002e-05
  orientation: 
    x: 2.46283306956e-05
    y: -3.73408037906e-05
    z: -5.68998574967e-06
    w: 0.999999998983
---
header: 
  seq: 188
  stamp: 
    secs: 727
    nsecs: 461000000
  frame_id: "world"
pose: 
  position: 
    x: -4.55625413451e-05
    y: 7.38151584301e-06
    z: 1.66751051438e-05
  orientation: 
    x: 2.09075005765e-05
    y: 1.67670386811e-05
    z: 3.34368905775e-06
    w: 0.999999999635
---
header: 
  seq: 189
  stamp: 
    secs: 727
    nsecs: 710000000
  frame_id: "world"
pose: 
  position: 
    x: -4.55625413451e-05
    y: 7.38151584301e-06
    z: 1.66751051438e-05
  orientation: 
    x: 2.09075005765e-05
    y: 1.67670386811e-05
    z: 3.34368905775e-06
    w: 0.999999999635
---
header: 
  seq: 190
  stamp: 
    secs: 728
    nsecs: 126000000
  frame_id: "world"
pose: 
  position: 
    x: -7.33612637305e-07
    y: 2.44834154728e-05
    z: -3.63062463293e-06
  orientation: 
    x: 1.01424921007e-05
    y: 2.41278394227e-06
    z: -3.39653661265e-06
    w: 0.99999999994
---
header: 
  seq: 191
  stamp: 
    secs: 728
    nsecs: 454000000
  frame_id: "world"
pose: 
  position: 
    x: -5.0524911785e-05
    y: 1.83777920029e-05
    z: 1.91245489987e-05
  orientation: 
    x: 2.71333101261e-05
    y: 1.85310654969e-05
    z: 3.16372847747e-06
    w: 0.999999999455
---
header: 
  seq: 192
  stamp: 
    secs: 728
    nsecs: 806000000
  frame_id: "world"
pose: 
  position: 
    x: 0.00011385356629
    y: 0.00011216859275
    z: -4.22086413892e-05
  orientation: 
    x: 2.45920636849e-05
    y: -3.73291258787e-05
    z: -5.68814265866e-06
    w: 0.999999998985
---
header: 
  seq: 193
  stamp: 
    secs: 729
    nsecs: 170000000
  frame_id: "world"
pose: 
  position: 
    x: -4.83088740566e-07
    y: 2.39268756559e-05
    z: -4.08302594224e-06
  orientation: 
    x: 9.86462691742e-06
    y: 2.38987627185e-06
    z: -3.45501075552e-06
    w: 0.999999999943
---
header: 
  seq: 194
  stamp: 
    secs: 729
    nsecs: 470000000
  frame_id: "world"
pose: 
  position: 
    x: -1.49670597693e-06
    y: 2.30091336562e-05
    z: -3.93766777051e-06
  orientation: 
    x: 9.39966776008e-06
    y: 2.71576413965e-06
    z: -3.45740818356e-06
    w: 0.999999999946
---
header: 
  seq: 195
  stamp: 
    secs: 729
    nsecs: 744000000
  frame_id: "world"
pose: 
  position: 
    x: -5.1645336498e-05
    y: 1.87561890925e-05
    z: 1.95048396563e-05
  orientation: 
    x: 2.73381847212e-05
    y: 1.88665417122e-05
    z: 3.27442512389e-06
    w: 0.999999999443
---
header: 
  seq: 196
  stamp: 
    secs: 730
    nsecs: 131000000
  frame_id: "world"
pose: 
  position: 
    x: -5.61812667002e-05
    y: 2.91974392894e-05
    z: 2.07462435355e-05
  orientation: 
    x: 3.05810426443e-05
    y: 2.08675592005e-05
    z: 1.47028560958e-06
    w: 0.999999999314
---
header: 
  seq: 197
  stamp: 
    secs: 730
    nsecs: 528000000
  frame_id: "world"
pose: 
  position: 
    x: 0.000113931411761
    y: 0.000111683177238
    z: -4.22730990977e-05
  orientation: 
    x: 2.43880221868e-05
    y: -3.73562542868e-05
    z: -5.62233298638e-06
    w: 0.999999998989
---
header: 
  seq: 198
  stamp: 
    secs: 730
    nsecs: 928000000
  frame_id: "world"
pose: 
  position: 
    x: -6.87332999405e-07
    y: 2.38913107751e-05
    z: -4.19666048401e-06
  orientation: 
    x: 9.80786899107e-06
    y: 2.47786533677e-06
    z: -3.33565799319e-06
    w: 0.999999999943
---
header: 
  seq: 199
  stamp: 
    secs: 731
    nsecs: 265000000
  frame_id: "world"
pose: 
  position: 
    x: -5.18727792951e-05
    y: 3.12513620884e-05
    z: 2.09879981412e-05
  orientation: 
    x: 3.15247016045e-05
    y: 1.92470106281e-05
    z: 1.31366561983e-06
    w: 0.999999999317
---
header: 
  seq: 200
  stamp: 
    secs: 731
    nsecs: 556000000
  frame_id: "world"
pose: 
  position: 
    x: -5.84352892474e-05
    y: 4.03324556828e-05
    z: 2.38050652115e-05
  orientation: 
    x: 3.67662359742e-05
    y: 2.16000753229e-05
    z: 1.23686765961e-06
    w: 0.99999999909
---
header: 
  seq: 201
  stamp: 
    secs: 731
    nsecs: 806000000
  frame_id: "world"
pose: 
  position: 
    x: 0.000114059490443
    y: 0.000111820838356
    z: -4.22092562076e-05
  orientation: 
    x: 2.44341972327e-05
    y: -3.74120717954e-05
    z: -5.62124295696e-06
    w: 0.999999998986
---
header: 
  seq: 202
  stamp: 
    secs: 732
    nsecs:  81000000
  frame_id: "world"
pose: 
  position: 
    x: -5.22830305272e-05
    y: 2.84549641947e-05
    z: 2.10564594454e-05
  orientation: 
    x: 3.02071766587e-05
    y: 1.9452083494e-05
    z: 1.36188248146e-06
    w: 0.999999999354
---
header: 
  seq: 203
  stamp: 
    secs: 732
    nsecs: 366000000
  frame_id: "world"
pose: 
  position: 
    x: -5.77963037358e-05
    y: 3.86275678466e-05
    z: 2.3699398298e-05
  orientation: 
    x: 3.58777797061e-05
    y: 2.13326002081e-05
    z: 1.19379649173e-06
    w: 0.999999999128
---
header: 
  seq: 204
  stamp: 
    secs: 732
    nsecs: 695000000
  frame_id: "world"
pose: 
  position: 
    x: -6.64662820782e-07
    y: 2.42699497903e-05
    z: -4.42280406787e-06
  orientation: 
    x: 9.96243488713e-06
    y: 2.51786468638e-06
    z: -3.34410037775e-06
    w: 0.999999999942
---
header: 
  seq: 205
  stamp: 
    secs: 733
    nsecs:  68000000
  frame_id: "world"
pose: 
  position: 
    x: -5.4187108617e-05
    y: 4.22999619332e-05
    z: 2.44463753916e-05
  orientation: 
    x: 3.77137075359e-05
    y: 1.99377536592e-05
    z: 1.01553314288e-06
    w: 0.99999999909
---
header: 
  seq: 206
  stamp: 
    secs: 733
    nsecs: 416000000
  frame_id: "world"
pose: 
  position: 
    x: -5.77803475608e-05
    y: 3.97665426135e-05
    z: 2.39363307628e-05
  orientation: 
    x: 3.65132691187e-05
    y: 2.13225375583e-05
    z: 1.14661099712e-06
    w: 0.999999999105
---
header: 
  seq: 207
  stamp: 
    secs: 733
    nsecs: 646000000
  frame_id: "world"
pose: 
  position: 
    x: -1.63508588003e-07
    y: 2.43164158746e-05
    z: -3.81221548196e-06
  orientation: 
    x: 1.00226388889e-05
    y: 2.23383676699e-06
    z: -3.38738141161e-06
    w: 0.999999999942
---
header: 
  seq: 208
  stamp: 
    secs: 733
    nsecs: 944000000
  frame_id: "world"
pose: 
  position: 
    x: -5.43445894436e-05
    y: 4.10096872656e-05
    z: 2.42269816226e-05
  orientation: 
    x: 3.70459856311e-05
    y: 2.00150625283e-05
    z: 9.83745620979e-07
    w: 0.999999999113
---
header: 
  seq: 209
  stamp: 
    secs: 734
    nsecs: 204000000
  frame_id: "world"
pose: 
  position: 
    x: -1.05533459305e-07
    y: 2.39612909354e-05
    z: -4.20339938501e-06
  orientation: 
    x: 9.81477114637e-06
    y: 2.26414203995e-06
    z: -3.33383286469e-06
    w: 0.999999999944
---
header: 
  seq: 210
  stamp: 
    secs: 734
    nsecs: 512000000
  frame_id: "world"
pose: 
  position: 
    x: 0.00011379483476
    y: 0.000111668858153
    z: -4.22739794885e-05
  orientation: 
    x: 2.43321664794e-05
    y: -3.73037728047e-05
    z: -5.51418633576e-06
    w: 0.999999998993
---
header: 
  seq: 211
  stamp: 
    secs: 734
    nsecs: 876000000
  frame_id: "world"
pose: 
  position: 
    x: -1.58816007456e-07
    y: 2.38842076214e-05
    z: -4.18086892751e-06
  orientation: 
    x: 9.775697435e-06
    y: 2.2859690033e-06
    z: -3.33135540113e-06
    w: 0.999999999944
---
header: 
  seq: 212
  stamp: 
    secs: 735
    nsecs: 237000000
  frame_id: "world"
pose: 
  position: 
    x: -5.1881026593e-05
    y: 3.0709488783e-05
    z: 2.09727659239e-05
  orientation: 
    x: 3.12670053761e-05
    y: 1.92303432284e-05
    z: 1.27121700103e-06
    w: 0.999999999325
---
header: 
  seq: 213
  stamp: 
    secs: 735
    nsecs: 522000000
  frame_id: "world"
pose: 
  position: 
    x: -5.74257755943e-05
    y: 3.95981987822e-05
    z: 2.35880561377e-05
  orientation: 
    x: 3.64065744765e-05
    y: 2.12663635277e-05
    z: 1.13960288571e-06
    w: 0.999999999111
---
header: 
  seq: 214
  stamp: 
    secs: 735
    nsecs: 819000000
  frame_id: "world"
pose: 
  position: 
    x: -5.58457686566e-05
    y: 2.87632883555e-05
    z: 2.05645810638e-05
  orientation: 
    x: 3.03273136319e-05
    y: 2.07555294624e-05
    z: 1.48504898234e-06
    w: 0.999999999324
---
header: 
  seq: 215
  stamp: 
    secs: 736
    nsecs:  56000000
  frame_id: "world"
pose: 
  position: 
    x: -5.58457686566e-05
    y: 2.87632883555e-05
    z: 2.05645810638e-05
  orientation: 
    x: 3.03273136319e-05
    y: 2.07555294624e-05
    z: 1.48504898234e-06
    w: 0.999999999324
---
header: 
  seq: 216
  stamp: 
    secs: 736
    nsecs: 315000000
  frame_id: "world"
pose: 
  position: 
    x: 6.96235001669e-05
    y: 6.51426817058e-05
    z: -3.72086542484e-05
  orientation: 
    x: 9.92713284808e-06
    y: -2.1294448737e-05
    z: -2.89280023854e-06
    w: 0.99999999972
---
header: 
  seq: 217
  stamp: 
    secs: 736
    nsecs: 679000000
  frame_id: "world"
pose: 
  position: 
    x: 4.37150646349e-07
    y: 2.44336461037e-05
    z: -4.2202482291e-06
  orientation: 
    x: 1.00169963838e-05
    y: 2.08640722109e-06
    z: -3.41701729647e-06
    w: 0.999999999942
---
header: 
  seq: 218
  stamp: 
    secs: 737
    nsecs:   5000000
  frame_id: "world"
pose: 
  position: 
    x: 6.94249683875e-05
    y: 6.66929699946e-05
    z: -3.69510016753e-05
  orientation: 
    x: 1.07170681046e-05
    y: -2.12199629398e-05
    z: -2.90188813695e-06
    w: 0.999999999713
---
header: 
  seq: 219
  stamp: 
    secs: 737
    nsecs: 376000000
  frame_id: "world"
pose: 
  position: 
    x: -5.27698648511e-05
    y: 4.02428013331e-05
    z: 2.39885466726e-05
  orientation: 
    x: 3.67317843166e-05
    y: 1.95689644728e-05
    z: 8.14127644593e-07
    w: 0.999999999134
---
header: 
  seq: 220
  stamp: 
    secs: 737
    nsecs: 732000000
  frame_id: "world"
pose: 
  position: 
    x: 4.65057240717e-07
    y: 2.45419923885e-05
    z: -4.27702889283e-06
  orientation: 
    x: 1.00650904636e-05
    y: 2.07613584268e-06
    z: -3.40690598912e-06
    w: 0.999999999941
---
header: 
  seq: 221
  stamp: 
    secs: 738
    nsecs:  84000000
  frame_id: "world"
pose: 
  position: 
    x: -5.7638510043e-05
    y: 3.8035774196e-05
    z: 2.31927006098e-05
  orientation: 
    x: 3.55796255156e-05
    y: 2.13906405222e-05
    z: 1.10023915927e-06
    w: 0.999999999138
---
header: 
  seq: 222
  stamp: 
    secs: 738
    nsecs: 368000000
  frame_id: "world"
pose: 
  position: 
    x: 4.68771332862e-07
    y: 2.45120954787e-05
    z: -4.20432525061e-06
  orientation: 
    x: 1.00491988627e-05
    y: 2.08080336949e-06
    z: -3.40916426447e-06
    w: 0.999999999942
---
header: 
  seq: 223
  stamp: 
    secs: 738
    nsecs: 633000000
  frame_id: "world"
pose: 
  position: 
    x: -5.16333384439e-05
    y: 3.12001939164e-05
    z: 2.09987647395e-05
  orientation: 
    x: 3.14892640531e-05
    y: 1.9174600298e-05
    z: 1.23718189031e-06
    w: 0.99999999932
---
header: 
  seq: 224
  stamp: 
    secs: 739
    nsecs:  18000000
  frame_id: "world"
pose: 
  position: 
    x: 0.0001119163353
    y: 0.000103631515231
    z: -4.33362729382e-05
  orientation: 
    x: 2.06606054958e-05
    y: -3.6667312055e-05
    z: -5.33029469327e-06
    w: 0.9999999991
---
header: 
  seq: 225
  stamp: 
    secs: 739
    nsecs: 371000000
  frame_id: "world"
pose: 
  position: 
    x: -5.2520303143e-05
    y: 2.84211164399e-05
    z: 2.11191127164e-05
  orientation: 
    x: 3.01604904767e-05
    y: 1.9520060947e-05
    z: 1.4867478048e-06
    w: 0.999999999354
---
header: 
  seq: 226
  stamp: 
    secs: 739
    nsecs: 675000000
  frame_id: "world"
pose: 
  position: 
    x: 6.94875052432e-05
    y: 6.45249165245e-05
    z: -3.74418777938e-05
  orientation: 
    x: 9.64234913871e-06
    y: -2.11622063886e-05
    z: -2.87294392286e-06
    w: 0.999999999725
---
header: 
  seq: 227
  stamp: 
    secs: 740
    nsecs: 100000000
  frame_id: "world"
pose: 
  position: 
    x: -5.80880405323e-05
    y: 3.89209781133e-05
    z: 2.34113431361e-05
  orientation: 
    x: 3.60605845026e-05
    y: 2.15472573282e-05
    z: 1.21645928068e-06
    w: 0.999999999117
---
header: 
  seq: 228
  stamp: 
    secs: 740
    nsecs: 374000000
  frame_id: "world"
pose: 
  position: 
    x: 0.000111751796794
    y: 0.00010360134911
    z: -4.33534041804e-05
  orientation: 
    x: 2.06495460403e-05
    y: -3.66023995993e-05
    z: -5.3343092029e-06
    w: 0.999999999103
---
header: 
  seq: 229
  stamp: 
    secs: 740
    nsecs: 645000000
  frame_id: "world"
pose: 
  position: 
    x: 6.83697726345e-06
    y: 1.20521417557e-06
    z: -8.9730556283e-06
  orientation: 
    x: -3.33480187464e-07
    y: -5.5253372011e-07
    z: -1.22546691728e-06
    w: 0.999999999999
---
header: 
  seq: 230
  stamp: 
    secs: 740
    nsecs: 949000000
  frame_id: "world"
pose: 
  position: 
    x: 6.83697726345e-06
    y: 1.20521417557e-06
    z: -8.9730556283e-06
  orientation: 
    x: -3.33480187464e-07
    y: -5.5253372011e-07
    z: -1.22546691728e-06
    w: 0.999999999999
---
header: 
  seq: 231
  stamp: 
    secs: 741
    nsecs: 248000000
  frame_id: "world"
pose: 
  position: 
    x: 6.82598329149e-06
    y: -8.25521567549e-07
    z: -9.51010588324e-06
  orientation: 
    x: -1.29711702357e-06
    y: -5.00273756642e-07
    z: -1.29529234982e-06
    w: 0.999999999998
---
header: 
  seq: 232
  stamp: 
    secs: 741
    nsecs: 609000000
  frame_id: "world"
pose: 
  position: 
    x: 6.82598329149e-06
    y: -8.25521567549e-07
    z: -9.51010588324e-06
  orientation: 
    x: -1.29711702357e-06
    y: -5.00273756642e-07
    z: -1.29529234982e-06
    w: 0.999999999998
---
header: 
  seq: 233
  stamp: 
    secs: 742
    nsecs:  38000000
  frame_id: "world"
pose: 
  position: 
    x: 6.82598329149e-06
    y: -8.25521567549e-07
    z: -9.51010588324e-06
  orientation: 
    x: -1.29711702357e-06
    y: -5.00273756642e-07
    z: -1.29529234982e-06
    w: 0.999999999998
---
header: 
  seq: 234
  stamp: 
    secs: 742
    nsecs: 411000000
  frame_id: "world"
pose: 
  position: 
    x: 6.97357827448e-05
    y: 6.34981188341e-05
    z: -3.74926166842e-05
  orientation: 
    x: 9.13359417361e-06
    y: -2.12884297013e-05
    z: -2.80411154487e-06
    w: 0.999999999728
---
header: 
  seq: 235
  stamp: 
    secs: 742
    nsecs: 698000000
  frame_id: "world"
pose: 
  position: 
    x: -5.72980170546e-05
    y: 3.67051579815e-05
    z: 2.29136749113e-05
  orientation: 
    x: 3.4869837662e-05
    y: 2.12789873153e-05
    z: 1.27870123272e-06
    w: 0.999999999165
---
header: 
  seq: 236
  stamp: 
    secs: 742
    nsecs: 970000000
  frame_id: "world"
pose: 
  position: 
    x: 7.66285756981e-06
    y: -1.05784408788e-06
    z: -9.39374785958e-06
  orientation: 
    x: -1.40979852858e-06
    y: -7.98550615853e-07
    z: -1.3486944681e-06
    w: 0.999999999998
---
header: 
  seq: 237
  stamp: 
    secs: 743
    nsecs: 220000000
  frame_id: "world"
pose: 
  position: 
    x: 7.66285756981e-06
    y: -1.05784408788e-06
    z: -9.39374785958e-06
  orientation: 
    x: -1.40979852858e-06
    y: -7.98550615853e-07
    z: -1.3486944681e-06
    w: 0.999999999998
---
header: 
  seq: 238
  stamp: 
    secs: 743
    nsecs: 587000000
  frame_id: "world"
pose: 
  position: 
    x: 6.99536394677e-05
    y: 6.47393826512e-05
    z: -3.73665934603e-05
  orientation: 
    x: 9.78912248409e-06
    y: -2.13643961555e-05
    z: -2.88919409205e-06
    w: 0.99999999972
---
header: 
  seq: 239
  stamp: 
    secs: 743
    nsecs: 908000000
  frame_id: "world"
pose: 
  position: 
    x: 6.99536394677e-05
    y: 6.47393826512e-05
    z: -3.73665934603e-05
  orientation: 
    x: 9.78912248409e-06
    y: -2.13643961555e-05
    z: -2.88919409205e-06
    w: 0.99999999972
---
header: 
  seq: 240
  stamp: 
    secs: 744
    nsecs: 362000000
  frame_id: "world"
pose: 
  position: 
    x: 7.41333724363e-06
    y: 8.13773056052e-07
    z: -8.92096159077e-06
  orientation: 
    x: -5.23894016168e-07
    y: -7.29919975128e-07
    z: -1.27416603845e-06
    w: 0.999999999999
---
header: 
  seq: 241
  stamp: 
    secs: 744
    nsecs: 761000000
  frame_id: "world"
pose: 
  position: 
    x: 7.41318444852e-06
    y: 8.04692774636e-07
    z: -8.88487647899e-06
  orientation: 
    x: -5.25287418895e-07
    y: -7.30106705759e-07
    z: -1.26949396417e-06
    w: 0.999999999999
---
header: 
  seq: 242
  stamp: 
    secs: 745
    nsecs:  41000000
  frame_id: "world"
pose: 
  position: 
    x: 7.41318444852e-06
    y: 8.04692774636e-07
    z: -8.88487647899e-06
  orientation: 
    x: -5.25287418895e-07
    y: -7.30106705759e-07
    z: -1.26949396417e-06
    w: 0.999999999999
---
header: 
  seq: 243
  stamp: 
    secs: 745
    nsecs: 350000000
  frame_id: "world"
pose: 
  position: 
    x: 7.41318444852e-06
    y: 8.04692774636e-07
    z: -8.88487647899e-06
  orientation: 
    x: -5.25287418895e-07
    y: -7.30106705759e-07
    z: -1.26949396417e-06
    w: 0.999999999999
---
header: 
  seq: 244
  stamp: 
    secs: 745
    nsecs: 618000000
  frame_id: "world"
pose: 
  position: 
    x: 0.000112011912279
    y: 0.000103849015431
    z: -4.32241758972e-05
  orientation: 
    x: 2.07593893532e-05
    y: -3.67134307121e-05
    z: -5.36031529434e-06
    w: 0.999999999096
---
header: 
  seq: 245
  stamp: 
    secs: 745
    nsecs: 933000000
  frame_id: "world"
pose: 
  position: 
    x: 7.00503296684e-05
    y: 6.49922294542e-05
    z: -3.75127492589e-05
  orientation: 
    x: 9.81852644778e-06
    y: -2.13787661718e-05
    z: -2.96725011056e-06
    w: 0.999999999719
---
header: 
  seq: 246
  stamp: 
    secs: 746
    nsecs: 337000000
  frame_id: "world"
pose: 
  position: 
    x: -5.08466655447e-05
    y: 2.97757960652e-05
    z: 2.07269185921e-05
  orientation: 
    x: 3.07955997212e-05
    y: 1.89414986256e-05
    z: 1.27762257223e-06
    w: 0.999999999346
---
header: 
  seq: 247
  stamp: 
    secs: 746
    nsecs: 628000000
  frame_id: "world"
pose: 
  position: 
    x: -5.74452133151e-05
    y: 3.76783718821e-05
    z: 2.30209025176e-05
  orientation: 
    x: 3.53750874335e-05
    y: 2.13366492789e-05
    z: 1.28447754723e-06
    w: 0.999999999146
---
header: 
  seq: 248
