header: 
  seq: 625
  stamp: 
    secs: 21887
    nsecs: 125000000
  frame_id: "world"
pose: 
  position: 
    x: -0.11950097509
    y: -0.717701537998
    z: 0.0861299392196
  orientation: 
    x: -0.33552768285
    y: 0.0681482597667
    z: -0.0395996236316
    w: 0.938727254606
---
header: 
  seq: 626
  stamp: 
    secs: 21887
    nsecs: 462000000
  frame_id: "world"
pose: 
  position: 
    x: -0.119438984714
    y: -0.717683735933
    z: 0.0861915963892
  orientation: 
    x: -0.335543971086
    y: 0.0681037586237
    z: -0.0396389713835
    w: 0.938723001464
---
header: 
  seq: 627
  stamp: 
    secs: 21887
    nsecs: 755000000
  frame_id: "world"
pose: 
  position: 
    x: -0.119520082798
    y: -0.717677403521
    z: 0.0860656749081
  orientation: 
    x: -0.335506016122
    y: 0.0681604811691
    z: -0.0396021760039
    w: 0.93873400365
---
header: 
  seq: 628
  stamp: 
    secs: 21888
    nsecs:  68000000
  frame_id: "world"
pose: 
  position: 
    x: -0.119438994856
    y: -0.717683743062
    z: 0.0861916101537
  orientation: 
    x: -0.335543980349
    y: 0.0681037685142
    z: -0.0396389676457
    w: 0.938722997593
---
header: 
  seq: 629
  stamp: 
    secs: 21888
    nsecs: 265000000
  frame_id: "world"
pose: 
  position: 
    x: -0.119520091036
    y: -0.717677419807
    z: 0.0860656482112
  orientation: 
    x: -0.335506016718
    y: 0.0681604829253
    z: -0.0396021759269
    w: 0.938734003313
---
header: 
  seq: 630
  stamp: 
    secs: 21888
    nsecs: 513000000
  frame_id: "world"
pose: 
  position: 
    x: -0.119463645471
    y: -0.717696828844
    z: 0.0861740765475
  orientation: 
    x: -0.3355450646
    y: 0.068123829369
    z: -0.0396136934327
    w: 0.938722221313
---
header: 
  seq: 631
  stamp: 
    secs: 21888
    nsecs: 897000000
  frame_id: "world"
pose: 
  position: 
    x: -0.119463627477
    y: -0.717696799294
    z: 0.0861740747131
  orientation: 
    x: -0.33554504829
    y: 0.0681238123892
    z: -0.0396136934555
    w: 0.938722228375
---
header: 
  seq: 632
  stamp: 
    secs: 21889
    nsecs: 309000000
  frame_id: "world"
pose: 
  position: 
    x: -0.119520030981
    y: -0.717677457993
    z: 0.0860656224544
  orientation: 
    x: -0.335506024922
    y: 0.0681604762209
    z: -0.0396021773818
    w: 0.938734000806
---
header: 
  seq: 633
  stamp: 
    secs: 21889
    nsecs: 538000000
  frame_id: "world"
pose: 
  position: 
    x: -0.11943900281
    y: -0.717683747392
    z: 0.0861915991068
  orientation: 
    x: -0.335543979957
    y: 0.0681037801371
    z: -0.0396389662208
    w: 0.93872299695
---
header: 
  seq: 634
  stamp: 
    secs: 21889
    nsecs: 703000000
  frame_id: "world"
pose: 
  position: 
    x: -0.119448569303
    y: -0.717753389108
    z: 0.0862229982808
  orientation: 
    x: -0.335606331431
    y: 0.0681197256611
    z: -0.0395553353905
    w: 0.93870307804
---
header: 
  seq: 635
  stamp: 
    secs: 21889
    nsecs: 881000000
  frame_id: "world"
pose: 
  position: 
    x: -0.119463635376
    y: -0.717696817316
    z: 0.0861740734951
  orientation: 
    x: -0.335545054552
    y: 0.068123820596
    z: -0.0396136970562
    w: 0.938722225389
---
header: 
  seq: 636
  stamp: 
    secs: 21890
    nsecs: 176000000
  frame_id: "world"
pose: 
  position: 
    x: -0.119477485246
    y: -0.717735085621
    z: 0.0861614045771
  orientation: 
    x: -0.335573964002
    y: 0.0681385724854
    z: -0.0395745429544
    w: 0.938712472045
---
header: 
  seq: 637
  stamp: 
    secs: 21890
    nsecs: 467000000
  frame_id: "world"
pose: 
  position: 
    x: -0.119520104281
    y: -0.717677411925
    z: 0.0860657077892
  orientation: 
    x: -0.335506029961
    y: 0.0681604953783
    z: -0.0396021698758
    w: 0.938733997931
---
header: 
  seq: 638
  stamp: 
    secs: 21890
    nsecs: 722000000
  frame_id: "world"
pose: 
  position: 
    x: -0.119477496272
    y: -0.717735085875
    z: 0.0861614098027
  orientation: 
    x: -0.335573962756
    y: 0.0681385793316
    z: -0.0395745417386
    w: 0.938712472045
---
header: 
  seq: 639
  stamp: 
    secs: 21891
    nsecs: 145000000
  frame_id: "world"
pose: 
  position: 
    x: -0.119544702361
    y: -0.717736997708
    z: 0.0860993572088
  orientation: 
    x: -0.335534440016
    y: 0.0681656222379
    z: -0.0396114552171
    w: 0.938723079573
---
header: 
  seq: 640
  stamp: 
    secs: 21891
    nsecs: 587000000
  frame_id: "world"
pose: 
  position: 
    x: -0.11942751889
    y: -0.717701480147
    z: 0.086212832371
  orientation: 
    x: -0.335556412327
    y: 0.0681014483389
    z: -0.0395996324256
    w: 0.938720382218
---
header: 
  seq: 641
  stamp: 
    secs: 21892
    nsecs: 111000000
  frame_id: "world"
pose: 
  position: 
    x: -0.121721794659
    y: -0.718290549386
    z: 0.0867566669504
  orientation: 
    x: -0.330424148728
    y: 0.0685971698145
    z: -0.0420406459225
    w: 0.940397200294
---
header: 
  seq: 642
  stamp: 
    secs: 21892
    nsecs: 437000000
  frame_id: "world"
pose: 
  position: 
    x: -0.128179242802
    y: -0.738853135553
    z: 0.099168660815
  orientation: 
    x: -0.306630063951
    y: 0.0696892410856
    z: -0.0515268189969
    w: 0.947874675515
---
header: 
  seq: 643
  stamp: 
    secs: 21892
    nsecs: 865000000
  frame_id: "world"
pose: 
  position: 
    x: -0.120318301424
    y: -0.766504938337
    z: 0.127641961106
  orientation: 
    x: -0.307173303676
    y: 0.0707045604695
    z: -0.0299314966713
    w: 0.948551280714
---
header: 
  seq: 644
  stamp: 
    secs: 21893
    nsecs: 341000000
  frame_id: "world"
pose: 
  position: 
    x: -0.122594367394
    y: -0.763873920811
    z: 0.151656360036
  orientation: 
    x: -0.302837616262
    y: 0.0713671428783
    z: -0.024017401734
    w: 0.950062773457
---
header: 
  seq: 645
  stamp: 
    secs: 21893
    nsecs: 745000000
  frame_id: "world"
pose: 
  position: 
    x: -0.121668665937
    y: -0.765826094359
    z: 0.154040207857
  orientation: 
    x: -0.302102864956
    y: 0.0715328185935
    z: -0.0233054706583
    w: 0.950301936169
---
header: 
  seq: 646
  stamp: 
    secs: 21894
    nsecs: 161000000
  frame_id: "world"
pose: 
  position: 
    x: -0.121551506629
    y: -0.76815830697
    z: 0.15282206876
  orientation: 
    x: -0.302540323314
    y: 0.0718840430841
    z: -0.0230302981246
    w: 0.950142958974
---
header: 
  seq: 647
  stamp: 
    secs: 21894
    nsecs: 686000000
  frame_id: "world"
pose: 
  position: 
    x: -0.116971294762
    y: -0.764407330612
    z: 0.154511695906
  orientation: 
    x: -0.301599165213
    y: 0.0701546845935
    z: -0.0246440671889
    w: 0.950530869422
---
header: 
  seq: 648
  stamp: 
    secs: 21895
    nsecs: 443000000
  frame_id: "world"
pose: 
  position: 
    x: -0.116857956216
    y: -0.762258396405
    z: 0.156961823189
  orientation: 
    x: -0.303254062633
    y: 0.0707935957284
    z: -0.0241717916636
    w: 0.949968928328
---
header: 
  seq: 649
  stamp: 
    secs: 21895
    nsecs: 966000000
  frame_id: "world"
pose: 
  position: 
    x: -0.119642526577
    y: -0.770679924273
    z: 0.144397049571
  orientation: 
    x: -0.304277292053
    y: 0.0727459030518
    z: -0.0261022851299
    w: 0.949443012424
---
header: 
  seq: 650
  stamp: 
    secs: 21896
    nsecs: 262000000
  frame_id: "world"
pose: 
  position: 
    x: -0.118359083196
    y: -0.768663836673
    z: 0.165419981185
  orientation: 
    x: -0.30885261639
    y: 0.0723259450015
    z: -0.02224356791
    w: 0.948095059957
---
header: 
  seq: 651
  stamp: 
    secs: 21896
    nsecs: 568000000
  frame_id: "world"
pose: 
  position: 
    x: -0.115193875575
    y: -0.765379129055
    z: 0.165736420021
  orientation: 
    x: -0.308101172123
    y: 0.070986341119
    z: -0.0238012460258
    w: 0.948402924815
---
header: 
  seq: 652
  stamp: 
    secs: 21897
    nsecs: 254000000
  frame_id: "world"
pose: 
  position: 
    x: -0.116616527149
    y: -0.767097990196
    z: 0.168113107454
  orientation: 
    x: -0.312471740712
    y: 0.074832284094
    z: -0.0222706638368
    w: 0.946713028349
---
header: 
  seq: 653
  stamp: 
    secs: 21897
    nsecs: 820000000
  frame_id: "world"
pose: 
  position: 
    x: -0.123112499631
    y: -0.767308487625
    z: 0.152164333157
  orientation: 
    x: -0.303585750548
    y: 0.0819994731149
    z: -0.0310005012663
    w: 0.948762745577
---
header: 
  seq: 654
  stamp: 
    secs: 21898
    nsecs: 268000000
  frame_id: "world"
pose: 
  position: 
    x: -0.12043022132
    y: -0.772855897494
    z: 0.165365130669
  orientation: 
    x: -0.308780921153
    y: 0.0807994114062
    z: -0.0208621648166
    w: 0.947465338642
---
header: 
  seq: 655
  stamp: 
    secs: 21898
    nsecs: 696000000
  frame_id: "world"
pose: 
  position: 
    x: -0.125256872777
    y: -0.774532894696
    z: 0.152219088795
  orientation: 
    x: -0.304719909447
    y: 0.0837793968694
    z: -0.0254099753915
    w: 0.94840978622
---
header: 
  seq: 656
  stamp: 
    secs: 21898
    nsecs: 922000000
  frame_id: "world"
pose: 
  position: 
    x: -0.118060040535
    y: -0.772675204543
    z: 0.162863890565
  orientation: 
    x: -0.30903252822
    y: 0.0866546287451
    z: -0.0220658076097
    w: 0.946838408575
---
header: 
  seq: 657
  stamp: 
    secs: 21899
    nsecs: 197000000
  frame_id: "world"
pose: 
  position: 
    x: -0.118797734857
    y: -0.783089028215
    z: 0.143730913321
  orientation: 
    x: -0.297524380514
    y: 0.0898356698368
    z: -0.0343032692083
    w: 0.94985897961
---
header: 
  seq: 658
  stamp: 
    secs: 21899
    nsecs: 724000000
  frame_id: "world"
pose: 
  position: 
    x: -0.121130058449
    y: -0.776914725109
    z: 0.160640218599
  orientation: 
    x: -0.295501040957
    y: 0.0928324528777
    z: -0.0265578257479
    w: 0.950450394485
---
header: 
  seq: 659
  stamp: 
    secs: 21900
    nsecs: 731000000
  frame_id: "world"
pose: 
  position: 
    x: -0.116649907274
    y: -0.801584008074
    z: 0.139077329156
  orientation: 
    x: -0.293467482419
    y: 0.119261910107
    z: -0.036314144906
    w: 0.947805210178
---
header: 
  seq: 660
  stamp: 
    secs: 21901
    nsecs: 315000000
  frame_id: "world"
pose: 
  position: 
    x: -0.129566353367
    y: -0.799494615428
    z: 0.146483892352
  orientation: 
    x: -0.290863794246
    y: 0.137862733492
    z: -0.0335284485312
    w: 0.946186008695
---
header: 
  seq: 661
  stamp: 
    secs: 21901
    nsecs: 794000000
  frame_id: "world"
pose: 
  position: 
    x: -0.121906480352
    y: -0.808162925249
    z: 0.125467710319
  orientation: 
    x: -0.285708651302
    y: 0.147561453399
    z: -0.046546056507
    w: 0.945742908335
---
header: 
  seq: 662
  stamp: 
    secs: 21902
    nsecs: 103000000
  frame_id: "world"
pose: 
  position: 
    x: -0.122387974703
    y: -0.815495410364
    z: 0.12085857325
  orientation: 
    x: -0.292406425899
    y: 0.156180201323
    z: -0.0456596761261
    w: 0.942348884853
---
header: 
  seq: 663
  stamp: 
    secs: 21902
    nsecs: 715000000
  frame_id: "world"
pose: 
  position: 
    x: -0.11527761103
    y: -0.814533369889
    z: 0.12787167958
  orientation: 
    x: -0.290345565129
    y: 0.159581780801
    z: -0.0502678699711
    w: 0.942181643471
---
header: 
  seq: 664
  stamp: 
    secs: 21902
    nsecs: 997000000
  frame_id: "world"
pose: 
  position: 
    x: -0.117726979205
    y: -0.802452889611
    z: 0.125412493759
  orientation: 
    x: -0.274310267406
    y: 0.168086087251
    z: -0.0473982262246
    w: 0.94565022742
---
header: 
  seq: 665
  stamp: 
    secs: 21903
    nsecs: 392000000
  frame_id: "world"
pose: 
  position: 
    x: -0.0545966633384
    y: -0.759863469542
    z: 0.105145942958
  orientation: 
    x: -0.25207654923
    y: 0.153756528164
    z: -0.0390110589574
    w: 0.954617452519
---
header: 
  seq: 666
  stamp: 
    secs: 21903
    nsecs: 881000000
  frame_id: "world"
pose: 
  position: 
    x: -0.0489605731786
    y: -0.754477497213
    z: 0.1144399756
  orientation: 
    x: -0.258807497662
    y: 0.159407292524
    z: -0.0454104808418
    w: 0.951601745729
---
header: 
  seq: 667
  stamp: 
    secs: 21904
    nsecs: 250000000
  frame_id: "world"
pose: 
  position: 
    x: -0.0468179011039
    y: -0.749158573236
    z: 0.122170194805
  orientation: 
    x: -0.25757576835
    y: 0.162256892328
    z: -0.0468509241248
    w: 0.951384472944
---
header: 
  seq: 668
  stamp: 
    secs: 21904
    nsecs: 678000000
  frame_id: "world"
pose: 
  position: 
    x: -0.0439144417757
    y: -0.745763603486
    z: 0.13106578369
  orientation: 
    x: -0.258059497639
    y: 0.171642377965
    z: -0.0429138358656
    w: 0.949790815104
---
header: 
  seq: 669
  stamp: 
    secs: 21904
    nsecs: 854000000
  frame_id: "world"
pose: 
  position: 
    x: -0.0424957888268
    y: -0.74291439324
    z: 0.134555628111
  orientation: 
    x: -0.254404098522
    y: 0.172013392748
    z: -0.0431907666601
    w: 0.950696852338
---
header: 
  seq: 670
  stamp: 
    secs: 21905
    nsecs: 221000000
  frame_id: "world"
pose: 
  position: 
    x: -0.0387662675378
    y: -0.737493453146
    z: 0.141915179629
  orientation: 
    x: -0.259530526457
    y: 0.172591604857
    z: -0.0477460018259
    w: 0.948987019447
---
header: 
  seq: 671
  stamp: 
    secs: 21905
    nsecs: 633000000
  frame_id: "world"
pose: 
  position: 
    x: -0.0369202462641
    y: -0.732249707721
    z: 0.149964265807
  orientation: 
    x: -0.25165040273
    y: 0.177303953869
    z: -0.0441256124483
    w: 0.950414811056
---
header: 
  seq: 672
  stamp: 
    secs: 21906
    nsecs:  94000000
  frame_id: "world"
pose: 
  position: 
    x: -0.0305075613464
    y: -0.725530222155
    z: 0.15863925144
  orientation: 
    x: -0.25130917637
    y: 0.181120135745
    z: -0.0538532112963
    w: 0.949283427609
---
header: 
  seq: 673
  stamp: 
    secs: 21906
    nsecs: 456000000
  frame_id: "world"
pose: 
  position: 
    x: -0.0251412976135
    y: -0.720235351858
    z: 0.165434226791
  orientation: 
    x: -0.253030295091
    y: 0.189039494999
    z: -0.0518595047889
    w: 0.947391329314
---
header: 
  seq: 674
  stamp: 
    secs: 21906
    nsecs: 890000000
  frame_id: "world"
pose: 
  position: 
    x: -0.0201281213531
    y: -0.714618919431
    z: 0.173276800865
  orientation: 
    x: -0.253404944061
    y: 0.19160714623
    z: -0.0618234535436
    w: 0.946176778636
---
header: 
  seq: 675
  stamp: 
    secs: 21907
    nsecs: 155000000
  frame_id: "world"
pose: 
  position: 
    x: -0.0148802816615
    y: -0.712128823307
    z: 0.178572259073
  orientation: 
    x: -0.253954649882
    y: 0.200038756287
    z: -0.0596703833764
    w: 0.944420974531
---
header: 
  seq: 676
  stamp: 
    secs: 21907
    nsecs: 310000000
  frame_id: "world"
pose: 
  position: 
    x: -0.0154928805299
    y: -0.70028024215
    z: 0.192517322444
  orientation: 
    x: -0.193232062106
    y: 0.197802705595
    z: -0.094589506504
    w: 0.956341092442
---
header: 
  seq: 677
  stamp: 
    secs: 21907
    nsecs: 684000000
  frame_id: "world"
pose: 
  position: 
    x: -0.0101219086226
    y: -0.696008825083
    z: 0.200285679284
  orientation: 
    x: -0.193045433717
    y: 0.200557787376
    z: -0.100684333655
    w: 0.955182024224
---
header: 
  seq: 678
  stamp: 
    secs: 21908
    nsecs: 322000000
  frame_id: "world"
pose: 
  position: 
    x: -0.00437510039561
    y: -0.692318001611
    z: 0.215581949356
  orientation: 
    x: -0.180497339564
    y: 0.21632805063
    z: -0.0980131129567
    w: 0.954471746365
---
header: 
  seq: 679
  stamp: 
    secs: 21908
    nsecs: 755000000
  frame_id: "world"
pose: 
  position: 
    x: 0.000960264130872
    y: -0.687824421313
    z: 0.223515073478
  orientation: 
    x: -0.186523112654
    y: 0.221378819071
    z: -0.099480400485
    w: 0.952000103378
---
header: 
  seq: 680
  stamp: 
    secs: 21909
    nsecs:  79000000
  frame_id: "world"
pose: 
  position: 
    x: 0.00439992012317
    y: -0.681708952423
    z: 0.23040784861
  orientation: 
    x: -0.181729868839
    y: 0.232586904326
    z: -0.103391209665
    w: 0.949835693408
---
header: 
  seq: 681
  stamp: 
    secs: 21909
    nsecs: 344000000
  frame_id: "world"
pose: 
  position: 
    x: 0.00747403554334
    y: -0.680666032152
    z: 0.236049966531
  orientation: 
    x: -0.186053821897
    y: 0.238710780525
    z: -0.109171574959
    w: 0.946827706523
---
header: 
  seq: 682
  stamp: 
    secs: 21909
    nsecs: 724000000
  frame_id: "world"
pose: 
  position: 
    x: 0.0122803503436
    y: -0.676839586447
    z: 0.244052857975
  orientation: 
    x: -0.181170615469
    y: 0.248441027704
    z: -0.104097108059
    w: 0.945842511171
---
header: 
  seq: 683
  stamp: 
    secs: 21909
    nsecs: 970000000
  frame_id: "world"
pose: 
  position: 
    x: 0.0141615350127
    y: -0.67648858626
    z: 0.250104080999
  orientation: 
    x: -0.17926710607
    y: 0.254761691407
    z: -0.109015253166
    w: 0.943967933698
---
header: 
  seq: 684
  stamp: 
    secs: 21910
    nsecs:  77000000
  frame_id: "world"
pose: 
  position: 
    x: 0.0150983734292
    y: -0.675396166224
    z: 0.25235298815
  orientation: 
    x: -0.182237604868
    y: 0.256771151701
    z: -0.108212192912
    w: 0.942946526761
---
header: 
  seq: 685
  stamp: 
    secs: 21910
    nsecs: 160000000
  frame_id: "world"
pose: 
  position: 
    x: 0.0156312527103
    y: -0.67629948435
    z: 0.254928639174
  orientation: 
    x: -0.183599138224
    y: 0.256958436882
    z: -0.105566226168
    w: 0.942931328386
---
header: 
  seq: 686
  stamp: 
    secs: 21910
    nsecs: 355000000
  frame_id: "world"
pose: 
  position: 
    x: 0.0183124749325
    y: -0.674797428679
    z: 0.259193014087
  orientation: 
    x: -0.180483877357
    y: 0.260094249162
    z: -0.106452183805
    w: 0.942573330903
---
header: 
  seq: 687
  stamp: 
    secs: 21910
    nsecs: 631000000
  frame_id: "world"
pose: 
  position: 
    x: 0.0217950780938
    y: -0.672435859128
    z: 0.264946677164
  orientation: 
    x: -0.181086693251
    y: 0.26836568394
    z: -0.104756531186
    w: 0.940326293573
---
header: 
  seq: 688
  stamp: 
    secs: 21910
    nsecs: 837000000
  frame_id: "world"
pose: 
  position: 
    x: 0.0204518410426
    y: -0.672735128175
    z: 0.239689621954
  orientation: 
    x: -0.173616592077
    y: 0.263723475845
    z: -0.107036590838
    w: 0.942788616534
---
header: 
  seq: 689
  stamp: 
    secs: 21911
    nsecs: 130000000
  frame_id: "world"
pose: 
  position: 
    x: 0.0240953734496
    y: -0.669676925349
    z: 0.24484778241
  orientation: 
    x: -0.16979550398
    y: 0.274036841317
    z: -0.107243107779
    w: 0.940516992012
---
header: 
  seq: 690
  stamp: 
    secs: 21911
    nsecs: 444000000
  frame_id: "world"
pose: 
  position: 
    x: 0.0280071955123
    y: -0.667730554169
    z: 0.250506826637
  orientation: 
    x: -0.16920183007
    y: 0.277344853045
    z: -0.111531382541
    w: 0.939154579342
---
header: 
  seq: 691
  stamp: 
    secs: 21911
    nsecs: 764000000
  frame_id: "world"
pose: 
  position: 
    x: 0.0331215125982
    y: -0.670860798691
    z: 0.266398886777
  orientation: 
    x: -0.174642297947
    y: 0.279372982299
    z: -0.112517447685
    w: 0.937438333169
---
header: 
  seq: 692
  stamp: 
    secs: 21911
    nsecs: 993000000
  frame_id: "world"
pose: 
  position: 
    x: 0.0362128512011
    y: -0.669323051091
    z: 0.270449711809
  orientation: 
    x: -0.17048200004
    y: 0.281884194315
    z: -0.117815485329
    w: 0.936801313019
---
header: 
  seq: 693
  stamp: 
    secs: 21912
    nsecs: 227000000
  frame_id: "world"
pose: 
  position: 
    x: 0.0385136991625
    y: -0.667392519116
    z: 0.274961992797
  orientation: 
    x: -0.167080935072
    y: 0.284383096427
    z: -0.115923475155
    w: 0.936894851896
---
header: 
  seq: 694
  stamp: 
    secs: 21912
    nsecs: 503000000
  frame_id: "world"
pose: 
  position: 
    x: 0.0415362346975
    y: -0.664518310249
    z: 0.280233628081
  orientation: 
    x: -0.173623796136
    y: 0.284927920128
    z: -0.119167949687
    w: 0.93513093068
---
header: 
  seq: 695
  stamp: 
    secs: 21912
    nsecs: 718000000
  frame_id: "world"
pose: 
  position: 
    x: 0.0423876440932
    y: -0.662724975176
    z: 0.284510298885
  orientation: 
    x: -0.171891417336
    y: 0.286224311811
    z: -0.116519614124
    w: 0.935388776659
---
header: 
  seq: 696
  stamp: 
    secs: 21912
    nsecs: 963000000
  frame_id: "world"
pose: 
  position: 
    x: 0.0427429646488
    y: -0.659761178859
    z: 0.292264164764
  orientation: 
    x: -0.170782166861
    y: 0.28951176926
    z: -0.115055829646
    w: 0.934761222456
---
header: 
  seq: 697
  stamp: 
    secs: 21913
    nsecs: 237000000
  frame_id: "world"
pose: 
  position: 
    x: 0.0488268404003
    y: -0.652627909601
    z: 0.30845428483
  orientation: 
    x: -0.166455280104
    y: 0.288596951474
    z: -0.112574881829
    w: 0.936125704864
---
header: 
  seq: 698
  stamp: 
    secs: 21913
    nsecs: 547000000
  frame_id: "world"
pose: 
  position: 
    x: 0.0505860910141
    y: -0.649757487188
    z: 0.315729252629
  orientation: 
    x: -0.165914074517
    y: 0.290089361624
    z: -0.113039345125
    w: 0.935704434426
---
header: 
  seq: 699
  stamp: 
    secs: 21913
    nsecs: 836000000
  frame_id: "world"
pose: 
  position: 
    x: 0.0532606309974
    y: -0.647497192589
    z: 0.322206057541
  orientation: 
    x: -0.165809072088
    y: 0.290384575559
    z: -0.113037907554
    w: 0.935631648325
---
header: 
  seq: 700
  stamp: 
    secs: 21914
    nsecs: 154000000
  frame_id: "world"
pose: 
  position: 
    x: 0.0555381332066
    y: -0.644774230078
    z: 0.329451241601
  orientation: 
    x: -0.165542530575
    y: 0.291197565309
    z: -0.113151746357
    w: 0.935412385435
---
header: 
  seq: 701
  stamp: 
    secs: 21914
    nsecs: 579000000
  frame_id: "world"
pose: 
  position: 
    x: 0.0556917201811
    y: -0.639375438797
    z: 0.340837629268
  orientation: 
    x: -0.163841598589
    y: 0.29613134735
    z: -0.113862507708
    w: 0.934075738378
---
header: 
  seq: 702
  stamp: 
    secs: 21914
    nsecs: 865000000
  frame_id: "world"
pose: 
  position: 
    x: 0.0572701373103
    y: -0.637446472397
    z: 0.346592457596
  orientation: 
    x: -0.163397720883
    y: 0.297534072965
    z: -0.114403726027
    w: 0.933641498492
---
header: 
  seq: 703
  stamp: 
    secs: 21914
    nsecs: 949000000
  frame_id: "world"
pose: 
  position: 
    x: 0.0644028618758
    y: -0.630953311263
    z: 0.356686021562
  orientation: 
    x: -0.164007755299
    y: 0.295879751968
    z: -0.106216554833
    w: 0.93502656222
---
header: 
  seq: 704
  stamp: 
    secs: 21915
    nsecs: 112000000
  frame_id: "world"
pose: 
  position: 
    x: 0.0671432383122
    y: -0.631200288254
    z: 0.358709228273
  orientation: 
    x: -0.164944390973
    y: 0.294825967413
    z: -0.106233408984
    w: 0.935192739301
---
header: 
  seq: 705
  stamp: 
    secs: 21915
    nsecs: 206000000
  frame_id: "world"
pose: 
  position: 
    x: 0.0680449581065
    y: -0.630755612511
    z: 0.360814607189
  orientation: 
    x: -0.157807661064
    y: 0.292437532741
    z: -0.116153881705
    w: 0.93599428808
---
header: 
  seq: 706
  stamp: 
    secs: 21915
    nsecs: 403000000
  frame_id: "world"
pose: 
  position: 
    x: 0.068573394168
    y: -0.630256101991
    z: 0.364554731371
  orientation: 
    x: -0.141103711759
    y: 0.289214067988
    z: -0.131521846831
    w: 0.93762837479
---
header: 
  seq: 707
  stamp: 
    secs: 21915
    nsecs: 536000000
  frame_id: "world"
pose: 
  position: 
    x: 0.0672222891662
    y: -0.62895142157
    z: 0.367016766264
  orientation: 
    x: -0.14498189265
    y: 0.290726360866
    z: -0.124536886697
    w: 0.937522798524
---
header: 
  seq: 708
  stamp: 
    secs: 21915
    nsecs: 780000000
  frame_id: "world"
pose: 
  position: 
    x: 0.063542809034
    y: -0.627979107204
    z: 0.36939740538
  orientation: 
    x: -0.155409466133
    y: 0.291621980973
    z: -0.113600793696
    w: 0.936962847567
---
header: 
  seq: 709
  stamp: 
    secs: 21915
    nsecs: 999000000
  frame_id: "world"
pose: 
  position: 
    x: 0.0576397611926
    y: -0.625841775338
    z: 0.372376920502
  orientation: 
    x: -0.165986684559
    y: 0.290152887011
    z: -0.105038086447
    w: 0.936603823985
---
header: 
  seq: 710
  stamp: 
    secs: 21916
    nsecs: 313000000
  frame_id: "world"
pose: 
  position: 
    x: 0.0505786151245
    y: -0.624523611596
    z: 0.375176163331
  orientation: 
    x: -0.167764127628
    y: 0.288960158406
    z: -0.107485613811
    w: 0.93637816461
---
header: 
  seq: 711
  stamp: 
    secs: 21916
    nsecs: 498000000
  frame_id: "world"
pose: 
  position: 
    x: 0.0470481195679
    y: -0.623509752863
    z: 0.377262967484
  orientation: 
    x: -0.162834952493
    y: 0.287691770162
    z: -0.108487121975
    w: 0.937522675989
---
header: 
  seq: 712
  stamp: 
    secs: 21916
    nsecs: 664000000
  frame_id: "world"
pose: 
  position: 
    x: 0.0427377474196
    y: -0.622392590412
    z: 0.379355538925
  orientation: 
    x: -0.165277370091
    y: 0.286951802942
    z: -0.108905586867
    w: 0.937273506973
---
header: 
  seq: 713
  stamp: 
    secs: 21916
    nsecs: 888000000
  frame_id: "world"
pose: 
  position: 
    x: 0.0368533743803
    y: -0.621120398466
    z: 0.381874090741
  orientation: 
    x: -0.167037138358
    y: 0.286290289209
    z: -0.107340098991
    w: 0.937344423284
---
header: 
  seq: 714
  stamp: 
    secs: 21917
    nsecs: 153000000
  frame_id: "world"
pose: 
  position: 
    x: 0.0297990580401
    y: -0.62018031165
    z: 0.384637723361
  orientation: 
    x: -0.16997763819
    y: 0.283185771495
    z: -0.107489034694
    w: 0.93774171751
---
header: 
  seq: 715
  stamp: 
    secs: 21917
    nsecs: 287000000
  frame_id: "world"
pose: 
  position: 
    x: 0.0256119525119
    y: -0.61895997881
    z: 0.386726707434
  orientation: 
    x: -0.167810095186
    y: 0.286954590168
    z: -0.101261658641
    w: 0.937679535675
---
header: 
  seq: 716
  stamp: 
    secs: 21917
    nsecs: 423000000
  frame_id: "world"
pose: 
  position: 
    x: 0.0218997438942
    y: -0.617749362789
    z: 0.388401813955
  orientation: 
    x: -0.174942267335
    y: 0.287297322275
    z: -0.10581185579
    w: 0.935766692551
---
header: 
  seq: 717
  stamp: 
    secs: 21917
    nsecs: 593000000
  frame_id: "world"
pose: 
  position: 
    x: 0.0186934097729
    y: -0.6166126559
    z: 0.390319048964
  orientation: 
    x: -0.172236301658
    y: 0.287102353324
    z: -0.102153715101
    w: 0.93673449472
---
header: 
  seq: 718
  stamp: 
    secs: 21917
    nsecs: 829000000
  frame_id: "world"
pose: 
  position: 
    x: 0.0148872114551
    y: -0.615293190768
    z: 0.392845744988
  orientation: 
    x: -0.160250832953
    y: 0.285059944676
    z: -0.104964514186
    w: 0.939171416324
---
header: 
  seq: 719
  stamp: 
    secs: 21918
    nsecs:  13000000
  frame_id: "world"
pose: 
  position: 
    x: 0.00953314488782
    y: -0.612759678254
    z: 0.395861242584
  orientation: 
    x: -0.165168914041
    y: 0.286073587708
    z: -0.110138337013
    w: 0.937417025112
---
header: 
  seq: 720
  stamp: 
    secs: 21918
    nsecs: 254000000
  frame_id: "world"
pose: 
  position: 
    x: 0.00641069539318
    y: -0.612290586313
    z: 0.398388392846
  orientation: 
    x: -0.16213264811
    y: 0.285506007558
    z: -0.103015364824
    w: 0.938928729284
---
header: 
  seq: 721
  stamp: 
    secs: 21918
    nsecs: 584000000
  frame_id: "world"
pose: 
  position: 
    x: -0.000667392718529
    y: -0.609961089884
    z: 0.401484605023
  orientation: 
    x: -0.171030292974
    y: 0.284265224043
    z: -0.103771943497
    w: 0.93764241853
---
header: 
  seq: 722
  stamp: 
    secs: 21918
    nsecs: 908000000
  frame_id: "world"
pose: 
  position: 
    x: -0.0069980902745
    y: -0.607708286121
    z: 0.404508759833
  orientation: 
    x: -0.169588482055
    y: 0.285324322012
    z: -0.110494740108
    w: 0.936814117331
---
header: 
  seq: 723
  stamp: 
    secs: 21919
    nsecs:  87000000
  frame_id: "world"
pose: 
  position: 
    x: -0.0114507090251
    y: -0.606804275963
    z: 0.406000650326
  orientation: 
    x: -0.171368134504
    y: 0.285520617306
    z: -0.104737130863
    w: 0.937091816733
---
header: 
  seq: 724
  stamp: 
    secs: 21919
    nsecs: 442000000
  frame_id: "world"
pose: 
  position: 
    x: -0.0192998883521
    y: -0.602726647456
    z: 0.40992844217
  orientation: 
    x: -0.16931116598
    y: 0.288651412541
    z: -0.108266485575
    w: 0.936104940279
---
header: 
  seq: 725
  stamp: 
    secs: 21919
    nsecs: 712000000
  frame_id: "world"
pose: 
  position: 
    x: -0.0249018540682
    y: -0.600741091052
    z: 0.412028847388
  orientation: 
    x: -0.167425813142
    y: 0.284783417426
    z: -0.105849208661
    w: 0.937903485055
---
header: 
  seq: 726
  stamp: 
    secs: 21919
    nsecs: 806000000
  frame_id: "world"
pose: 
  position: 
    x: -0.0277077043726
    y: -0.59943669786
    z: 0.413045159558
  orientation: 
    x: -0.171864113151
    y: 0.285613907589
    z: -0.102934703948
    w: 0.937172272918
---
header: 
  seq: 727
  stamp: 
    secs: 21920
    nsecs:   3000000
  frame_id: "world"
pose: 
  position: 
    x: -0.0317985862611
    y: -0.597288996869
    z: 0.41493478009
  orientation: 
    x: -0.172567765436
    y: 0.283184823563
    z: -0.100372015299
    w: 0.938057663782
---
header: 
  seq: 728
  stamp: 
    secs: 21920
    nsecs: 199000000
  frame_id: "world"
pose: 
  position: 
    x: -0.0356888666701
    y: -0.594959807179
    z: 0.417714652994
  orientation: 
    x: -0.172926588505
    y: 0.281146624068
    z: -0.108014573577
    w: 0.937755737203
---
header: 
  seq: 729
  stamp: 
    secs: 21920
    nsecs: 329000000
  frame_id: "world"
pose: 
  position: 
    x: -0.0382705287193
    y: -0.593546473729
    z: 0.418860067769
  orientation: 
    x: -0.173093081838
    y: 0.281878521983
    z: -0.10553644267
    w: 0.937787472263
---
header: 
  seq: 730
  stamp: 
    secs: 21920
    nsecs: 479000000
  frame_id: "world"
pose: 
  position: 
    x: -0.0410185611283
    y: -0.591569104731
    z: 0.420922030403
  orientation: 
    x: -0.169637882009
    y: 0.280772929507
    z: -0.107266054671
    w: 0.938553964649
---
header: 
  seq: 731
  stamp: 
    secs: 21920
    nsecs: 744000000
  frame_id: "world"
pose: 
  position: 
    x: -0.0464163629064
    y: -0.58778107917
    z: 0.424845598916
  orientation: 
    x: -0.17542196051
    y: 0.280727567989
    z: -0.106134780687
    w: 0.937632431537
---
header: 
  seq: 732
  stamp: 
    secs: 21921
    nsecs:   5000000
  frame_id: "world"
pose: 
  position: 
    x: -0.051294908056
    y: -0.585106981601
    z: 0.427721815186
  orientation: 
    x: -0.174003052227
    y: 0.279560371008
    z: -0.106041346849
    w: 0.938255918999
---
header: 
  seq: 733
  stamp: 
    secs: 21921
    nsecs: 301000000
  frame_id: "world"
pose: 
  position: 
    x: -0.0575566092514
    y: -0.581108107061
    z: 0.431806922544
  orientation: 
    x: -0.173511340322
    y: 0.279162607216
    z: -0.102256721282
    w: 0.938885305277
---
header: 
  seq: 734
  stamp: 
    secs: 21921
    nsecs: 578000000
  frame_id: "world"
pose: 
  position: 
    x: -0.0604614924666
    y: -0.579793363031
    z: 0.433473366967
  orientation: 
    x: -0.175744383658
    y: 0.26884020576
    z: -0.096048714869
    w: 0.942132421558
---
header: 
  seq: 735
  stamp: 
    secs: 21921
    nsecs: 760000000
  frame_id: "world"
pose: 
  position: 
    x: -0.0634019898845
    y: -0.577507740002
    z: 0.435178793991
  orientation: 
    x: -0.176971062825
    y: 0.26602850671
    z: -0.106472955066
    w: 0.941580366394
---
header: 
  seq: 736
  stamp: 
    secs: 21921
    nsecs: 996000000
  frame_id: "world"
pose: 
  position: 
    x: -0.0685840765103
    y: -0.574745628065
    z: 0.438459810006
  orientation: 
    x: -0.172095550386
    y: 0.264803979671
    z: -0.0998112334358
    w: 0.94355693605
---
header: 
  seq: 737
  stamp: 
    secs: 21922
    nsecs: 271000000
  frame_id: "world"
pose: 
  position: 
    x: -0.0745555351966
    y: -0.571433796457
    z: 0.442099134941
  orientation: 
    x: -0.169206889317
    y: 0.264565234205
    z: -0.101791125422
    w: 0.943934760586
---
header: 
  seq: 738
  stamp: 
    secs: 21922
    nsecs: 376000000
  frame_id: "world"
pose: 
  position: 
    x: -0.0768199640247
    y: -0.570067491683
    z: 0.443011843536
  orientation: 
    x: -0.174487388265
    y: 0.262852857503
    z: -0.104051177084
    w: 0.943205109818
---
header: 
  seq: 739
  stamp: 
    secs: 21922
    nsecs: 473000000
  frame_id: "world"
pose: 
  position: 
    x: -0.0789192128159
    y: -0.568592040004
    z: 0.444495920705
  orientation: 
    x: -0.179454396316
    y: 0.260986798939
    z: -0.10461665841
    w: 0.942728680589
---
header: 
  seq: 740
  stamp: 
    secs: 21922
    nsecs: 585000000
  frame_id: "world"
pose: 
  position: 
    x: -0.0816676957968
    y: -0.567107818117
    z: 0.44702107996
  orientation: 
    x: -0.172415805998
    y: 0.259098186239
    z: -0.0990695812359
    w: 0.945159318741
---
header: 
  seq: 741
  stamp: 
    secs: 21922
    nsecs: 694000000
  frame_id: "world"
pose: 
  position: 
    x: -0.084144123765
    y: -0.565892476479
    z: 0.44880800783
  orientation: 
    x: -0.169797498596
    y: 0.256479136261
    z: -0.103337493603
    w: 0.945890387174
---
header: 
  seq: 742
  stamp: 
    secs: 21922
    nsecs: 786000000
  frame_id: "world"
pose: 
  position: 
    x: -0.0863462351309
    y: -0.564962413783
    z: 0.449046477235
  orientation: 
    x: -0.174599947044
    y: 0.257911279368
    z: -0.0984812517926
    w: 0.945144472297
---
header: 
  seq: 743
  stamp: 
    secs: 21922
    nsecs: 993000000
  frame_id: "world"
pose: 
  position: 
    x: -0.0909738335104
    y: -0.561858993693
    z: 0.452643265237
  orientation: 
    x: -0.176774606401
    y: 0.257253315132
    z: -0.099715713119
    w: 0.944790054426
---
header: 
  seq: 744
  stamp: 
    secs: 21923
    nsecs: 372000000
  frame_id: "world"
pose: 
  position: 
    x: -0.100813762098
    y: -0.5587853064
    z: 0.459245446281
  orientation: 
    x: -0.174590662682
    y: 0.256490121253
    z: -0.0970367179637
    w: 0.94568218423
---
header: 
  seq: 745
  stamp: 
    secs: 21923
    nsecs: 681000000
  frame_id: "world"
pose: 
  position: 
    x: -0.108029470418
    y: -0.556185847567
    z: 0.463728849561
  orientation: 
    x: -0.173173925704
    y: 0.25724074344
    z: -0.098411024094
    w: 0.945596775432
---
header: 
  seq: 746
  stamp: 
    secs: 21923
    nsecs: 933000000
  frame_id: "world"
pose: 
  position: 
    x: -0.113333369139
    y: -0.553200613402
    z: 0.468256841031
  orientation: 
    x: -0.175379083894
    y: 0.260668320104
    z: -0.100031960728
    w: 0.944080404764
---
header: 
  seq: 747
  stamp: 
    secs: 21924
    nsecs: 212000000
  frame_id: "world"
pose: 
  position: 
    x: -0.120050513543
    y: -0.550628507058
    z: 0.471686638817
  orientation: 
    x: -0.17518010343
    y: 0.260834434777
    z: -0.0960855403419
    w: 0.944481285116
---
header: 
  seq: 748
  stamp: 
    secs: 21924
    nsecs: 391000000
  frame_id: "world"
pose: 
  position: 
    x: -0.124355626853
    y: -0.54831630966
    z: 0.475703385561
  orientation: 
    x: -0.176803919077
    y: 0.260339123845
    z: -0.095193529744
    w: 0.944405689674
---
header: 
  seq: 749
  stamp: 
    secs: 21924
    nsecs: 479000000
  frame_id: "world"
pose: 
  position: 
    x: -0.126474973019
    y: -0.548009012093
    z: 0.476766681128
  orientation: 
    x: -0.171763970414
    y: 0.258504384803
    z: -0.100554013938
    w: 0.945283826047
---
header: 
  seq: 750
  stamp: 
    secs: 21924
    nsecs: 732000000
  frame_id: "world"
pose: 
  position: 
    x: -0.132460670654
    y: -0.545374102147
    z: 0.481489513693
  orientation: 
    x: -0.170301075523
    y: 0.256394279496
    z: -0.098712984615
    w: 0.94631668261
---
header: 
  seq: 751
  stamp: 
    secs: 21924
    nsecs: 923000000
  frame_id: "world"
pose: 
  position: 
    x: -0.137092888956
    y: -0.543214294563
    z: 0.483214872063
  orientation: 
    x: -0.174232517267
    y: 0.255394375367
    z: -0.0982983526016
    w: 0.945914465918
---
header: 
  seq: 752
  stamp: 
    secs: 21925
    nsecs: 102000000
  frame_id: "world"
pose: 
  position: 
    x: -0.138593732888
    y: -0.540695413179
    z: 0.487184819018
  orientation: 
    x: -0.174141250454
    y: 0.25396828645
    z: -0.099574576389
    w: 0.946181715161
---
header: 
  seq: 753
  stamp: 
    secs: 21925
    nsecs: 178000000
  frame_id: "world"
pose: 
  position: 
    x: -0.140835992846
    y: -0.539591750115
    z: 0.487215769134
  orientation: 
    x: -0.175023813665
    y: 0.254634873066
    z: -0.0975076210706
    w: 0.946054971924
---
header: 
  seq: 754
  stamp: 
    secs: 21925
    nsecs: 442000000
  frame_id: "world"
pose: 
  position: 
    x: -0.148311966867
    y: -0.536384530686
    z: 0.490793617756
  orientation: 
    x: -0.174873534158
    y: 0.25433350327
    z: -0.0991112635397
    w: 0.945997184776
---
header: 
  seq: 755
  stamp: 
    secs: 21925
    nsecs: 703000000
  frame_id: "world"
pose: 
  position: 
    x: -0.154550634215
    y: -0.53359046645
    z: 0.494398752761
  orientation: 
    x: -0.17664578467
    y: 0.25313700131
    z: -0.099882079165
    w: 0.945907762727
---
header: 
  seq: 756
  stamp: 
    secs: 21926
    nsecs: 125000000
  frame_id: "world"
pose: 
  position: 
    x: -0.164731554379
    y: -0.530967762113
    z: 0.500649358491
  orientation: 
    x: -0.176204820853
    y: 0.253865690636
    z: -0.0967048475062
    w: 0.946124856821
---
header: 
  seq: 757
  stamp: 
    secs: 21926
    nsecs: 630000000
  frame_id: "world"
pose: 
  position: 
    x: -0.177444651746
    y: -0.525038474932
    z: 0.506408866429
  orientation: 
    x: -0.17795583664
    y: 0.254702040701
    z: -0.0976045166636
    w: 0.945479745418
---
header: 
  seq: 758
  stamp: 
    secs: 21927
    nsecs: 238000000
  frame_id: "world"
pose: 
  position: 
    x: -0.192444297914
    y: -0.516144636855
    z: 0.512601743601
  orientation: 
    x: -0.175269237898
    y: 0.255285598072
    z: -0.0985621868325
    w: 0.945724829425
---
header: 
  seq: 759
  stamp: 
    secs: 21927
    nsecs: 610000000
  frame_id: "world"
pose: 
  position: 
    x: -0.201833950258
    y: -0.512418066988
    z: 0.516507852233
  orientation: 
    x: -0.175222017413
    y: 0.255231992753
    z: -0.0989267143334
    w: 0.945709987089
---
header: 
  seq: 760
  stamp: 
    secs: 21927
    nsecs: 943000000
  frame_id: "world"
pose: 
  position: 
    x: -0.194572141671
    y: -0.475431415491
    z: 0.609583742434
  orientation: 
    x: -0.149990142875
    y: 0.227414534901
    z: -0.0816553899256
    w: 0.958706411605
---
header: 
  seq: 761
  stamp: 
    secs: 21928
    nsecs: 535000000
  frame_id: "world"
pose: 
  position: 
    x: -0.205218237951
    y: -0.478446354714
    z: 0.598827536159
  orientation: 
    x: -0.171293320268
    y: 0.22750086352
    z: -0.0975422195605
    w: 0.953618094906
---
header: 
  seq: 762
  stamp: 
    secs: 21928
    nsecs: 921000000
  frame_id: "world"
pose: 
  position: 
    x: -0.212974947405
    y: -0.490174599767
    z: 0.58477738428
  orientation: 
    x: -0.180124722131
    y: 0.228219890617
    z: -0.0980477865232
    w: 0.951765410993
---
header: 
  seq: 763
  stamp: 
    secs: 21929
    nsecs: 532000000
  frame_id: "world"
pose: 
  position: 
    x: -0.220310261089
    y: -0.495552415492
    z: 0.570786955672
  orientation: 
    x: -0.182946806132
    y: 0.230754727222
    z: -0.0979800002732
    w: 0.950622239135
---
header: 
  seq: 764
  stamp: 
    secs: 21929
    nsecs: 996000000
  frame_id: "world"
pose: 
  position: 
    x: -0.225234215329
    y: -0.499906665509
    z: 0.560681750286
  orientation: 
    x: -0.180369476011
    y: 0.229199368514
    z: -0.0992978585383
    w: 0.951354001876
---
header: 
  seq: 765
  stamp: 
    secs: 21930
    nsecs: 238000000
  frame_id: "world"
pose: 
  position: 
    x: -0.22782415819
    y: -0.502562762005
    z: 0.556458668523
  orientation: 
    x: -0.175632328482
    y: 0.228641478894
    z: -0.104655670942
    w: 0.951800162776
---
header: 
  seq: 766
  stamp: 
    secs: 21930
    nsecs: 604000000
  frame_id: "world"
pose: 
  position: 
    x: -0.23236372424
    y: -0.50574487717
    z: 0.548665841542
  orientation: 
    x: -0.180674331367
    y: 0.228594326235
    z: -0.100364421542
    w: 0.951329807631
---
header: 
  seq: 767
  stamp: 
    secs: 21930
    nsecs: 976000000
  frame_id: "world"
pose: 
  position: 
    x: -0.237740742215
    y: -0.508464633769
    z: 0.54099768126
  orientation: 
    x: -0.180742193003
    y: 0.22889857519
    z: -0.0939600837131
    w: 0.951897686
---
header: 
  seq: 768
  stamp: 
    secs: 21931
    nsecs: 201000000
  frame_id: "world"
pose: 
  position: 
    x: -0.239680755494
    y: -0.510483648622
    z: 0.536151108802
  orientation: 
    x: -0.175522699506
    y: 0.227988772256
    z: -0.104324402191
    w: 0.952013298642
---
header: 
  seq: 769
  stamp: 
    secs: 21931
    nsecs: 504000000
  frame_id: "world"
pose: 
  position: 
    x: -0.243932695293
    y: -0.512924942778
    z: 0.529340130127
  orientation: 
    x: -0.178781621948
    y: 0.230741057179
    z: -0.0963432467144
    w: 0.951584822808
---
header: 
  seq: 770
  stamp: 
    secs: 21931
    nsecs: 803000000
  frame_id: "world"
pose: 
  position: 
    x: -0.246370343651
    y: -0.516291841403
    z: 0.522505543666
  orientation: 
    x: -0.178768874253
    y: 0.233497746863
    z: -0.101736994709
    w: 0.950352605992
---
header: 
  seq: 771
  stamp: 
    secs: 21932
    nsecs: 267000000
  frame_id: "world"
pose: 
  position: 
    x: -0.252038818369
    y: -0.521244463433
    z: 0.513775582554
  orientation: 
    x: -0.179960460856
    y: 0.239766799534
    z: -0.103714735992
    w: 0.948350867511
---
header: 
  seq: 772
  stamp: 
    secs: 21932
    nsecs: 652000000
  frame_id: "world"
pose: 
  position: 
    x: -0.257041868752
    y: -0.523836195369
    z: 0.507618684901
  orientation: 
    x: -0.180260116451
    y: 0.243672465105
    z: -0.0997149386109
    w: 0.947727255694
---
header: 
  seq: 773
  stamp: 
    secs: 21933
    nsecs: 162000000
  frame_id: "world"
pose: 
  position: 
    x: -0.259429850874
    y: -0.528438827389
    z: 0.491319681363
  orientation: 
    x: -0.169013833195
    y: 0.251353494706
    z: -0.109019896338
    w: 0.946768402034
---
header: 
  seq: 774
  stamp: 
    secs: 21933
    nsecs: 561000000
  frame_id: "world"
pose: 
  position: 
    x: -0.264022384119
    y: -0.530578697427
    z: 0.482401670584
  orientation: 
    x: -0.179599573196
    y: 0.247364761027
    z: -0.108324862782
    w: 0.945949466099
---
header: 
  seq: 775
  stamp: 
    secs: 21933
    nsecs: 824000000
  frame_id: "world"
pose: 
  position: 
    x: -0.266651940093
    y: -0.531715502839
    z: 0.476357334779
  orientation: 
    x: -0.177896510674
    y: 0.248450568085
    z: -0.10985629242
    w: 0.94581009813
---
header: 
  seq: 776
  stamp: 
    secs: 21934
    nsecs: 160000000
  frame_id: "world"
pose: 
  position: 
    x: -0.270439467876
    y: -0.532881359504
    z: 0.46816027093
  orientation: 
    x: -0.174087981468
    y: 0.246145739522
    z: -0.107256799899
    w: 0.947418402027
---
header: 
  seq: 777
  stamp: 
    secs: 21934
    nsecs: 881000000
  frame_id: "world"
pose: 
  position: 
    x: -0.279071073968
    y: -0.536168331017
    z: 0.45000656054
  orientation: 
    x: -0.17808554012
    y: 0.24254680584
    z: -0.106272563266
    w: 0.947714476873
---
header: 
  seq: 778
  stamp: 
    secs: 21935
    nsecs: 253000000
  frame_id: "world"
pose: 
  position: 
    x: -0.283287336788
    y: -0.538750814561
    z: 0.440791425429
  orientation: 
    x: -0.179677498483
    y: 0.239667064687
    z: -0.10752276201
    w: 0.948005564484
---
header: 
  seq: 779
  stamp: 
    secs: 21935
    nsecs: 831000000
  frame_id: "world"
pose: 
  position: 
    x: -0.288895415144
    y: -0.541234852483
    z: 0.427167841007
  orientation: 
    x: -0.175106513836
    y: 0.238963295814
    z: -0.10514543643
    w: 0.949304318574
---
header: 
  seq: 780
  stamp: 
    secs: 21936
    nsecs: 193000000
  frame_id: "world"
pose: 
  position: 
    x: -0.292516913028
    y: -0.542542540575
    z: 0.418040486564
  orientation: 
    x: -0.180048468146
    y: 0.238929481018
    z: -0.110854390365
    w: 0.947737598893
---
header: 
  seq: 781
  stamp: 
    secs: 21936
    nsecs: 519000000
  frame_id: "world"
pose: 
  position: 
    x: -0.297275839978
    y: -0.544209771655
    z: 0.410675293831
  orientation: 
    x: -0.175407928817
    y: 0.233471753537
    z: -0.103127867825
    w: 0.950835233722
---
header: 
  seq: 782
  stamp: 
    secs: 21936
    nsecs: 813000000
  frame_id: "world"
pose: 
  position: 
    x: -0.300806650829
    y: -0.5453820112
    z: 0.402194835782
  orientation: 
    x: -0.184576028549
    y: 0.228014589574
    z: -0.104806265088
    w: 0.950240329298
---
header: 
  seq: 783
  stamp: 
    secs: 21937
    nsecs: 387000000
  frame_id: "world"
pose: 
  position: 
    x: -0.31228531376
    y: -0.544223010832
    z: 0.38358596664
  orientation: 
    x: -0.178274871009
    y: 0.222401585658
    z: -0.104775246783
    w: 0.952773715383
---
header: 
  seq: 784
  stamp: 
    secs: 21937
    nsecs: 825000000
  frame_id: "world"
pose: 
  position: 
    x: -0.314213131486
    y: -0.544729581054
    z: 0.37607747995
  orientation: 
    x: -0.177326451972
    y: 0.214700784817
    z: -0.107949267357
    w: 0.954361492364
---
header: 
  seq: 785
  stamp: 
    secs: 21938
    nsecs: 278000000
  frame_id: "world"
pose: 
  position: 
    x: -0.319814750221
    y: -0.545454384247
    z: 0.364543949537
  orientation: 
    x: -0.187041025826
    y: 0.212480910026
    z: -0.107884221994
    w: 0.953010237184
---
header: 
  seq: 786
  stamp: 
    secs: 21938
    nsecs: 812000000
  frame_id: "world"
pose: 
  position: 
    x: -0.32670832876
    y: -0.546448595636
    z: 0.351799650009
  orientation: 
    x: -0.176771620881
    y: 0.210571124074
    z: -0.108680581915
    w: 0.955301066089
---
header: 
  seq: 787
  stamp: 
    secs: 21939
    nsecs: 101000000
  frame_id: "world"
pose: 
  position: 
    x: -0.330929915344
    y: -0.547239466756
    z: 0.344467592955
  orientation: 
    x: -0.176766568516
    y: 0.21130995945
    z: -0.101333816995
    w: 0.955946200801
---
header: 
  seq: 788
  stamp: 
    secs: 21939
    nsecs: 510000000
  frame_id: "world"
pose: 
  position: 
    x: -0.335312592611
    y: -0.548818976375
    z: 0.332277029489
  orientation: 
    x: -0.180744516977
    y: 0.212988899623
    z: -0.105204009468
    w: 0.954410427757
---
header: 
  seq: 789
  stamp: 
    secs: 21940
    nsecs: 169000000
  frame_id: "world"
pose: 
  position: 
    x: -0.34136928811
    y: -0.551644052303
    z: 0.311727701641
  orientation: 
    x: -0.181084361916
    y: 0.216135528695
    z: -0.107136556014
    w: 0.953423119853
---
header: 
  seq: 790
  stamp: 
    secs: 21940
    nsecs: 844000000
  frame_id: "world"
pose: 
  position: 
    x: -0.347978641116
    y: -0.554052123817
    z: 0.290701451987
  orientation: 
    x: -0.180785941073
    y: 0.219599077092
    z: -0.107614061421
    w: 0.952634191406
---
header: 
  seq: 791
  stamp: 
    secs: 21941
    nsecs: 552000000
  frame_id: "world"
pose: 
  position: 
    x: -0.355831563992
    y: -0.564042481057
    z: 0.254107764137
  orientation: 
    x: -0.202841583463
    y: 0.219182339715
    z: -0.0853266702814
    w: 0.950543924979
---
header: 
  seq: 792
  stamp: 
    secs: 21942
    nsecs:  16000000
  frame_id: "world"
pose: 
  position: 
    x: -0.352496696087
    y: -0.566382255535
    z: 0.244401385342
  orientation: 
    x: -0.191461647988
    y: 0.206886258247
    z: -0.0976258066631
    w: 0.954468289348
---
header: 
  seq: 793
  stamp: 
    secs: 21942
    nsecs: 330000000
  frame_id: "world"
pose: 
  position: 
    x: -0.345454250105
    y: -0.567460498194
    z: 0.240165263871
  orientation: 
    x: -0.186671763923
    y: 0.201378355693
    z: -0.10639583204
    w: 0.955657018672
---
header: 
  seq: 794
  stamp: 
    secs: 21942
    nsecs: 929000000
  frame_id: "world"
pose: 
  position: 
    x: -0.332539309588
    y: -0.5690086587
    z: 0.233187977092
  orientation: 
    x: -0.192145338987
    y: 0.193815417129
    z: -0.104615952777
    w: 0.956332188736
---
header: 
  seq: 795
  stamp: 
    secs: 21943
    nsecs: 465000000
  frame_id: "world"
pose: 
  position: 
    x: -0.320610713899
    y: -0.571451586714
    z: 0.228264384563
  orientation: 
    x: -0.185657780153
    y: 0.190779227077
    z: -0.103365941075
    w: 0.958357948478
---
header: 
  seq: 796
  stamp: 
    secs: 21943
    nsecs: 985000000
  frame_id: "world"
pose: 
  position: 
    x: -0.305334846693
    y: -0.574735108361
    z: 0.222509544116
  orientation: 
    x: -0.185617206435
    y: 0.193869296496
    z: -0.102217721105
    w: 0.957868720673
---
header: 
  seq: 797
  stamp: 
    secs: 21944
    nsecs: 408000000
  frame_id: "world"
pose: 
  position: 
    x: -0.294317545038
    y: -0.576435527421
    z: 0.219469775173
  orientation: 
    x: -0.186599227015
    y: 0.191095691278
    z: -0.106358717718
    w: 0.957784416462
---
header: 
  seq: 798
  stamp: 
    secs: 21944
    nsecs: 985000000
  frame_id: "world"
pose: 
  position: 
    x: -0.278011224192
    y: -0.580330719889
    z: 0.214821058543
  orientation: 
    x: -0.187185441136
    y: 0.196960089778
    z: -0.101730473278
    w: 0.956984453619
---
header: 
  seq: 799
  stamp: 
    secs: 21945
    nsecs: 335000000
  frame_id: "world"
pose: 
  position: 
    x: -0.267827901967
    y: -0.583246899444
    z: 0.210390889652
  orientation: 
    x: -0.186248382911
    y: 0.201065378465
    z: -0.102299867434
    w: 0.956252576764
---
header: 
  seq: 800
  stamp: 
    secs: 21945
    nsecs: 603000000
  frame_id: "world"
pose: 
  position: 
    x: -0.259555099267
    y: -0.585241971255
    z: 0.206936124654
  orientation: 
    x: -0.179775807082
    y: 0.201391640422
    z: -0.106052840747
    w: 0.957013511569
---
header: 
  seq: 801
  stamp: 
    secs: 21946
    nsecs: 157000000
  frame_id: "world"
pose: 
  position: 
    x: -0.243756397633
    y: -0.588291739889
    z: 0.200182769756
  orientation: 
    x: -0.191360252175
    y: 0.196735177501
    z: -0.10147621235
    w: 0.956231719903
---
header: 
  seq: 802
  stamp: 
    secs: 21946
    nsecs: 623000000
  frame_id: "world"
pose: 
  position: 
    x: -0.231223215919
    y: -0.589773680901
    z: 0.194877061398
  orientation: 
    x: -0.186629321012
    y: 0.20216181859
    z: -0.106570483062
    w: 0.955480417268
---
header: 
  seq: 803
  stamp: 
    secs: 21947
    nsecs: 223000000
  frame_id: "world"
pose: 
  position: 
    x: -0.215707130108
    y: -0.591809271953
    z: 0.188783705903
  orientation: 
    x: -0.186544178117
    y: 0.200660846544
    z: -0.107906824244
    w: 0.955663440525
---
header: 
  seq: 804
  stamp: 
    secs: 21947
    nsecs: 695000000
  frame_id: "world"
pose: 
  position: 
    x: -0.208631077038
    y: -0.596175597699
    z: 0.181531627672
  orientation: 
    x: -0.185922722069
    y: 0.198511497794
    z: -0.105377272718
    w: 0.956515319823
---
header: 
  seq: 805
  stamp: 
    secs: 21947
    nsecs: 922000000
  frame_id: "world"
pose: 
  position: 
    x: -0.202933938316
    y: -0.597359876938
    z: 0.178772061816
  orientation: 
    x: -0.187012964196
    y: 0.201159990768
    z: -0.103796879421
    w: 0.955922076929
---
header: 
  seq: 806
  stamp: 
    secs: 21948
    nsecs: 440000000
  frame_id: "world"
pose: 
  position: 
    x: -0.188840308767
    y: -0.600552424129
    z: 0.174207949072
  orientation: 
    x: -0.182293455368
    y: 0.196378403751
    z: -0.102241670633
    w: 0.957993350424
---
header: 
  seq: 807
  stamp: 
    secs: 21948
    nsecs: 794000000
  frame_id: "world"
pose: 
  position: 
    x: -0.179888083162
    y: -0.60242116178
    z: 0.170639534216
  orientation: 
    x: -0.185558016062
    y: 0.189394548722
    z: -0.0987627565276
    w: 0.959137031666
---
header: 
  seq: 808
  stamp: 
    secs: 21949
    nsecs:  47000000
  frame_id: "world"
pose: 
  position: 
    x: -0.171565237406
    y: -0.60455071897
    z: 0.167801900178
  orientation: 
    x: -0.186294648441
    y: 0.187160221462
    z: -0.106711171289
    w: 0.958581285748
---
header: 
  seq: 809
  stamp: 
    secs: 21949
    nsecs: 364000000
  frame_id: "world"
pose: 
  position: 
    x: -0.163395901134
    y: -0.606592256709
    z: 0.164649662148
  orientation: 
    x: -0.192051001598
    y: 0.183233818556
    z: -0.099375125125
    w: 0.958992369641
---
header: 
  seq: 810
  stamp: 
    secs: 21949
    nsecs: 707000000
  frame_id: "world"
pose: 
  position: 
    x: -0.154253855292
    y: -0.610283121896
    z: 0.16131774897
  orientation: 
    x: -0.186800387452
    y: 0.1803114068
    z: -0.0986489010881
    w: 0.960656965904
---
header: 
  seq: 811
  stamp: 
    secs: 21949
    nsecs: 945000000
  frame_id: "world"
pose: 
  position: 
    x: -0.146362220948
    y: -0.612531849965
    z: 0.158524575329
  orientation: 
    x: -0.18698398608
    y: 0.181566267179
    z: -0.102868079549
    w: 0.959942101266
---
header: 
  seq: 812
  stamp: 
    secs: 21950
    nsecs: 427000000
  frame_id: "world"
pose: 
  position: 
    x: -0.131870603705
    y: -0.618114398758
    z: 0.153577696755
  orientation: 
    x: -0.188440625242
    y: 0.181739358995
    z: -0.102363554876
    w: 0.959678403833
---
header: 
  seq: 813
  stamp: 
    secs: 21951
    nsecs:  45000000
  frame_id: "world"
pose: 
  position: 
    x: -0.116137532251
    y: -0.624447857909
    z: 0.14704491897
  orientation: 
    x: -0.189031302716
    y: 0.179869256617
    z: -0.0954924497278
    w: 0.960622407173
---
header: 
  seq: 814
  stamp: 
    secs: 21951
    nsecs: 377000000
  frame_id: "world"
pose: 
  position: 
    x: -0.106160440628
    y: -0.626318231091
    z: 0.144880628448
  orientation: 
    x: -0.188921119945
    y: 0.172380378408
    z: -0.10481347787
    w: 0.961045238496
---
header: 
  seq: 815
  stamp: 
    secs: 21951
    nsecs: 707000000
  frame_id: "world"
pose: 
  position: 
    x: -0.0961270689207
    y: -0.628912455107
    z: 0.142059885932
  orientation: 
    x: -0.192054721828
    y: 0.1673769884
    z: -0.101808070623
    w: 0.961631449326
---
header: 
  seq: 816
  stamp: 
    secs: 21951
    nsecs: 879000000
  frame_id: "world"
pose: 
  position: 
    x: -0.0935524805728
    y: -0.630370222872
    z: 0.140150985391
  orientation: 
    x: -0.190597636282
    y: 0.167907597519
    z: -0.0917587961789
    w: 0.962839500157
---
header: 
  seq: 817
  stamp: 
    secs: 21952
    nsecs: 227000000
  frame_id: "world"
pose: 
  position: 
    x: -0.0833908393897
    y: -0.63265027207
    z: 0.136493665137
  orientation: 
    x: -0.192605602035
    y: 0.166013619544
    z: -0.101404270556
    w: 0.961800256864
---
header: 
  seq: 818
  stamp: 
    secs: 21952
    nsecs: 718000000
  frame_id: "world"
pose: 
  position: 
    x: -0.0726627035884
    y: -0.63481571247
    z: 0.133404890216
  orientation: 
    x: -0.185720726228
    y: 0.164497018785
    z: -0.0956908386723
    w: 0.963997824715
---
header: 
  seq: 819
  stamp: 
    secs: 21953
    nsecs: 246000000
  frame_id: "world"
pose: 
  position: 
    x: -0.0572954492767
    y: -0.640907926699
    z: 0.12758342201
  orientation: 
    x: -0.187009766557
    y: 0.165582749741
    z: -0.0974338489496
    w: 0.963387951596
---
header: 
  seq: 820
  stamp: 
    secs: 21953
    nsecs: 673000000
  frame_id: "world"
pose: 
  position: 
    x: -0.0446963751541
    y: -0.645472259614
    z: 0.122548101677
  orientation: 
    x: -0.189253714815
    y: 0.166088150174
    z: -0.0980890288153
    w: 0.962796084447
---
header: 
  seq: 821
  stamp: 
    secs: 21953
    nsecs: 971000000
  frame_id: "world"
pose: 
  position: 
    x: -0.0193654577132
    y: -0.677121138451
    z: 0.131699406671
  orientation: 
    x: -0.20641854229
    y: 0.155691765608
    z: -0.090630532241
    w: 0.961736744721
---
header: 
  seq: 822
  stamp: 
    secs: 21954
    nsecs: 477000000
  frame_id: "world"
pose: 
  position: 
    x: -0.010032608157
    y: -0.679703717835
    z: 0.126180386068
  orientation: 
    x: -0.20503957629
    y: 0.159321322249
    z: -0.0911266622208
    w: 0.961390357692
---
header: 
  seq: 823
  stamp: 
    secs: 21954
    nsecs: 958000000
  frame_id: "world"
pose: 
  position: 
    x: 0.000555170674099
    y: -0.681911276637
    z: 0.122244514709
  orientation: 
    x: -0.203649569422
    y: 0.161720479679
    z: -0.0922065911354
    w: 0.961182232398
---
header: 
  seq: 824
  stamp: 
    secs: 21955
    nsecs: 482000000
  frame_id: "world"
pose: 
  position: 
    x: 0.0170677774029
    y: -0.680777975493
    z: 0.119194848029
  orientation: 
    x: -0.200242780723
    y: 0.162771706651
    z: -0.0954483912011
    w: 0.961404079926
---
header: 
  seq: 825
  stamp: 
    secs: 21955
    nsecs: 942000000
  frame_id: "world"
pose: 
  position: 
    x: 0.0263531966762
    y: -0.684148118728
    z: 0.11515018917
  orientation: 
    x: -0.20950486505
    y: 0.159233475689
    z: -0.121485488665
    w: 0.957075591468
---
header: 
  seq: 826
  stamp: 
    secs: 21956
    nsecs: 293000000
  frame_id: "world"
pose: 
  position: 
    x: 0.0264773701081
    y: -0.684213961876
    z: 0.113242087081
  orientation: 
    x: -0.206643880791
    y: 0.162452069113
    z: -0.105520899718
    w: 0.959047950572
---
header: 
  seq: 827
  stamp: 
    secs: 21956
    nsecs: 892000000
  frame_id: "world"
pose: 
  position: 
    x: 0.0276704519812
    y: -0.679363106591
    z: 0.111053031818
  orientation: 
    x: -0.20348353452
    y: 0.158152607773
    z: -0.0914938087515
    w: 0.961878935622
---
header: 
  seq: 828
  stamp: 
    secs: 21957
    nsecs: 137000000
  frame_id: "world"
pose: 
  position: 
    x: 0.0297888736356
    y: -0.675524773538
    z: 0.111275053087
  orientation: 
    x: -0.206615628561
    y: 0.152220402579
    z: -0.0921169315613
    w: 0.962108830639
---
header: 
  seq: 829
  stamp: 
    secs: 21957
    nsecs: 383000000
  frame_id: "world"
pose: 
  position: 
    x: 0.028330929235
    y: -0.675497141343
    z: 0.109468359744
  orientation: 
    x: -0.211825674821
    y: 0.150366855737
    z: -0.0953692646167
    w: 0.960949736224
---
header: 
  seq: 830
  stamp: 
    secs: 21957
    nsecs: 713000000
  frame_id: "world"
pose: 
  position: 
    x: 0.0269406897635
    y: -0.671861231655
    z: 0.108374439447
  orientation: 
    x: -0.206673228262
    y: 0.144286116796
    z: -0.0925983316115
    w: 0.963272153756
---
header: 
  seq: 831
  stamp: 
    secs: 21957
    nsecs: 876000000
  frame_id: "world"
pose: 
  position: 
    x: 0.0287466380968
    y: -0.669019567517
    z: 0.107992711446
  orientation: 
    x: -0.206741680996
    y: 0.141541798799
    z: -0.0888253179757
    w: 0.964019636428
---
header: 
  seq: 832
  stamp: 
    secs: 21958
    nsecs: 348000000
  frame_id: "world"
pose: 
  position: 
    x: 0.027075362979
    y: -0.66413998136
    z: 0.105191626706
  orientation: 
    x: -0.213324764137
    y: 0.138484093547
    z: -0.0881176095497
    w: 0.963093966198
---
header: 
  seq: 833
  stamp: 
    secs: 21958
    nsecs: 950000000
  frame_id: "world"
pose: 
  position: 
    x: 0.024667928608
    y: -0.657790598078
    z: 0.103332477995
  orientation: 
    x: -0.212746250677
    y: 0.128362035895
    z: -0.0912232097594
    w: 0.964334250437
---
header: 
  seq: 834
  stamp: 
    secs: 21959
    nsecs: 438000000
  frame_id: "world"
pose: 
  position: 
    x: 0.0269691698531
    y: -0.655793969283
    z: 0.101474692983
  orientation: 
    x: -0.215965238541
    y: 0.115401135841
    z: -0.0873168219397
    w: 0.965617608681
---
header: 
  seq: 835
  stamp: 
    secs: 21959
    nsecs: 940000000
  frame_id: "world"
pose: 
  position: 
