header: 
  seq: 163
  stamp: 
    secs: 749
    nsecs:  23000000
  frame_id: "world"
pose: 
  position: 
    x: 1.86998986464e-05
    y: -1.55493089551e-05
    z: -1.64136654348e-05
  orientation: 
    x: -2.32632464668e-05
    y: -7.85739393599e-06
    z: -1.32738477935e-05
    w: 0.99999999961
---
header: 
  seq: 164
  stamp: 
    secs: 749
    nsecs: 283000000
  frame_id: "world"
pose: 
  position: 
    x: -2.32343836615e-06
    y: 2.40564304477e-07
    z: 6.71331179092e-07
  orientation: 
    x: -3.03251908917e-07
    y: 1.13402086299e-06
    z: -7.43002431135e-07
    w: 0.999999999999
---
header: 
  seq: 165
  stamp: 
    secs: 749
    nsecs: 580000000
  frame_id: "world"
pose: 
  position: 
    x: -2.1466794351e-06
    y: 1.24120944633e-07
    z: 8.58602618337e-07
  orientation: 
    x: -2.1979529663e-07
    y: 1.04231116893e-06
    z: -9.73858618635e-07
    w: 0.999999999999
---
header: 
  seq: 166
  stamp: 
    secs: 749
    nsecs: 872000000
  frame_id: "world"
pose: 
  position: 
    x: 1.22678802654e-05
    y: -1.58043767442e-05
    z: -2.55893701251e-05
  orientation: 
    x: -2.75639686007e-05
    y: -4.03351486755e-06
    z: -1.65185647261e-05
    w: 0.999999999476
---
header: 
  seq: 167
  stamp: 
    secs: 750
    nsecs: 213000000
  frame_id: "world"
pose: 
  position: 
    x: -1.98259158424e-06
    y: 6.41866563456e-07
    z: 8.45388285597e-07
  orientation: 
    x: -9.71667262205e-08
    y: 9.65967160481e-07
    z: -8.23915740966e-07
    w: 0.999999999999
---
header: 
  seq: 168
  stamp: 
    secs: 750
    nsecs: 617000000
  frame_id: "world"
pose: 
  position: 
    x: 9.16870521905e-06
    y: -9.92404056888e-06
    z: 1.35344191676e-06
  orientation: 
    x: -1.11562494558e-05
    y: -5.07979348147e-06
    z: 1.63918650729e-06
    w: 0.999999999924
---
header: 
  seq: 169
  stamp: 
    secs: 751
    nsecs:  29000000
  frame_id: "world"
pose: 
  position: 
    x: -2.01214788831e-06
    y: 6.10215863617e-07
    z: 8.40296593196e-07
  orientation: 
    x: -1.08689228284e-07
    y: 9.78127332018e-07
    z: -8.12562177543e-07
    w: 0.999999999999
---
header: 
  seq: 170
  stamp: 
    secs: 751
    nsecs: 278000000
  frame_id: "world"
pose: 
  position: 
    x: -2.14292208511e-06
    y: 6.94487027886e-08
    z: 8.48703052725e-07
  orientation: 
    x: -2.44702306418e-07
    y: 1.04364778508e-06
    z: -9.93621824817e-07
    w: 0.999999999999
---
header: 
  seq: 171
  stamp: 
    secs: 751
    nsecs: 472000000
  frame_id: "world"
pose: 
  position: 
    x: 8.91282616067e-06
    y: -9.86560917227e-06
    z: 1.25656083583e-06
  orientation: 
    x: -1.1138447916e-05
    y: -4.95720269063e-06
    z: 1.70836142375e-06
    w: 0.999999999924
---
header: 
  seq: 172
  stamp: 
    secs: 751
    nsecs: 663000000
  frame_id: "world"
pose: 
  position: 
    x: 1.85865956155e-05
    y: -1.54907484102e-05
    z: -1.64215980476e-05
  orientation: 
    x: -2.32353049706e-05
    y: -7.77686818463e-06
    z: -1.32463319409e-05
    w: 0.999999999612
---
header: 
  seq: 173
  stamp: 
    secs: 751
    nsecs: 859000000
  frame_id: "world"
pose: 
  position: 
    x: 8.71473184816e-06
    y: -9.45030933508e-06
    z: 1.38234236147e-06
  orientation: 
    x: -1.09429456635e-05
    y: -4.85832242667e-06
    z: 1.76020296281e-06
    w: 0.999999999927
---
header: 
  seq: 174
  stamp: 
    secs: 752
    nsecs: 106000000
  frame_id: "world"
pose: 
  position: 
    x: -2.11438145925e-06
    y: 6.51317151323e-08
    z: 8.45839451813e-07
  orientation: 
    x: -2.45091001716e-07
    y: 1.02840874661e-06
    z: -9.93655930869e-07
    w: 0.999999999999
---
header: 
  seq: 175
  stamp: 
    secs: 752
    nsecs: 401000000
  frame_id: "world"
pose: 
  position: 
    x: 1.85110839084e-05
    y: -1.5467447156e-05
    z: -1.63621007232e-05
  orientation: 
    x: -2.32154761671e-05
    y: -7.73431929402e-06
    z: -1.32681980125e-05
    w: 0.999999999613
---
header: 
  seq: 176
  stamp: 
    secs: 752
    nsecs: 752000000
  frame_id: "world"
pose: 
  position: 
    x: 1.22614410429e-05
    y: -1.57190679602e-05
    z: -2.56540242844e-05
  orientation: 
    x: -2.75207148517e-05
    y: -3.99986038037e-06
    z: -1.65233759531e-05
    w: 0.999999999477
---
header: 
  seq: 177
  stamp: 
    secs: 753
    nsecs:  16000000
  frame_id: "world"
pose: 
  position: 
    x: 1.22473375086e-05
    y: -1.57206868607e-05
    z: -2.56525690929e-05
  orientation: 
    x: -2.75216643642e-05
    y: -3.99596228608e-06
    z: -1.65212895722e-05
    w: 0.999999999477
---
header: 
  seq: 178
  stamp: 
    secs: 753
    nsecs: 395000000
  frame_id: "world"
pose: 
  position: 
    x: 7.92426999396e-06
    y: -9.95166647044e-06
    z: 1.29020827444e-06
  orientation: 
    x: -1.1196054401e-05
    y: -4.43410453921e-06
    z: 1.99845430856e-06
    w: 0.999999999925
---
header: 
  seq: 179
  stamp: 
    secs: 753
    nsecs: 616000000
  frame_id: "world"
pose: 
  position: 
    x: 1.2213275113e-05
    y: -1.56911519298e-05
    z: -2.56047514995e-05
  orientation: 
    x: -2.75088586788e-05
    y: -3.98189876952e-06
    z: -1.65160254169e-05
    w: 0.999999999477
---
header: 
  seq: 180
  stamp: 
    secs: 753
    nsecs: 812000000
  frame_id: "world"
pose: 
  position: 
    x: 7.92860555521e-06
    y: -9.92614513962e-06
    z: 1.28689418943e-06
  orientation: 
    x: -1.11806184569e-05
    y: -4.43681392393e-06
    z: 1.99565579336e-06
    w: 0.999999999926
---
header: 
  seq: 181
  stamp: 
    secs: 754
    nsecs:   7000000
  frame_id: "world"
pose: 
  position: 
    x: 7.85518386692e-06
    y: -1.01050964076e-05
    z: 1.278020477e-06
  orientation: 
    x: -1.12554289436e-05
    y: -4.39431096278e-06
    z: 1.92826610131e-06
    w: 0.999999999925
---
header: 
  seq: 182
  stamp: 
    secs: 754
    nsecs: 208000000
  frame_id: "world"
pose: 
  position: 
    x: 7.85518386692e-06
    y: -1.01050964076e-05
    z: 1.278020477e-06
  orientation: 
    x: -1.12554289436e-05
    y: -4.39431096278e-06
    z: 1.92826610131e-06
    w: 0.999999999925
---
header: 
  seq: 183
  stamp: 
    secs: 754
    nsecs: 429000000
  frame_id: "world"
pose: 
  position: 
    x: 1.86765573744e-05
    y: -1.52109305418e-05
    z: -1.63841923495e-05
  orientation: 
    x: -2.31008689209e-05
    y: -7.81278140193e-06
    z: -1.32107379563e-05
    w: 0.999999999615
---
header: 
  seq: 184
  stamp: 
    secs: 754
    nsecs: 710000000
  frame_id: "world"
pose: 
  position: 
    x: -2.44562625085e-06
    y: 3.09565884038e-08
    z: 5.28825182755e-07
  orientation: 
    x: -2.93115448357e-07
    y: 1.2434132941e-06
    z: -8.90231888205e-07
    w: 0.999999999999
---
header: 
  seq: 185
  stamp: 
    secs: 755
    nsecs:  10000000
  frame_id: "world"
pose: 
  position: 
    x: -2.45475348493e-06
    y: 3.07665253274e-08
    z: 5.54261134766e-07
  orientation: 
    x: -2.93250025151e-07
    y: 1.24383439015e-06
    z: -8.8810162424e-07
    w: 0.999999999999
---
header: 
  seq: 186
  stamp: 
    secs: 755
    nsecs: 340000000
  frame_id: "world"
pose: 
  position: 
    x: -2.35995184994e-06
    y: 1.444239075e-07
    z: 4.84797681111e-07
  orientation: 
    x: -2.27364040483e-07
    y: 1.21182279145e-06
    z: -1.00411762105e-06
    w: 0.999999999999
---
header: 
  seq: 187
  stamp: 
    secs: 755
    nsecs: 628000000
  frame_id: "world"
pose: 
  position: 
    x: -2.43180079451e-06
    y: 1.28641659103e-07
    z: 5.4168464203e-07
  orientation: 
    x: -2.46508363943e-07
    y: 1.23458494272e-06
    z: -8.79850119872e-07
    w: 0.999999999999
---
header: 
  seq: 188
  stamp: 
    secs: 755
    nsecs: 864000000
  frame_id: "world"
pose: 
  position: 
    x: 9.03029740584e-06
    y: -9.87384009932e-06
    z: 1.11021915927e-06
  orientation: 
    x: -1.11680774344e-05
    y: -4.95206859303e-06
    z: 1.74857473199e-06
    w: 0.999999999924
---
header: 
  seq: 189
  stamp: 
    secs: 756
    nsecs:  83000000
  frame_id: "world"
pose: 
  position: 
    x: 9.03029740584e-06
    y: -9.87384009932e-06
    z: 1.11021915927e-06
  orientation: 
    x: -1.11680774344e-05
    y: -4.95206859303e-06
    z: 1.74857473199e-06
    w: 0.999999999924
---
header: 
  seq: 190
  stamp: 
    secs: 756
    nsecs: 281000000
  frame_id: "world"
pose: 
  position: 
    x: 9.03029740584e-06
    y: -9.87384009932e-06
    z: 1.11021915927e-06
  orientation: 
    x: -1.11680774344e-05
    y: -4.95206859303e-06
    z: 1.74857473199e-06
    w: 0.999999999924
---
header: 
  seq: 191
  stamp: 
    secs: 756
    nsecs: 479000000
  frame_id: "world"
pose: 
  position: 
    x: 9.03029740584e-06
    y: -9.87384009932e-06
    z: 1.11021915927e-06
  orientation: 
    x: -1.11680774344e-05
    y: -4.95206859303e-06
    z: 1.74857473199e-06
    w: 0.999999999924
---
header: 
  seq: 192
  stamp: 
    secs: 756
    nsecs: 723000000
  frame_id: "world"
pose: 
  position: 
    x: -2.03870922633e-06
    y: 6.02220040946e-07
    z: 4.20075792817e-07
  orientation: 
    x: -1.38561148333e-07
    y: 1.06950096779e-06
    z: -8.25645713575e-07
    w: 0.999999999999
---
header: 
  seq: 193
  stamp: 
    secs: 756
    nsecs: 995000000
  frame_id: "world"
pose: 
  position: 
    x: 9.01527073438e-06
    y: -9.67597679846e-06
    z: 1.07325570298e-06
  orientation: 
    x: -1.10913251766e-05
    y: -4.93795732799e-06
    z: 1.87537204951e-06
    w: 0.999999999925
---
header: 
  seq: 194
  stamp: 
    secs: 757
    nsecs: 269000000
  frame_id: "world"
pose: 
  position: 
    x: -2.03241938834e-06
    y: 5.99136342316e-07
    z: 4.56989511122e-07
  orientation: 
    x: -1.40812460358e-07
    y: 1.06949278233e-06
    z: -8.26979828616e-07
    w: 0.999999999999
---
header: 
  seq: 195
  stamp: 
    secs: 757
    nsecs: 564000000
  frame_id: "world"
pose: 
  position: 
    x: 1.17308536574e-05
    y: -1.55283123604e-05
    z: -2.55372779066e-05
  orientation: 
    x: -2.74156500239e-05
    y: -3.75734225404e-06
    z: -1.64975517606e-05
    w: 0.999999999481
---
header: 
  seq: 196
  stamp: 
    secs: 757
    nsecs: 851000000
  frame_id: "world"
pose: 
  position: 
    x: -2.0312727429e-06
    y: 6.02334409905e-07
    z: 4.79640448248e-07
  orientation: 
    x: -1.34402469598e-07
    y: 1.07219125311e-06
    z: -8.5292924723e-07
    w: 0.999999999999
---
header: 
  seq: 197
  stamp: 
    secs: 758
    nsecs: 152000000
  frame_id: "world"
pose: 
  position: 
    x: 1.14429167297e-05
    y: -1.55843263201e-05
    z: -2.5603803806e-05
  orientation: 
    x: -2.74463145473e-05
    y: -3.60829085179e-06
    z: -1.64876328114e-05
    w: 0.999999999481
---
header: 
  seq: 198
  stamp: 
    secs: 758
    nsecs: 359000000
  frame_id: "world"
pose: 
  position: 
    x: 1.83007978194e-05
    y: -1.51386784637e-05
    z: -1.64951543411e-05
  orientation: 
    x: -2.30907989956e-05
    y: -7.61962791948e-06
    z: -1.31643237132e-05
    w: 0.999999999618
---
header: 
  seq: 199
  stamp: 
    secs: 758
    nsecs: 562000000
  frame_id: "world"
pose: 
  position: 
    x: -2.20699052988e-06
    y: 1.54392566287e-07
    z: 3.91939977362e-07
  orientation: 
    x: -2.18833747567e-07
    y: 1.16288288154e-06
    z: -1.01506839201e-06
    w: 0.999999999999
---
header: 
  seq: 200
  stamp: 
    secs: 758
    nsecs: 785000000
  frame_id: "world"
pose: 
  position: 
    x: 1.82925778063e-05
    y: -1.5180599803e-05
    z: -1.647096542e-05
  orientation: 
    x: -2.31122048629e-05
    y: -7.6141914149e-06
    z: -1.31677552367e-05
    w: 0.999999999617
---
header: 
  seq: 201
  stamp: 
    secs: 759
    nsecs: 193000000
  frame_id: "world"
pose: 
  position: 
    x: 1.82789281098e-05
    y: -1.51665180965e-05
    z: -1.65017863765e-05
  orientation: 
    x: -2.31048161279e-05
    y: -7.61106548161e-06
    z: -1.31656252001e-05
    w: 0.999999999617
---
header: 
  seq: 202
  stamp: 
    secs: 759
    nsecs: 605000000
  frame_id: "world"
pose: 
  position: 
    x: 8.46241346153e-06
    y: -1.03425827547e-05
    z: -1.0118890259e-06
  orientation: 
    x: -1.17226891224e-05
    y: -4.57625037559e-06
    z: 3.24539382718e-06
    w: 0.999999999916
---
header: 
  seq: 203
  stamp: 
    secs: 759
    nsecs: 897000000
  frame_id: "world"
pose: 
  position: 
    x: -2.52990162153e-06
    y: 2.22490285751e-07
    z: 2.21583590587e-07
  orientation: 
    x: -3.5047199276e-07
    y: 1.32035734168e-06
    z: -6.8949884735e-07
    w: 0.999999999999
---
header: 
  seq: 204
  stamp: 
    secs: 760
    nsecs: 256000000
  frame_id: "world"
pose: 
  position: 
    x: 8.22490801511e-06
    y: -1.00814804682e-05
    z: -1.10874896109e-06
  orientation: 
    x: -1.15916300264e-05
    y: -4.43054523166e-06
    z: 3.259524419e-06
    w: 0.999999999918
---
header: 
  seq: 205
  stamp: 
    secs: 760
    nsecs: 556000000
  frame_id: "world"
pose: 
  position: 
    x: 8.22490801511e-06
    y: -1.00814804682e-05
    z: -1.10874896109e-06
  orientation: 
    x: -1.15916300264e-05
    y: -4.43054523166e-06
    z: 3.259524419e-06
    w: 0.999999999918
---
header: 
  seq: 206
  stamp: 
    secs: 760
    nsecs: 771000000
  frame_id: "world"
pose: 
  position: 
    x: 1.82681433216e-05
    y: -1.52877637447e-05
    z: -1.65118035511e-05
  orientation: 
    x: -2.31667763639e-05
    y: -7.59861950135e-06
    z: -1.32389823142e-05
    w: 0.999999999615
---
header: 
  seq: 207
  stamp: 
    secs: 760
    nsecs: 975000000
  frame_id: "world"
pose: 
  position: 
    x: 1.81948435056e-05
    y: -1.53266919369e-05
    z: -1.64663233591e-05
  orientation: 
    x: -2.31822632397e-05
    y: -7.5681873539e-06
    z: -1.31891847508e-05
    w: 0.999999999616
---
header: 
  seq: 208
  stamp: 
    secs: 761
    nsecs: 226000000
  frame_id: "world"
pose: 
  position: 
    x: -2.24642167268e-06
    y: 1.31746800136e-08
    z: 3.78810938173e-07
  orientation: 
    x: -2.81606702401e-07
    y: 1.17916556519e-06
    z: -1.01433442978e-06
    w: 0.999999999999
---
header: 
  seq: 209
  stamp: 
    secs: 761
    nsecs: 547000000
  frame_id: "world"
pose: 
  position: 
    x: -2.1129144443e-06
    y: 5.33040577011e-07
    z: 3.62584756886e-07
  orientation: 
    x: -1.83674856657e-07
    y: 1.12110069494e-06
    z: -7.83956807026e-07
    w: 0.999999999999
---
header: 
  seq: 210
  stamp: 
    secs: 761
    nsecs: 999000000
  frame_id: "world"
pose: 
  position: 
    x: 8.20508012112e-06
    y: -1.00935585579e-05
    z: -1.06863569727e-06
  orientation: 
    x: -1.15954926504e-05
    y: -4.42116834129e-06
    z: 3.24942197922e-06
    w: 0.999999999918
---
header: 
  seq: 211
  stamp: 
    secs: 762
    nsecs: 386000000
  frame_id: "world"
pose: 
  position: 
    x: 8.20508012112e-06
    y: -1.00935585579e-05
    z: -1.06863569727e-06
  orientation: 
    x: -1.15954926504e-05
    y: -4.42116834129e-06
    z: 3.24942197922e-06
    w: 0.999999999918
---
header: 
  seq: 212
  stamp: 
    secs: 762
    nsecs: 750000000
  frame_id: "world"
pose: 
  position: 
    x: -7.47343023022e-08
    y: 1.41869259096e-06
    z: -4.79512846141e-06
  orientation: 
    x: 8.31588167215e-08
    y: 6.84299379827e-07
    z: -9.54898155214e-07
    w: 0.999999999999
---
header: 
  seq: 213
  stamp: 
    secs: 763
    nsecs:   9000000
  frame_id: "world"
pose: 
  position: 
    x: 1.82527855941e-05
    y: -1.50755940922e-05
    z: -1.64672401297e-05
  orientation: 
    x: -2.30610566999e-05
    y: -7.59686463135e-06
    z: -1.31650831413e-05
    w: 0.999999999619
---
header: 
  seq: 214
  stamp: 
    secs: 763
    nsecs: 248000000
  frame_id: "world"
pose: 
  position: 
    x: 1.40787008718e-07
    y: 1.60084846357e-06
    z: -4.93118977829e-06
  orientation: 
    x: 1.6654104229e-07
    y: 5.94945618104e-07
    z: -9.67102664617e-07
    w: 0.999999999999
---
header: 
  seq: 215
  stamp: 
    secs: 763
    nsecs: 479000000
  frame_id: "world"
pose: 
  position: 
    x: 1.40787008718e-07
    y: 1.60084846357e-06
    z: -4.93118977829e-06
  orientation: 
    x: 1.6654104229e-07
    y: 5.94945618104e-07
    z: -9.67102664617e-07
    w: 0.999999999999
---
header: 
  seq: 216
  stamp: 
    secs: 763
    nsecs: 731000000
  frame_id: "world"
pose: 
  position: 
    x: 1.40787008718e-07
    y: 1.60084846357e-06
    z: -4.93118977829e-06
  orientation: 
    x: 1.6654104229e-07
    y: 5.94945618104e-07
    z: -9.67102664617e-07
    w: 0.999999999999
---
header: 
  seq: 217
  stamp: 
    secs: 764
    nsecs:  31000000
  frame_id: "world"
pose: 
  position: 
    x: 1.40787008718e-07
    y: 1.60084846357e-06
    z: -4.93118977829e-06
  orientation: 
    x: 1.6654104229e-07
    y: 5.94945618104e-07
    z: -9.67102664617e-07
    w: 0.999999999999
---
header: 
  seq: 218
  stamp: 
    secs: 764
    nsecs: 412000000
  frame_id: "world"
pose: 
  position: 
    x: 1.40787008718e-07
    y: 1.60084846357e-06
    z: -4.93118977829e-06
  orientation: 
    x: 1.6654104229e-07
    y: 5.94945618104e-07
    z: -9.67102664617e-07
    w: 0.999999999999
---
header: 
  seq: 219
  stamp: 
    secs: 764
    nsecs: 731000000
  frame_id: "world"
pose: 
  position: 
    x: 1.76801295311e-05
    y: -1.53871424118e-05
    z: -1.61718835443e-05
  orientation: 
    x: -2.31794820049e-05
    y: -7.44375665533e-06
    z: -1.3113982272e-05
    w: 0.999999999618
---
header: 
  seq: 220
  stamp: 
    secs: 765
    nsecs: 114000000
  frame_id: "world"
pose: 
  position: 
    x: -4.63905003301e-08
    y: 1.55686893777e-06
    z: -4.70522672913e-06
  orientation: 
    x: 1.35934030254e-07
    y: 5.74241937556e-07
    z: -8.90084038474e-07
    w: 0.999999999999
---
header: 
  seq: 221
  stamp: 
    secs: 765
    nsecs: 373000000
  frame_id: "world"
pose: 
  position: 
    x: 1.76529028977e-05
    y: -1.53711771418e-05
    z: -1.61417628988e-05
  orientation: 
    x: -2.31648646061e-05
    y: -7.42814563353e-06
    z: -1.31402502979e-05
    w: 0.999999999618
---
header: 
  seq: 222
  stamp: 
    secs: 765
    nsecs: 624000000
  frame_id: "world"
pose: 
  position: 
    x: -4.54838271935e-07
    y: 1.26126587929e-06
    z: -4.80359858557e-06
  orientation: 
    x: -2.33535200067e-08
    y: 7.71300051383e-07
    z: -7.80547964041e-07
    w: 0.999999999999
---
header: 
  seq: 223
  stamp: 
    secs: 765
    nsecs: 865000000
  frame_id: "world"
pose: 
  position: 
    x: 1.76523171831e-05
    y: -1.53716155182e-05
    z: -1.61066618602e-05
  orientation: 
    x: -2.31642497877e-05
    y: -7.4259442016e-06
    z: -1.31392844146e-05
    w: 0.999999999618
---
header: 
  seq: 224
  stamp: 
    secs: 766
    nsecs: 104000000
  frame_id: "world"
pose: 
  position: 
    x: 4.77388084619e-08
    y: 1.6124135982e-06
    z: -4.81388678963e-06
  orientation: 
    x: 1.53275365733e-07
    y: 5.42711802609e-07
    z: -8.79888375493e-07
    w: 0.999999999999
---
header: 
  seq: 225
  stamp: 
    secs: 766
    nsecs: 461000000
  frame_id: "world"
pose: 
  position: 
    x: 4.77388084619e-08
    y: 1.6124135982e-06
    z: -4.81388678963e-06
  orientation: 
    x: 1.53275365733e-07
    y: 5.42711802609e-07
    z: -8.79888375493e-07
    w: 0.999999999999
---
header: 
  seq: 226
  stamp: 
    secs: 766
    nsecs: 836000000
  frame_id: "world"
pose: 
  position: 
    x: -5.18497415669e-07
    y: 6.66457196985e-07
    z: -5.07046661369e-06
  orientation: 
    x: -2.62193594835e-07
    y: 8.09249684152e-07
    z: -9.17355066576e-07
    w: 0.999999999999
---
header: 
  seq: 227
  stamp: 
    secs: 767
    nsecs: 205000000
  frame_id: "world"
pose: 
  position: 
    x: -5.18497415669e-07
    y: 6.66457196985e-07
    z: -5.07046661369e-06
  orientation: 
    x: -2.62193594835e-07
    y: 8.09249684152e-07
    z: -9.17355066576e-07
    w: 0.999999999999
---
header: 
  seq: 228
  stamp: 
    secs: 767
    nsecs: 614000000
  frame_id: "world"
pose: 
  position: 
    x: 1.07069454316e-05
    y: -1.58056009241e-05
    z: -2.51980600297e-05
  orientation: 
    x: -2.75475103847e-05
    y: -3.37482174298e-06
    z: -1.6331507132e-05
    w: 0.999999999482
---
header: 
  seq: 229
  stamp: 
    secs: 767
    nsecs: 826000000
  frame_id: "world"
pose: 
  position: 
    x: -3.56673439228e-07
    y: 9.86909981293e-07
    z: -5.0844114412e-06
  orientation: 
    x: -1.44829812143e-07
    y: 7.42882718896e-07
    z: -7.87387534728e-07
    w: 0.999999999999
---
header: 
  seq: 230
  stamp: 
    secs: 768
    nsecs:  67000000
  frame_id: "world"
pose: 
  position: 
    x: 1.73989828909e-05
    y: -1.5373892893e-05
    z: -1.62071664818e-05
  orientation: 
    x: -2.31656267627e-05
    y: -7.27666019607e-06
    z: -1.31547649239e-05
    w: 0.999999999619
---
header: 
  seq: 231
  stamp: 
    secs: 768
    nsecs: 312000000
  frame_id: "world"
pose: 
  position: 
    x: -5.46609840057e-07
    y: 6.46818705263e-07
    z: -5.06777269038e-06
  orientation: 
    x: -2.70525532642e-07
    y: 8.22836454972e-07
    z: -9.10697394828e-07
    w: 0.999999999999
---
header: 
  seq: 232
  stamp: 
    secs: 768
    nsecs: 541000000
  frame_id: "world"
pose: 
  position: 
    x: 1.73805419763e-05
    y: -1.53419368871e-05
    z: -1.62118030858e-05
  orientation: 
    x: -2.31519752472e-05
    y: -7.26943971764e-06
    z: -1.31419628765e-05
    w: 0.999999999619
---
header: 
  seq: 233
  stamp: 
    secs: 768
    nsecs: 882000000
  frame_id: "world"
pose: 
  position: 
    x: -5.58536271456e-07
    y: 6.47265494536e-07
    z: -5.05213029101e-06
  orientation: 
    x: -2.72106063903e-07
    y: 8.27759606636e-07
    z: -9.0871753855e-07
    w: 0.999999999999
---
header: 
  seq: 234
  stamp: 
    secs: 769
    nsecs: 232000000
  frame_id: "world"
pose: 
  position: 
    x: 7.88684337749e-06
    y: -9.05620163394e-06
    z: -6.37091079625e-06
  orientation: 
    x: -1.16934206735e-05
    y: -3.65731830215e-06
    z: 2.13963357948e-06
    w: 0.999999999923
---
header: 
  seq: 235
  stamp: 
    secs: 769
    nsecs: 577000000
  frame_id: "world"
pose: 
  position: 
    x: 7.6698806879e-06
    y: -9.0878975243e-06
    z: -6.37941502646e-06
  orientation: 
    x: -1.17086601667e-05
    y: -3.56328996504e-06
    z: 2.11077917795e-06
    w: 0.999999999923
---
header: 
  seq: 236
  stamp: 
    secs: 769
    nsecs: 818000000
  frame_id: "world"
pose: 
  position: 
    x: -4.50024259635e-07
    y: 1.04045420812e-06
    z: -5.02935154145e-06
  orientation: 
    x: -1.19363662065e-07
    y: 7.84930364261e-07
    z: -7.73985163959e-07
    w: 0.999999999999
---
header: 
  seq: 237
  stamp: 
    secs: 770
    nsecs: 157000000
  frame_id: "world"
pose: 
  position: 
    x: -4.50024259635e-07
    y: 1.04045420812e-06
    z: -5.02935154145e-06
  orientation: 
    x: -1.19363662065e-07
    y: 7.84930364261e-07
    z: -7.73985163959e-07
    w: 0.999999999999
---
header: 
  seq: 238
  stamp: 
    secs: 770
    nsecs: 395000000
  frame_id: "world"
pose: 
  position: 
    x: 1.7312795535e-05
    y: -1.5277924831e-05
    z: -1.61553452926e-05
  orientation: 
    x: -2.31116318813e-05
    y: -7.23717448362e-06
    z: -1.31236774855e-05
    w: 0.999999999621
---
header: 
  seq: 239
  stamp: 
    secs: 770
    nsecs: 625000000
  frame_id: "world"
pose: 
  position: 
    x: -4.12190786392e-07
    y: 1.52451741542e-06
    z: -4.6998079597e-06
  orientation: 
    x: 7.78989406313e-09
    y: 7.48236516301e-07
    z: -6.48854438623e-07
    w: 1.0
---
header: 
  seq: 240
  stamp: 
    secs: 770
    nsecs: 855000000
  frame_id: "world"
pose: 
  position: 
    x: 7.92162336438e-06
    y: -8.93594551599e-06
    z: -6.35038395558e-06
  orientation: 
    x: -1.16415958464e-05
    y: -3.68677046907e-06
    z: 2.23882648225e-06
    w: 0.999999999923
---
header: 
  seq: 241
  stamp: 
    secs: 771
    nsecs: 298000000
  frame_id: "world"
pose: 
  position: 
    x: 1.05999124571e-05
    y: -1.57649974426e-05
    z: -2.51050769293e-05
  orientation: 
    x: -2.75215806908e-05
    y: -3.32409262966e-06
    z: -1.62943051607e-05
    w: 0.999999999483
---
header: 
  seq: 242
  stamp: 
    secs: 771
    nsecs: 687000000
  frame_id: "world"
pose: 
  position: 
    x: -3.95591996494e-07
    y: 1.60888419032e-06
    z: -4.83968142362e-06
  orientation: 
    x: 3.11548653542e-08
    y: 7.57912459903e-07
    z: -5.84575502671e-07
    w: 1.0
---
header: 
  seq: 243
  stamp: 
    secs: 772
    nsecs:  96000000
  frame_id: "world"
pose: 
  position: 
    x: 1.06212710307e-05
    y: -1.54743829626e-05
    z: -2.50460088864e-05
  orientation: 
    x: -2.73602799867e-05
    y: -3.33071693433e-06
    z: -1.63257081938e-05
    w: 0.999999999487
---
header: 
  seq: 244
  stamp: 
    secs: 772
    nsecs: 489000000
  frame_id: "world"
pose: 
  position: 
    x: -0.000540104752872
    y: -0.00148641073611
    z: -7.51511761337e-05
  orientation: 
    x: 4.34702719674e-05
    y: 0.000308604196276
    z: -0.000496278549101
    w: 0.999999828291
---
header: 
  seq: 245
  stamp: 
    secs: 772
    nsecs: 773000000
  frame_id: "world"
pose: 
  position: 
    x: 0.000870273797773
    y: -0.00291867624037
    z: -0.00088609935483
  orientation: 
    x: 0.00493467401091
    y: 1.06578251869e-05
    z: -0.00483527069526
    w: 0.999976134233
---
header: 
  seq: 246
  stamp: 
    secs: 772
    nsecs: 997000000
  frame_id: "world"
pose: 
  position: 
    x: 0.00224528624676
    y: -0.00347861344926
    z: -0.00164540368132
  orientation: 
    x: 0.0115956200675
    y: -0.00022560703009
    z: -0.00990237794108
    w: 0.999883710042
---
header: 
  seq: 247
  stamp: 
    secs: 773
    nsecs: 209000000
  frame_id: "world"
pose: 
  position: 
    x: 0.0272911898792
    y: 0.00227882317267
    z: 0.00351526658051
  orientation: 
    x: 0.0229360917922
    y: -0.0121452840881
    z: -0.0137837141947
    w: 0.999568125237
---
header: 
  seq: 248
  stamp: 
    secs: 773
    nsecs: 423000000
  frame_id: "world"
pose: 
  position: 
    x: 0.0118913752958
    y: -0.00457263505086
    z: -0.000634061871096
  orientation: 
    x: 0.02534227377
    y: -0.00420639605962
    z: -0.0208339219851
    w: 0.999452861863
---
header: 
  seq: 249
  stamp: 
    secs: 773
    nsecs: 679000000
  frame_id: "world"
pose: 
  position: 
    x: 0.0158595722169
    y: 0.00489575136453
    z: -0.0018058026908
  orientation: 
    x: 0.0340316851506
    y: -0.00548581914008
    z: -0.0241435130855
    w: 0.999114028012
---
header: 
  seq: 250
  stamp: 
    secs: 774
    nsecs:  31000000
  frame_id: "world"
pose: 
  position: 
    x: 0.0192309264094
    y: -0.00660709384829
    z: -0.00398088013753
  orientation: 
    x: 0.0312370692264
    y: -0.00687120429358
    z: -0.0261008662534
    w: 0.999147525063
---
header: 
  seq: 251
  stamp: 
    secs: 774
    nsecs: 419000000
  frame_id: "world"
pose: 
  position: 
    x: 0.0187539570034
    y: -0.00752306124195
    z: -0.00344269303605
  orientation: 
    x: 0.0320637692407
    y: -0.00685744181926
    z: -0.0279347210355
    w: 0.999071840037
---
header: 
  seq: 252
  stamp: 
    secs: 774
    nsecs: 901000000
  frame_id: "world"
pose: 
  position: 
    x: 0.0125687718391
    y: -0.00825578719378
    z: -0.00356259895489
  orientation: 
    x: 0.0322024500458
    y: -0.00395655276871
    z: -0.028531331327
    w: 0.999066219544
---
header: 
  seq: 253
  stamp: 
    secs: 775
    nsecs: 109000000
  frame_id: "world"
pose: 
  position: 
    x: 0.0125251039863
    y: -0.00854552071542
    z: -0.00277754571289
  orientation: 
    x: 0.0323155624844
    y: -0.00374256226685
    z: -0.0287533766732
    w: 0.999057025889
---
header: 
  seq: 254
  stamp: 
    secs: 775
    nsecs: 321000000
  frame_id: "world"
pose: 
  position: 
    x: 0.0137082180008
    y: -0.00855148769915
    z: -0.00279625039548
  orientation: 
    x: 0.0324421682537
    y: -0.00425717662574
    z: -0.0290348876633
    w: 0.99904272054
---
header: 
  seq: 255
  stamp: 
    secs: 775
    nsecs: 529000000
  frame_id: "world"
pose: 
  position: 
    x: 0.012795672752
    y: -0.00831203442067
    z: -0.00247874786146
  orientation: 
    x: 0.0322462363317
    y: -0.00408229145964
    z: -0.0287978318986
    w: 0.999056655059
---
header: 
  seq: 256
  stamp: 
    secs: 775
    nsecs: 758000000
  frame_id: "world"
pose: 
  position: 
    x: 0.0127829955891
    y: -0.00817741919309
    z: -0.00240091700107
  orientation: 
    x: 0.0323404587228
    y: -0.00407662791325
    z: -0.0289092876291
    w: 0.999050413604
---
header: 
  seq: 257
  stamp: 
    secs: 776
    nsecs: 171000000
  frame_id: "world"
pose: 
  position: 
    x: 0.013461900875
    y: -0.00821029115468
    z: -0.00262508261949
  orientation: 
    x: 0.0326556589982
    y: -0.0042871021199
    z: -0.0292966710164
    w: 0.999027994482
---
header: 
  seq: 258
  stamp: 
    secs: 776
    nsecs: 597000000
  frame_id: "world"
pose: 
  position: 
    x: 0.0140279941261
    y: -0.00852030329406
    z: -0.00263265264221
  orientation: 
    x: 0.0326000094879
    y: -0.00447176320259
    z: -0.0294517296152
    w: 0.999024443314
---
header: 
  seq: 259
  stamp: 
    secs: 776
    nsecs: 983000000
  frame_id: "world"
pose: 
  position: 
    x: 0.0143322581425
    y: -0.00867132376879
    z: -0.00262427772395
  orientation: 
    x: 0.0323828238726
    y: -0.00468182196251
    z: -0.0291817005114
    w: 0.999038468537
---
header: 
  seq: 260
  stamp: 
    secs: 777
    nsecs: 385000000
  frame_id: "world"
pose: 
  position: 
    x: 0.0143575230613
    y: -0.00888491328806
    z: -0.00242236442864
  orientation: 
    x: 0.0322546362377
    y: -0.00452929641349
    z: -0.0291215925957
    w: 0.999045072437
---
header: 
  seq: 261
  stamp: 
    secs: 777
    nsecs: 802000000
  frame_id: "world"
pose: 
  position: 
    x: 0.0139507493004
    y: -0.00892067886889
    z: -0.00186864775605
  orientation: 
    x: 0.0322316875044
    y: -0.00430980497705
    z: -0.0288405223228
    w: 0.999054937515
---
header: 
  seq: 262
  stamp: 
    secs: 778
    nsecs:  29000000
  frame_id: "world"
pose: 
  position: 
    x: 0.0133464615792
    y: -0.0091538047418
    z: -0.00226182630286
  orientation: 
    x: 0.0324103486531
    y: -0.00408460792038
    z: -0.0289722057042
    w: 0.999046293509
---
header: 
  seq: 263
  stamp: 
    secs: 778
    nsecs: 240000000
  frame_id: "world"
pose: 
  position: 
    x: 0.00515812821686
    y: -0.00660372059792
    z: -0.00385670922697
  orientation: 
    x: 0.0222587584653
    y: 0.000788977941104
    z: -0.0226642115754
    w: 0.999495001838
---
header: 
  seq: 264
  stamp: 
    secs: 778
    nsecs: 461000000
  frame_id: "world"
pose: 
  position: 
    x: 0.00339542492293
    y: -0.00522845285013
    z: -4.82537689095e-05
  orientation: 
    x: 0.0216858348649
    y: 0.000787965018062
    z: -0.0202395169909
    w: 0.999559635854
---
header: 
  seq: 265
  stamp: 
    secs: 778
    nsecs: 673000000
  frame_id: "world"
pose: 
  position: 
    x: 0.0223762448877
    y: -0.00693149678409
    z: 0.00343789532781
  orientation: 
    x: 0.0253363757188
    y: -0.00494418112023
    z: -0.028833713677
    w: 0.999250839426
---
header: 
  seq: 266
  stamp: 
    secs: 778
    nsecs: 971000000
  frame_id: "world"
pose: 
  position: 
    x: 0.0901593267918
    y: 0.00992445461452
    z: -0.00954340491444
  orientation: 
    x: 0.0421302854973
    y: -0.0309389273023
    z: -0.0296534209583
    w: 0.998192614903
---
header: 
  seq: 267
  stamp: 
    secs: 779
    nsecs: 249000000
  frame_id: "world"
pose: 
  position: 
    x: 0.0877192765474
    y: 0.00893346220255
    z: -0.00107408047188
  orientation: 
    x: 0.0422311831142
    y: -0.0291941647551
    z: -0.0280137189905
    w: 0.998288264714
---
header: 
  seq: 268
  stamp: 
    secs: 779
    nsecs: 630000000
  frame_id: "world"
pose: 
  position: 
    x: 0.0877023562789
    y: 0.00838728714734
    z: 0.00509353121743
  orientation: 
    x: 0.0417629424857
    y: -0.0294198529976
    z: -0.0275573662546
    w: 0.998314038993
---
header: 
  seq: 269
  stamp: 
    secs: 780
    nsecs: 144000000
  frame_id: "world"
pose: 
  position: 
    x: 0.0639967545867
    y: 0.00885286554694
    z: 0.045706897974
  orientation: 
    x: 0.0472191428568
    y: -0.0271339565832
    z: -0.0196945616724
    w: 0.998321704256
---
header: 
  seq: 270
  stamp: 
    secs: 780
    nsecs: 361000000
  frame_id: "world"
pose: 
  position: 
    x: 0.113389290869
    y: 0.00657788198441
    z: 0.0466137640178
  orientation: 
    x: 0.0456996400223
    y: -0.0521624187647
    z: -0.017990489994
    w: 0.997430181637
---
header: 
  seq: 271
  stamp: 
    secs: 780
    nsecs: 573000000
  frame_id: "world"
pose: 
  position: 
    x: 0.114843443036
    y: 0.0153778735548
    z: 0.0508024841547
  orientation: 
    x: 0.0470024236261
    y: -0.0511425771596
    z: -0.0241494290898
    w: 0.997292341317
---
header: 
  seq: 272
  stamp: 
    secs: 780
    nsecs: 787000000
  frame_id: "world"
pose: 
  position: 
    x: 0.102339163423
    y: 0.00996500998735
    z: 0.0687272176147
  orientation: 
    x: 0.0480495961503
    y: -0.0499618659291
    z: -0.0193177968331
    w: 0.997407575161
---
header: 
  seq: 273
  stamp: 
    secs: 781
    nsecs:         0
  frame_id: "world"
pose: 
  position: 
    x: 0.0983471721411
    y: 0.00777011457831
    z: 0.0791690051556
  orientation: 
    x: 0.0480155950138
    y: -0.0529468810458
    z: -0.0213100763534
    w: 0.997214626381
---
header: 
  seq: 274
  stamp: 
    secs: 781
    nsecs: 245000000
  frame_id: "world"
pose: 
  position: 
    x: 0.112300060689
    y: 0.00382816512138
    z: 0.0837158858776
  orientation: 
    x: 0.0418484279048
    y: -0.0622010109709
    z: -0.0200725027072
    w: 0.996983870457
---
header: 
  seq: 275
  stamp: 
    secs: 781
    nsecs: 608000000
  frame_id: "world"
pose: 
  position: 
    x: 0.07566639781
    y: 0.00965727586299
    z: 0.107950828969
  orientation: 
    x: 0.0486451234036
    y: -0.0495748031168
    z: -0.0197625884878
    w: 0.997389307623
---
header: 
  seq: 276
  stamp: 
    secs: 781
    nsecs: 949000000
  frame_id: "world"
pose: 
  position: 
    x: 0.0737953409553
    y: 0.0094788800925
    z: 0.121190659702
  orientation: 
    x: 0.0507054036525
    y: -0.0513892030461
    z: -0.0177505092803
    w: 0.997232686624
---
header: 
  seq: 277
  stamp: 
    secs: 782
    nsecs: 396000000
  frame_id: "world"
pose: 
  position: 
    x: 0.0685338228941
    y: 0.0122276246548
    z: 0.132423758507
  orientation: 
    x: 0.0535880246305
    y: -0.0495606583205
    z: -0.0205538461
    w: 0.997120656778
---
header: 
  seq: 278
  stamp: 
    secs: 782
    nsecs: 717000000
  frame_id: "world"
pose: 
  position: 
    x: 0.0760493353009
    y: 0.0104923574254
    z: 0.147125989199
  orientation: 
    x: 0.0500052610926
    y: -0.053222730769
    z: -0.0168079591741
    w: 0.997188200542
---
header: 
  seq: 279
  stamp: 
    secs: 782
    nsecs: 938000000
  frame_id: "world"
pose: 
  position: 
    x: 0.0820939689875
    y: 0.00487729627639
    z: 0.16146966815
  orientation: 
    x: 0.0463971657569
    y: -0.0579994066945
    z: -0.0175668457627
    w: 0.99708313483
---
header: 
  seq: 280
  stamp: 
    secs: 783
    nsecs: 151000000
  frame_id: "world"
pose: 
  position: 
    x: 0.0773616507649
    y: 0.0111465901136
    z: 0.154249697924
  orientation: 
    x: 0.0519329535859
    y: -0.0581034872176
    z: -0.0132975932948
    w: 0.996870165627
---
header: 
  seq: 281
  stamp: 
    secs: 783
    nsecs: 352000000
  frame_id: "world"
pose: 
  position: 
    x: 0.0790403559804
    y: 0.00341250794008
    z: 0.165018573403
  orientation: 
    x: 0.0522260781454
    y: -0.0605445545849
    z: -0.0138260192313
    w: 0.996702380284
---
header: 
  seq: 282
  stamp: 
    secs: 783
    nsecs: 608000000
  frame_id: "world"
pose: 
  position: 
    x: 0.093154579401
    y: 0.00765117723495
    z: 0.179294958711
  orientation: 
    x: 0.053136495681
    y: -0.065197971922
    z: -0.0195901945108
    w: 0.996264001941
---
header: 
  seq: 283
  stamp: 
    secs: 784
    nsecs:  10000000
  frame_id: "world"
pose: 
  position: 
    x: 0.0993063822389
    y: 0.0134849594906
    z: 0.192902952433
  orientation: 
    x: 0.0538211765535
    y: -0.0675896632993
    z: -0.0213762839438
    w: 0.996031110385
---
header: 
  seq: 284
  stamp: 
    secs: 784
    nsecs: 387000000
  frame_id: "world"
pose: 
  position: 
    x: 0.0990358516574
    y: 0.00824521668255
    z: 0.198335647583
  orientation: 
    x: 0.0536628400791
    y: -0.0650365722761
    z: -0.0197113136965
    w: 0.996243950031
---
header: 
  seq: 285
  stamp: 
    secs: 784
    nsecs: 859000000
  frame_id: "world"
pose: 
  position: 
    x: 0.109626471996
    y: 5.28437667526e-05
    z: 0.220865085721
  orientation: 
    x: 0.0487619981005
    y: -0.070398853281
    z: -0.0178396127058
    w: 0.996166661366
---
header: 
  seq: 286
  stamp: 
    secs: 785
    nsecs: 100000000
  frame_id: "world"
pose: 
  position: 
    x: 0.110377900302
    y: -0.00471527408808
    z: 0.221598923206
  orientation: 
    x: 0.0490862876959
    y: -0.0741524864772
    z: -0.018979331931
    w: 0.995857283986
---
header: 
  seq: 287
  stamp: 
    secs: 785
    nsecs: 306000000
  frame_id: "world"
pose: 
  position: 
    x: 0.117048025131
    y: 0.0108718201518
    z: 0.230025753379
  orientation: 
    x: 0.0574537348527
    y: -0.0757979801258
    z: -0.0191002575251
    w: 0.995283333892
---
header: 
  seq: 288
  stamp: 
    secs: 785
    nsecs: 520000000
  frame_id: "world"
pose: 
  position: 
    x: 0.137276798487
    y: 0.0131845828146
    z: 0.234481617808
  orientation: 
    x: 0.0542063754856
    y: -0.0836233222667
    z: -0.0192589859959
    w: 0.994835614706
---
header: 
  seq: 289
  stamp: 
    secs: 785
    nsecs: 724000000
  frame_id: "world"
pose: 
  position: 
    x: 0.11208806932
    y: 0.00285214232281
    z: 0.235991299152
  orientation: 
    x: 0.0464785010918
    y: -0.070687738972
    z: -0.0276322971391
    w: 0.996031851223
---
header: 
  seq: 290
  stamp: 
    secs: 785
    nsecs: 933000000
  frame_id: "world"
pose: 
  position: 
    x: 0.0899169519544
    y: 0.000795392552391
    z: 0.222628578544
  orientation: 
    x: 0.0521714495511
    y: -0.0597569973345
    z: -0.0198299566028
    w: 0.996651400412
---
header: 
  seq: 291
  stamp: 
    secs: 786
    nsecs: 387000000
  frame_id: "world"
pose: 
  position: 
    x: 0.105722635984
    y: 0.00591236306354
    z: 0.251496583223
  orientation: 
    x: 0.0534027549113
    y: -0.0654390671705
    z: -0.0216476877994
    w: 0.996191373115
---
header: 
  seq: 292
  stamp: 
    secs: 786
    nsecs: 753000000
  frame_id: "world"
pose: 
  position: 
    x: 0.106786124408
    y: -0.00193834118545
    z: 0.254460006952
  orientation: 
    x: 0.0489173824076
    y: -0.0677816264189
    z: -0.0168950984225
    w: 0.996357012555
---
header: 
  seq: 293
  stamp: 
    secs: 787
    nsecs: 205000000
  frame_id: "world"
pose: 
  position: 
    x: 0.072454303503
    y: -0.0209518987685
    z: 0.274050056934
  orientation: 
    x: 0.0370789310728
    y: -0.051513115619
    z: -0.0198736707754
    w: 0.997785843255
---
header: 
  seq: 294
  stamp: 
    secs: 787
    nsecs: 436000000
  frame_id: "world"
pose: 
  position: 
    x: 0.0872773304582
    y: -0.0234285052866
    z: 0.285988599062
  orientation: 
    x: 0.039926299034
    y: -0.0582667046029
    z: -0.0257925155974
    w: 0.99716880613
---
header: 
  seq: 295
  stamp: 
    secs: 787
    nsecs: 646000000
  frame_id: "world"
pose: 
  position: 
    x: 0.0824658051133
    y: -0.0140629857779
    z: 0.291287094355
  orientation: 
    x: 0.0438849127469
    y: -0.0566734687906
    z: -0.0236542737685
    w: 0.997147284859
---
header: 
  seq: 296
  stamp: 
    secs: 787
    nsecs: 846000000
  frame_id: "world"
pose: 
  position: 
    x: 0.0313283167779
    y: -0.000758453505114
    z: 0.298370957375
  orientation: 
    x: 0.0500035932323
    y: -0.0222988192386
    z: -0.0252714834064
    w: 0.998180221929
---
header: 
  seq: 297
  stamp: 
    secs: 788
    nsecs:  57000000
  frame_id: "world"
pose: 
  position: 
    x: 0.0305544771254
    y: -0.00273490673862
    z: 0.300431907177
  orientation: 
    x: 0.0508991169784
    y: -0.0212595293188
    z: -0.0222754680388
    w: 0.998228989675
---
header: 
  seq: 298
  stamp: 
    secs: 788
    nsecs: 355000000
  frame_id: "world"
pose: 
  position: 
    x: 0.0410778298974
    y: -0.00236077955924
    z: 0.310463309288
  orientation: 
    x: 0.0549537035163
    y: -0.0274265733795
    z: -0.02460724957
    w: 0.997808777678
---
header: 
  seq: 299
  stamp: 
    secs: 788
    nsecs: 672000000
  frame_id: "world"
pose: 
  position: 
    x: 0.0130558703095
    y: 0.00460488954559
    z: 0.303987562656
  orientation: 
    x: 0.055546510984
    y: -0.00923794415171
    z: -0.0194220934131
    w: 0.998224437585
---
header: 
  seq: 300
  stamp: 
    secs: 788
    nsecs: 964000000
  frame_id: "world"
pose: 
  position: 
    x: 0.0207954458892
    y: 0.00268371892162
    z: 0.30072003603
  orientation: 
    x: 0.0543229507613
    y: -0.0144298374653
    z: -0.0293877906757
    w: 0.997986550295
---
header: 
  seq: 301
  stamp: 
    secs: 789
    nsecs: 508000000
  frame_id: "world"
pose: 
  position: 
    x: 0.0186910144985
    y: -0.00192395108752
    z: 0.303020775318
  orientation: 
    x: 0.0514841385446
    y: -0.0140162298692
    z: -0.0280263688887
    w: 0.998182073284
---
header: 
  seq: 302
  stamp: 
    secs: 789
    nsecs: 739000000
  frame_id: "world"
pose: 
  position: 
    x: 0.0188337322325
    y: -0.00207433709875
    z: 0.303664058447
  orientation: 
    x: 0.0515308006717
    y: -0.0139391877618
    z: -0.0280501207068
    w: 0.998180077118
---
header: 
  seq: 303
  stamp: 
    secs: 789
    nsecs: 947000000
  frame_id: "world"
pose: 
  position: 
    x: 0.0262394547462
    y: 0.00324910948984
    z: 0.323226630688
  orientation: 
    x: 0.0562730484776
    y: -0.0248636519445
    z: -0.0277855255375
    w: 0.997718952109
---
header: 
  seq: 304
  stamp: 
    secs: 790
    nsecs: 147000000
  frame_id: "world"
pose: 
  position: 
    x: 0.065743342042
    y: 0.000635838019662
    z: 0.346767008305
  orientation: 
    x: 0.0570926298299
    y: -0.0517971296283
    z: -0.0355410206182
    w: 0.996390648709
---
header: 
  seq: 305
  stamp: 
    secs: 790
    nsecs: 354000000
  frame_id: "world"
pose: 
  position: 
    x: 0.0585601292551
    y: 0.000400295772124
    z: 0.352500379086
  orientation: 
    x: 0.0559751157163
    y: -0.0506947142598
    z: -0.0308882346043
    w: 0.996665816274
---
header: 
  seq: 306
  stamp: 
    secs: 790
    nsecs: 593000000
  frame_id: "world"
pose: 
  position: 
    x: 0.0413397215307
    y: -0.0183069221675
    z: 0.354435116053
  orientation: 
    x: 0.0470764323593
    y: -0.0462184607787
    z: -0.0226084638453
    w: 0.99756529649
---
header: 
  seq: 307
  stamp: 
    secs: 791
    nsecs:   4000000
  frame_id: "world"
pose: 
  position: 
    x: 0.0831724405289
    y: -0.0191769544035
    z: 0.405684173107
  orientation: 
    x: 0.0486578491555
    y: -0.0804935404039
    z: -0.0279701981047
    w: 0.99517378969
---
header: 
  seq: 308
  stamp: 
    secs: 791
    nsecs: 429000000
  frame_id: "world"
pose: 
  position: 
    x: 0.0759172365069
    y: -0.0185730885714
    z: 0.40901812911
  orientation: 
    x: 0.0482223618281
    y: -0.0773014333017
    z: -0.0234813852141
    w: 0.995564019427
---
header: 
  seq: 309
  stamp: 
    secs: 791
    nsecs: 852000000
  frame_id: "world"
pose: 
  position: 
    x: 0.106176227331
    y: -0.0203129369766
    z: 0.445126920938
  orientation: 
    x: 0.0511426708504
    y: -0.112913632307
    z: -0.0262525923091
    w: 0.991940391483
---
header: 
  seq: 310
  stamp: 
    secs: 792
    nsecs:  61000000
  frame_id: "world"
pose: 
  position: 
    x: 0.107937417924
    y: -0.0185143724084
    z: 0.444280982018
  orientation: 
    x: 0.0528235569299
    y: -0.11647234522
    z: -0.0233839724936
    w: 0.991512508475
---
header: 
  seq: 311
  stamp: 
    secs: 792
    nsecs: 263000000
  frame_id: "world"
pose: 
  position: 
    x: 0.100343219936
    y: -0.0135931344703
    z: 0.459473252296
  orientation: 
    x: 0.0563996347472
    y: -0.115168121783
    z: -0.026927344001
    w: 0.991377981938
---
header: 
  seq: 312
  stamp: 
    secs: 792
    nsecs: 483000000
  frame_id: "world"
pose: 
  position: 
    x: 0.0531210340559
    y: -0.00158459984232
    z: 0.437273204327
  orientation: 
    x: 0.0671583322199
    y: -0.0756273920642
    z: -0.0363656757306
    w: 0.994207118065
---
header: 
  seq: 313
  stamp: 
    secs: 792
    nsecs: 693000000
  frame_id: "world"
pose: 
  position: 
    x: 0.0482719056308
    y: -0.00729821249843
    z: 0.42139056325
  orientation: 
    x: 0.0617237650322
    y: -0.0785241005706
    z: -0.0274086596872
    w: 0.994621992434
---
header: 
  seq: 314
  stamp: 
    secs: 793
    nsecs:  74000000
  frame_id: "world"
pose: 
  position: 
    x: 0.0499604567885
    y: 0.00207835854962
    z: 0.40726146102
  orientation: 
    x: 0.0639972882948
    y: -0.0819972420476
    z: -0.0230270092784
    w: 0.994309084858
---
header: 
  seq: 315
  stamp: 
    secs: 793
    nsecs: 446000000
  frame_id: "world"
pose: 
  position: 
    x: 0.0518950112164
    y: -0.00141406536568
    z: 0.435376733541
  orientation: 
    x: 0.061601463037
    y: -0.0800362768309
    z: -0.0294681524329
    w: 0.994450140598
---
header: 
  seq: 316
  stamp: 
    secs: 793
    nsecs: 995000000
  frame_id: "world"
pose: 
  position: 
    x: 0.0473408810794
    y: 0.0152246495709
    z: 0.397202283144
  orientation: 
    x: 0.0700359927544
    y: -0.0756844864165
    z: -0.0281290388108
    w: 0.994271379157
---
header: 
  seq: 317
  stamp: 
    secs: 794
    nsecs: 323000000
  frame_id: "world"
pose: 
  position: 
    x: 0.0473331809044
    y: 0.0150294303894
    z: 0.397694438696
  orientation: 
    x: 0.0701300181567
    y: -0.0756321748956
    z: -0.0283259926697
    w: 0.994263140629
---
header: 
  seq: 318
  stamp: 
    secs: 794
    nsecs: 624000000
  frame_id: "world"
pose: 
  position: 
    x: 0.0473961383104
    y: 0.0140416864306
    z: 0.398819088936
  orientation: 
    x: 0.0706581848595
    y: -0.0755954909249
    z: -0.0291138497369
    w: 0.994205776697
---
header: 
  seq: 319
  stamp: 
    secs: 794
    nsecs: 893000000
  frame_id: "world"
pose: 
  position: 
    x: 0.0465463660657
    y: 0.0136884134263
    z: 0.398818224669
  orientation: 
    x: 0.0710856602306
    y: -0.0758463278173
    z: -0.0315115892557
    w: 0.994083086673
---
header: 
  seq: 320
  stamp: 
    secs: 795
    nsecs: 239000000
  frame_id: "world"
pose: 
  position: 
    x: 0.0464710853994
    y: 0.0131392804906
    z: 0.400624990463
  orientation: 
    x: 0.0712997493244
    y: -0.0757389837617
    z: -0.0320131273063
    w: 0.994059913569
---
header: 
  seq: 321
  stamp: 
    secs: 795
    nsecs: 618000000
  frame_id: "world"
pose: 
  position: 
    x: 0.00437685940415
    y: 0.00834947545081
    z: 0.430186986923
  orientation: 
    x: 0.0816702223088
    y: -0.0595946182987
    z: -0.0427263478521
    w: 0.993958206092
---
header: 
  seq: 322
  stamp: 
    secs: 795
    nsecs: 941000000
  frame_id: "world"
pose: 
  position: 
    x: 0.00766739388928
    y: 0.0109359007329
    z: 0.413942933083
  orientation: 
    x: 0.0794229224624
    y: -0.0567432152578
    z: -0.0416569678672
    w: 0.994352504868
---
header: 
  seq: 323
  stamp: 
    secs: 796
    nsecs: 430000000
  frame_id: "world"
pose: 
  position: 
    x: 0.00717345438898
    y: 0.0120124304667
    z: 0.402608811855
  orientation: 
    x: 0.0788544230862
    y: -0.0525254620105
    z: -0.0513095012364
    w: 0.99417824905
---
header: 
  seq: 324
  stamp: 
    secs: 796
    nsecs: 633000000
  frame_id: "world"
pose: 
  position: 
    x: 0.0138729494065
    y: 0.0142453592271
    z: 0.393274337053
  orientation: 
    x: 0.0829444899318
    y: -0.0600262954225
    z: -0.0543654672253
    w: 0.993257998418
---
header: 
  seq: 325
  stamp: 
    secs: 796
    nsecs: 851000000
  frame_id: "world"
pose: 
  position: 
    x: 0.00367490993813
    y: 0.00728003820404
    z: 0.397493511438
  orientation: 
    x: 0.0804508304862
    y: -0.0605617781117
    z: -0.051441749913
    w: 0.993586272687
---
header: 
  seq: 326
  stamp: 
    secs: 797
    nsecs:  57000000
  frame_id: "world"
pose: 
  position: 
    x: -0.0154471546412
    y: -0.0417778193951
    z: 0.370283007622
  orientation: 
    x: 0.0321366517899
    y: -0.0535990880018
    z: -0.0417595196922
    w: 0.997171257053
---
header: 
  seq: 327
  stamp: 
    secs: 797
    nsecs: 265000000
  frame_id: "world"
pose: 
  position: 
    x: -0.0307042244822
    y: -0.044610593468
    z: 0.381374508142
  orientation: 
    x: 0.0309211503833
    y: -0.0434906860632
    z: -0.0448556212696
    w: 0.997567248823
---
header: 
  seq: 328
  stamp: 
    secs: 797
    nsecs: 583000000
  frame_id: "world"
pose: 
  position: 
    x: -0.0207516737282
    y: -0.0490452237427
    z: 0.386337429285
  orientation: 
    x: 0.0279509573452
    y: -0.0590384452007
    z: -0.0428551583373
    w: 0.99694365005
---
header: 
  seq: 329
  stamp: 
    secs: 797
    nsecs: 923000000
  frame_id: "world"
pose: 
  position: 
    x: -0.0206429604441
    y: -0.0392982289195
    z: 0.399892181158
  orientation: 
    x: 0.0326125493879
    y: -0.0656522405402
    z: -0.0372854676251
    w: 0.996612261032
---
header: 
  seq: 330
  stamp: 
    secs: 798
    nsecs: 344000000
  frame_id: "world"
pose: 
  position: 
    x: -0.00601490866393
    y: -0.0445869341493
    z: 0.456753075123
  orientation: 
    x: 0.0269173567081
    y: -0.091362453014
    z: -0.0337426435297
    w: 0.994881798052
---
header: 
  seq: 331
  stamp: 
    secs: 798
    nsecs: 784000000
  frame_id: "world"
pose: 
  position: 
    x: -0.00637304177508
    y: -0.0359447523952
    z: 0.439307570457
  orientation: 
    x: 0.0318887667203
    y: -0.0995691599807
    z: -0.027943658385
    w: 0.99412687364
---
header: 
  seq: 332
  stamp: 
    secs: 798
    nsecs: 999000000
  frame_id: "world"
pose: 
  position: 
    x: -0.00792336370796
    y: -0.0342507213354
    z: 0.443719208241
  orientation: 
    x: 0.0341946853816
    y: -0.0999840046925
    z: -0.028205057493
    w: 0.994001205748
---
header: 
  seq: 333
  stamp: 
    secs: 799
    nsecs: 200000000
  frame_id: "world"
pose: 
  position: 
    x: -0.00881002377719
    y: -0.0346016213298
    z: 0.446353971958
  orientation: 
    x: 0.0344807422482
    y: -0.100364518637
    z: -0.0285312079211
    w: 0.993943666405
---
header: 
  seq: 334
  stamp: 
    secs: 799
    nsecs: 415000000
  frame_id: "world"
pose: 
  position: 
    x: 0.0148488469422
    y: -0.025680186227
    z: 0.455975413322
  orientation: 
    x: 0.0475303273164
    y: -0.119711764973
    z: -0.0362386854974
    w: 0.991007930839
---
header: 
  seq: 335
  stamp: 
    secs: 799
    nsecs: 616000000
  frame_id: "world"
pose: 
  position: 
    x: -0.000133764930069
    y: -0.0244723502547
    z: 0.447061121464
  orientation: 
    x: 0.0471896422278
    y: -0.112017796592
    z: -0.0297810177579
    w: 0.992138217132
---
header: 
  seq: 336
  stamp: 
    secs: 799
    nsecs: 919000000
  frame_id: "world"
pose: 
  position: 
    x: 0.0137548847124
    y: -0.02024586685
    z: 0.487395316362
  orientation: 
    x: 0.0565262452752
    y: -0.126843015525
    z: -0.0351837189606
    w: 0.989685676833
---
header: 
  seq: 337
  stamp: 
    secs: 800
    nsecs: 252000000
  frame_id: "world"
pose: 
  position: 
    x: 0.0137418415397
    y: -0.0202715080231
    z: 0.487506330013
  orientation: 
    x: 0.0565390059959
    y: -0.126825793377
    z: -0.0351809185392
    w: 0.989687254594
---
header: 
  seq: 338
  stamp: 
    secs: 800
    nsecs: 549000000
  frame_id: "world"
pose: 
  position: 
    x: -0.00217595463619
    y: -0.0156857930124
    z: 0.518867969513
  orientation: 
    x: 0.0648614650715
    y: -0.127786896891
    z: -0.0250454138809
    w: 0.989361524709
---
header: 
  seq: 339
  stamp: 
    secs: 800
    nsecs: 933000000
  frame_id: "world"
pose: 
  position: 
    x: -0.00604635011405
    y: -0.0167234893888
    z: 0.531465709209
  orientation: 
    x: 0.0624786453838
    y: -0.125451972027
    z: -0.0269969792018
    w: 0.989762286966
---
header: 
  seq: 340
  stamp: 
    secs: 801
    nsecs: 302000000
  frame_id: "world"
pose: 
  position: 
    x: -0.0105115771294
    y: -0.0188733208925
    z: 0.54056507349
  orientation: 
    x: 0.0619534817579
    y: -0.127540529744
    z: -0.0249831752889
    w: 0.989581234828
---
header: 
  seq: 341
  stamp: 
    secs: 801
    nsecs: 519000000
  frame_id: "world"
pose: 
  position: 
    x: -0.0113412123173
    y: -0.0215032938868
    z: 0.543433308601
  orientation: 
    x: 0.0630278789804
    y: -0.128297071343
    z: -0.0278949281196
    w: 0.989337768884
---
header: 
  seq: 342
  stamp: 
    secs: 801
    nsecs: 717000000
  frame_id: "world"
pose: 
  position: 
    x: -0.00210849940777
    y: -0.0153786437586
    z: 0.520992994308
  orientation: 
    x: 0.0632909966415
    y: -0.137723889232
    z: -0.0256189808826
    w: 0.988114390087
---
header: 
  seq: 343
  stamp: 
    secs: 801
    nsecs: 929000000
  frame_id: "world"
pose: 
  position: 
    x: -0.00417262688279
    y: -0.0198246035725
    z: 0.525816857815
  orientation: 
    x: 0.0571149816376
    y: -0.141689659462
    z: -0.018587999216
    w: 0.988087245925
---
header: 
  seq: 344
  stamp: 
    secs: 802
    nsecs: 146000000
  frame_id: "world"
pose: 
  position: 
    x: -0.00718696601689
    y: -0.0104351807386
    z: 0.563304543495
  orientation: 
    x: 0.0697030495344
    y: -0.148237108284
    z: -0.0220850630253
    w: 0.986245149344
---
header: 
  seq: 345
  stamp: 
    secs: 802
    nsecs: 550000000
  frame_id: "world"
pose: 
  position: 
    x: 0.00375192333013
    y: -0.00800835341215
    z: 0.560080349445
  orientation: 
    x: 0.072125385677
    y: -0.162838836297
    z: -0.0172621708781
    w: 0.983861504273
---
header: 
  seq: 346
  stamp: 
    secs: 802
    nsecs: 834000000
  frame_id: "world"
pose: 
  position: 
    x: -0.0048129321076
    y: -0.0145993093029
    z: 0.553996741772
  orientation: 
    x: 0.0689586755674
    y: -0.151543225898
    z: -0.0188387497111
    w: 0.985862289196
---
header: 
  seq: 347
  stamp: 
    secs: 803
    nsecs: 118000000
  frame_id: "world"
pose: 
  position: 
    x: 0.00647442787886
    y: -0.00832783430815
    z: 0.576240777969
  orientation: 
    x: 0.070771519176
    y: -0.169327667578
    z: -0.0150879129449
    w: 0.982899734433
---
header: 
  seq: 348
  stamp: 
    secs: 803
    nsecs: 609000000
  frame_id: "world"
pose: 
  position: 
    x: 0.00542572047561
    y: -0.00890981592238
    z: 0.57881462574
  orientation: 
    x: 0.0710753115278
    y: -0.169538807831
    z: -0.0150451880995
    w: 0.982842070246
---
header: 
  seq: 349
  stamp: 
    secs: 803
    nsecs: 845000000
  frame_id: "world"
pose: 
  position: 
    x: 0.0146198626608
    y: -0.00139630236663
    z: 0.583776056767
  orientation: 
    x: 0.0757780817616
    y: -0.183289661395
    z: -0.0192087496925
    w: 0.979945715989
---
header: 
  seq: 350
  stamp: 
    secs: 804
    nsecs:  66000000
  frame_id: "world"
pose: 
  position: 
    x: 0.0170233920217
    y: -0.00166223826818
    z: 0.581930994987
  orientation: 
    x: 0.0759189106979
    y: -0.181882733821
    z: -0.0178498415716
    w: 0.98022261415
---
header: 
  seq: 351
  stamp: 
    secs: 804
    nsecs: 275000000
  frame_id: "world"
pose: 
  position: 
    x: -0.0143486782908
    y: -0.0164855457842
    z: 0.54930639267
  orientation: 
    x: 0.0579368859614
    y: -0.143866563274
    z: -0.0159654201391
    w: 0.987770638649
---
header: 
  seq: 352
  stamp: 
    secs: 804
    nsecs: 482000000
  frame_id: "world"
pose: 
  position: 
    x: -0.0170566700399
    y: -0.011254475452
    z: 0.574036180973
  orientation: 
    x: 0.068646712595
    y: -0.158779200431
    z: -0.020942555284
    w: 0.984702088826
---
header: 
  seq: 353
  stamp: 
    secs: 804
    nsecs: 715000000
  frame_id: "world"
pose: 
  position: 
    x: -0.0167814828455
    y: -0.0116831855848
    z: 0.577594816685
  orientation: 
    x: 0.0678620402067
    y: -0.159647670809
    z: -0.0195286252199
    w: 0.984645112465
---
header: 
  seq: 354
  stamp: 
    secs: 805
    nsecs:  38000000
  frame_id: "world"
pose: 
  position: 
    x: -0.0215992741287
    y: -0.0132001917809
    z: 0.60000038147
  orientation: 
    x: 0.0659546478297
    y: -0.160617664143
    z: -0.0147665645639
    w: 0.984699902999
---
header: 
  seq: 355
  stamp: 
    secs: 805
    nsecs: 485000000
  frame_id: "world"
pose: 
  position: 
    x: -0.058203086257
    y: -0.0298221912235
    z: 0.508942067623
  orientation: 
    x: 0.04237017521
    y: -0.112827480378
    z: -0.0240257926469
    w: 0.992420016531
---
header: 
  seq: 356
  stamp: 
    secs: 805
    nsecs: 959000000
  frame_id: "world"
pose: 
  position: 
    x: -0.0588748753071
    y: -0.0300884153694
    z: 0.516567647457
  orientation: 
    x: 0.0387882484977
    y: -0.121983972933
    z: -0.0225918088789
    w: 0.991516511359
---
header: 
  seq: 357
  stamp: 
    secs: 806
    nsecs: 159000000
  frame_id: "world"
pose: 
  position: 
    x: -0.0389760583639
    y: -0.0218736641109
    z: 0.482137590647
  orientation: 
    x: 0.0363156382889
    y: -0.138739569894
    z: -0.0225901341168
    w: 0.989404968656
---
header: 
  seq: 358
  stamp: 
    secs: 806
    nsecs: 354000000
  frame_id: "world"
pose: 
  position: 
    x: -0.0254378132522
    y: -0.0186440758407
    z: 0.483612477779
  orientation: 
    x: 0.0403863381967
    y: -0.14899505826
    z: -0.0251097216024
    w: 0.987693737037
---
header: 
  seq: 359
  stamp: 
    secs: 806
    nsecs: 549000000
  frame_id: "world"
pose: 
  position: 
    x: -0.0169155616313
    y: -0.0150380600244
    z: 0.472711592913
  orientation: 
    x: 0.0442226232376
    y: -0.154121756999
    z: -0.0253509339678
    w: 0.986736121646
---
header: 
  seq: 360
  stamp: 
    secs: 806
    nsecs: 750000000
  frame_id: "world"
pose: 
  position: 
    x: -0.015323497355
    y: -0.0153225017712
    z: 0.470364749432
  orientation: 
    x: 0.0444397025235
    y: -0.15436938161
    z: -0.0313782873259
    w: 0.986514373917
---
header: 
  seq: 361
  stamp: 
    secs: 807
    nsecs:  13000000
  frame_id: "world"
pose: 
  position: 
    x: -0.00506120221689
    y: -0.0115350587294
    z: 0.462660312653
  orientation: 
    x: 0.0467200581517
    y: -0.158257041126
    z: -0.032558416511
    w: 0.985754479886
---
header: 
  seq: 362
  stamp: 
    secs: 807
    nsecs: 336000000
  frame_id: "world"
pose: 
  position: 
    x: -0.0225021541119
    y: -0.0217651091516
    z: 0.472865104675
  orientation: 
    x: 0.0439377710678
    y: -0.154777149238
    z: -0.0422253371303
    w: 0.986068216328
---
header: 
  seq: 363
  stamp: 
    secs: 807
    nsecs: 726000000
  frame_id: "world"
pose: 
  position: 
    x: -0.0227085445076
    y: -0.0227962657809
    z: 0.462818205357
  orientation: 
    x: 0.0476877023117
    y: -0.153603200434
    z: -0.0526649878298
    w: 0.985575131039
---
header: 
  seq: 364
  stamp: 
    secs: 808
    nsecs: 183000000
  frame_id: "world"
pose: 
  position: 
    x: -0.0108582414687
    y: -0.0147086177021
    z: 0.502171278
  orientation: 
    x: 0.0630192544123
    y: -0.172027754803
    z: -0.0623831275552
    w: 0.981092946946
---
header: 
  seq: 365
  stamp: 
    secs: 808
    nsecs: 430000000
  frame_id: "world"
pose: 
  position: 
    x: -0.0161126218736
    y: -0.0183176323771
    z: 0.499528050423
  orientation: 
    x: 0.0650347750776
    y: -0.176595429527
    z: -0.0711735615767
    w: 0.979550333793
---
header: 
  seq: 366
  stamp: 
    secs: 808
    nsecs: 640000000
  frame_id: "world"
pose: 
  position: 
    x: -0.0187864899635
    y: -0.0187648274004
    z: 0.5017593503
  orientation: 
    x: 0.0643426023558
    y: -0.179039938202
    z: -0.0727671972584
    w: 0.979035068347
---
header: 
  seq: 367
  stamp: 
    secs: 808
    nsecs: 834000000
  frame_id: "world"
pose: 
  position: 
    x: -0.0213401503861
    y: -0.0246332548559
    z: 0.542060434818
  orientation: 
    x: 0.0683387986378
    y: -0.197222485717
    z: -0.0670287035486
    w: 0.975674255389
---
header: 
  seq: 368
  stamp: 
    secs: 809
