header: 
  seq: 71764
  stamp: 
    secs: 22285
    nsecs: 178000000
  frame_id: "map"
pose: 
  position: 
    x: 6.02686708656
    y: -0.995481146224
    z: 0.0399940583497
  orientation: 
    x: -2.97027909961e-05
    y: -3.11398673018e-07
    z: 0.999944283411
    w: -0.0105560025833
---
header: 
  seq: 71765
  stamp: 
    secs: 22285
    nsecs: 188000000
  frame_id: "map"
pose: 
  position: 
    x: 6.02686946248
    y: -0.995481095974
    z: 0.0399999991374
  orientation: 
    x: 7.39163192179e-12
    y: 1.0664891154e-11
    z: 0.999944283864
    w: -0.0105560014921
---
header: 
  seq: 71766
  stamp: 
    secs: 22285
    nsecs: 198000000
  frame_id: "map"
pose: 
  position: 
    x: 6.02687110107
    y: -0.995481061569
    z: 0.0399961019596
  orientation: 
    x: 2.04856117245e-05
    y: 2.11783603742e-07
    z: 0.999944283662
    w: -0.0105560007248
---
header: 
  seq: 71767
  stamp: 
    secs: 22285
    nsecs: 208000000
  frame_id: "map"
pose: 
  position: 
    x: 6.02686708597
    y: -0.995481145175
    z: 0.0399940583497
  orientation: 
    x: -2.97027909971e-05
    y: -3.11398585668e-07
    z: 0.999944283442
    w: -0.0105559996424
---
header: 
  seq: 71768
  stamp: 
    secs: 22285
    nsecs: 218000000
  frame_id: "map"
pose: 
  position: 
    x: 6.02686946189
    y: -0.995481094925
    z: 0.0399999991374
  orientation: 
    x: 7.39163646528e-12
    y: 1.0664888335e-11
    z: 0.999944283895
    w: -0.0105559985512
---
header: 
  seq: 71769
  stamp: 
    secs: 22285
    nsecs: 228000000
  frame_id: "map"
pose: 
  position: 
    x: 6.02687110048
    y: -0.99548106052
    z: 0.0399961019596
  orientation: 
    x: 2.04856117251e-05
    y: 2.11783543546e-07
    z: 0.999944283693
    w: -0.0105559977839
---
header: 
  seq: 71770
  stamp: 
    secs: 22285
    nsecs: 238000000
  frame_id: "map"
pose: 
  position: 
    x: 6.02686708538
    y: -0.995481144127
    z: 0.0399940583497
  orientation: 
    x: -2.9702790998e-05
    y: -3.11398498335e-07
    z: 0.999944283473
    w: -0.0105559967016
---
header: 
  seq: 71771
  stamp: 
    secs: 22285
    nsecs: 248000000
  frame_id: "map"
pose: 
  position: 
    x: 6.0268694613
    y: -0.995481093876
    z: 0.0399999991374
  orientation: 
    x: 7.39163122722e-12
    y: 1.06648826875e-11
    z: 0.999944283926
    w: -0.0105559956104
---
header: 
  seq: 71772
  stamp: 
    secs: 22285
    nsecs: 258000000
  frame_id: "map"
pose: 
  position: 
    x: 6.02687109988
    y: -0.995481059472
    z: 0.0399961019596
  orientation: 
    x: 2.04856117257e-05
    y: 2.11783483309e-07
    z: 0.999944283724
    w: -0.0105559948431
---
header: 
  seq: 71773
  stamp: 
    secs: 22285
    nsecs: 268000000
  frame_id: "map"
pose: 
  position: 
    x: 6.02686708478
    y: -0.995481143078
    z: 0.0399940583497
  orientation: 
    x: -2.97027909989e-05
    y: -3.11398410989e-07
    z: 0.999944283505
    w: -0.0105559937607
---
header: 
  seq: 71774
  stamp: 
    secs: 22285
    nsecs: 278000000
  frame_id: "map"
pose: 
  position: 
    x: 6.0268694607
    y: -0.995481092828
    z: 0.0399999991374
  orientation: 
    x: 7.39162989908e-12
    y: 1.06648879138e-11
    z: 0.999944283957
    w: -0.0105559926695
---
header: 
  seq: 71775
  stamp: 
    secs: 22285
    nsecs: 288000000
  frame_id: "map"
pose: 
  position: 
    x: 6.02687109929
    y: -0.995481058423
    z: 0.0399961019596
  orientation: 
    x: 2.04856117263e-05
    y: 2.11783423081e-07
    z: 0.999944283755
    w: -0.0105559919022
---
header: 
  seq: 71776
  stamp: 
    secs: 22285
    nsecs: 298000000
  frame_id: "map"
pose: 
  position: 
    x: 6.02686708419
    y: -0.99548114203
    z: 0.0399940583497
  orientation: 
    x: -2.97027909999e-05
    y: -3.11398323643e-07
    z: 0.999944283536
    w: -0.0105559908199
---
header: 
  seq: 71777
  stamp: 
    secs: 22285
    nsecs: 308000000
  frame_id: "map"
pose: 
  position: 
    x: 6.02686946011
    y: -0.995481091779
    z: 0.0399999991374
  orientation: 
    x: 7.39163159653e-12
    y: 1.06648950365e-11
    z: 0.999944283988
    w: -0.0105559897287
---
header: 
  seq: 71778
  stamp: 
    secs: 22285
    nsecs: 318000000
  frame_id: "map"
pose: 
  position: 
    x: 6.0268710987
    y: -0.995481057375
    z: 0.0399961019596
  orientation: 
    x: 2.04856117269e-05
    y: 2.11783362865e-07
    z: 0.999944283787
    w: -0.0105559889614
---
header: 
  seq: 71779
  stamp: 
    secs: 22285
    nsecs: 328000000
  frame_id: "map"
pose: 
  position: 
    x: 6.0268670836
    y: -0.995481140981
    z: 0.0399940583497
  orientation: 
    x: -2.97027910008e-05
    y: -3.11398236304e-07
    z: 0.999944283567
    w: -0.010555987879
---
header: 
  seq: 71780
  stamp: 
    secs: 22285
    nsecs: 338000000
  frame_id: "map"
pose: 
  position: 
    x: 6.02686945952
    y: -0.995481090731
    z: 0.0399999991374
  orientation: 
    x: 7.39164000587e-12
    y: 1.06648894475e-11
    z: 0.999944284019
    w: -0.0105559867878
---
header: 
  seq: 71781
  stamp: 
    secs: 22285
    nsecs: 348000000
  frame_id: "map"
pose: 
  position: 
    x: 6.0268710981
    y: -0.995481056326
    z: 0.0399961019596
  orientation: 
    x: 2.04856117275e-05
    y: 2.11783302656e-07
    z: 0.999944283818
    w: -0.0105559860205
---
header: 
  seq: 71782
  stamp: 
    secs: 22285
    nsecs: 358000000
  frame_id: "map"
pose: 
  position: 
    x: 6.026867083
    y: -0.995481139932
    z: 0.0399940583497
  orientation: 
    x: -2.97027910018e-05
    y: -3.11398148963e-07
    z: 0.999944283598
    w: -0.0105559849382
---
header: 
  seq: 71783
  stamp: 
    secs: 22285
    nsecs: 368000000
  frame_id: "map"
pose: 
  position: 
    x: 6.02686945892
    y: -0.995481089682
    z: 0.0399999991374
  orientation: 
    x: 7.39162051395e-12
    y: 1.06648903832e-11
    z: 0.99994428405
    w: -0.010555983847
---
header: 
  seq: 71784
  stamp: 
    secs: 22285
    nsecs: 378000000
  frame_id: "map"
pose: 
  position: 
    x: 6.02687109751
    y: -0.995481055278
    z: 0.0399961019596
  orientation: 
    x: 2.04856117282e-05
    y: 2.11783242435e-07
    z: 0.999944283849
    w: -0.0105559830796
---
header: 
  seq: 71785
  stamp: 
    secs: 22285
    nsecs: 388000000
  frame_id: "map"
pose: 
  position: 
    x: 6.02686708241
    y: -0.995481138884
    z: 0.0399940583497
  orientation: 
    x: -2.97027910027e-05
    y: -3.11398061606e-07
    z: 0.999944283629
    w: -0.0105559819973
---
header: 
  seq: 71786
  stamp: 
    secs: 22285
    nsecs: 398000000
  frame_id: "map"
pose: 
  position: 
    x: 6.02686945833
    y: -0.995481088634
    z: 0.0399999991374
  orientation: 
    x: 7.39164711417e-12
    y: 1.0664891492e-11
    z: 0.999944284081
    w: -0.0105559809061
---
header: 
  seq: 71787
  stamp: 
    secs: 22285
    nsecs: 408000000
  frame_id: "map"
pose: 
  position: 
    x: 6.02687109692
    y: -0.995481054229
    z: 0.0399961019596
  orientation: 
    x: 2.04856117288e-05
    y: 2.11783182208e-07
    z: 0.99994428388
    w: -0.0105559801388
---
header: 
  seq: 71788
  stamp: 
    secs: 22285
    nsecs: 418000000
  frame_id: "map"
pose: 
  position: 
    x: 6.02686708182
    y: -0.995481137835
    z: 0.0399940583497
  orientation: 
    x: -2.97027910037e-05
    y: -3.11397974268e-07
    z: 0.99994428366
    w: -0.0105559790565
---
header: 
  seq: 71789
  stamp: 
    secs: 22285
    nsecs: 428000000
  frame_id: "map"
pose: 
  position: 
    x: 6.02686945774
    y: -0.995481087585
    z: 0.0399999991374
  orientation: 
    x: 7.39164527442e-12
    y: 1.06648885234e-11
    z: 0.999944284112
    w: -0.0105559779653
---
header: 
  seq: 71790
  stamp: 
    secs: 22285
    nsecs: 438000000
  frame_id: "map"
pose: 
  position: 
    x: 6.02687109633
    y: -0.99548105318
    z: 0.0399961019596
  orientation: 
    x: 2.04856117294e-05
    y: 2.11783121999e-07
    z: 0.999944283911
    w: -0.0105559771979
---
header: 
  seq: 71791
  stamp: 
    secs: 22285
    nsecs: 448000000
  frame_id: "map"
pose: 
  position: 
    x: 6.02686708123
    y: -0.995481136787
    z: 0.0399940583497
  orientation: 
    x: -2.97027910047e-05
    y: -3.11397886933e-07
    z: 0.999944283691
    w: -0.0105559761156
---
header: 
  seq: 71792
  stamp: 
    secs: 22285
    nsecs: 458000000
  frame_id: "map"
pose: 
  position: 
    x: 6.02686945715
    y: -0.995481086536
    z: 0.0399999991374
  orientation: 
    x: 7.39163393095e-12
    y: 1.0664892016e-11
    z: 0.999944284144
    w: -0.0105559750244
---
header: 
  seq: 71793
  stamp: 
    secs: 22285
    nsecs: 468000000
  frame_id: "map"
pose: 
  position: 
    x: 6.02687109573
    y: -0.995481052132
    z: 0.0399961019596
  orientation: 
    x: 2.048561173e-05
    y: 2.11783061778e-07
    z: 0.999944283942
    w: -0.0105559742571
---
header: 
  seq: 71794
  stamp: 
    secs: 22285
    nsecs: 478000000
  frame_id: "map"
pose: 
  position: 
    x: 6.02686708063
    y: -0.995481135738
    z: 0.0399940583497
  orientation: 
    x: -2.97027910056e-05
    y: -3.11397799587e-07
    z: 0.999944283722
    w: -0.0105559731748
---
header: 
  seq: 71795
  stamp: 
    secs: 22285
    nsecs: 488000000
  frame_id: "map"
pose: 
  position: 
    x: 6.02686945655
    y: -0.995481085488
    z: 0.0399999991374
  orientation: 
    x: 7.39163907753e-12
    y: 1.06648932407e-11
    z: 0.999944284175
    w: -0.0105559720836
---
header: 
  seq: 71796
  stamp: 
    secs: 22285
    nsecs: 498000000
  frame_id: "map"
pose: 
  position: 
    x: 6.02687109514
    y: -0.995481051083
    z: 0.0399961019596
  orientation: 
    x: 2.04856117306e-05
    y: 2.11783001572e-07
    z: 0.999944283973
    w: -0.0105559713162
---
header: 
  seq: 71797
  stamp: 
    secs: 22285
    nsecs: 508000000
  frame_id: "map"
pose: 
  position: 
    x: 6.02686708004
    y: -0.995481134689
    z: 0.0399940583497
  orientation: 
    x: -2.97027910065e-05
    y: -3.1139771225e-07
    z: 0.999944283753
    w: -0.0105559702339
---
header: 
  seq: 71798
  stamp: 
    secs: 22285
    nsecs: 518000000
  frame_id: "map"
pose: 
  position: 
    x: 6.02686945596
    y: -0.995481084439
    z: 0.0399999991374
  orientation: 
    x: 7.39162629072e-12
    y: 1.06648948972e-11
    z: 0.999944284206
    w: -0.0105559691427
---
header: 
  seq: 71799
  stamp: 
    secs: 22285
    nsecs: 528000000
  frame_id: "map"
pose: 
  position: 
    x: 6.02687109455
    y: -0.995481050035
    z: 0.0399961019596
  orientation: 
    x: 2.04856117313e-05
    y: 2.11782941333e-07
    z: 0.999944284004
    w: -0.0105559683754
---
header: 
  seq: 71800
  stamp: 
    secs: 22285
    nsecs: 538000000
  frame_id: "map"
pose: 
  position: 
    x: 6.02686707945
    y: -0.995481133641
    z: 0.0399940583497
  orientation: 
    x: -2.97027910074e-05
    y: -3.11397624905e-07
    z: 0.999944283784
    w: -0.0105559672931
---
header: 
  seq: 71801
  stamp: 
    secs: 22285
    nsecs: 548000000
  frame_id: "map"
pose: 
  position: 
    x: 6.02686945537
    y: -0.995481083391
    z: 0.0399999991374
  orientation: 
    x: 7.39162397323e-12
    y: 1.06648950895e-11
    z: 0.999944284237
    w: -0.0105559662019
---
header: 
  seq: 71802
  stamp: 
    secs: 22285
    nsecs: 558000000
  frame_id: "map"
pose: 
  position: 
    x: 6.02687109396
    y: -0.995481048986
    z: 0.0399961019596
  orientation: 
    x: 2.04856117319e-05
    y: 2.11782881117e-07
    z: 0.999944284035
    w: -0.0105559654345
---
header: 
  seq: 71803
  stamp: 
    secs: 22285
    nsecs: 568000000
  frame_id: "map"
pose: 
  position: 
    x: 6.02686707885
    y: -0.995481132592
    z: 0.0399940583497
  orientation: 
    x: -2.97027910084e-05
    y: -3.11397537568e-07
    z: 0.999944283815
    w: -0.0105559643522
---
header: 
  seq: 71804
  stamp: 
    secs: 22285
    nsecs: 578000000
  frame_id: "map"
pose: 
  position: 
    x: 6.02686945477
    y: -0.995481082342
    z: 0.0399999991374
  orientation: 
    x: 7.39162927227e-12
    y: 1.06648894249e-11
    z: 0.999944284268
    w: -0.010555963261
---
header: 
  seq: 71805
  stamp: 
    secs: 22285
    nsecs: 588000000
  frame_id: "map"
pose: 
  position: 
    x: 6.02687109336
    y: -0.995481047938
    z: 0.0399961019596
  orientation: 
    x: 2.04856117325e-05
    y: 2.117828209e-07
    z: 0.999944284066
    w: -0.0105559624937
---
header: 
  seq: 71806
  stamp: 
    secs: 22285
    nsecs: 598000000
  frame_id: "map"
pose: 
  position: 
    x: 6.02686707826
    y: -0.995481131544
    z: 0.0399940583497
  orientation: 
    x: -2.97027910094e-05
    y: -3.11397450223e-07
    z: 0.999944283846
    w: -0.0105559614114
---
header: 
  seq: 71807
  stamp: 
    secs: 22285
    nsecs: 608000000
  frame_id: "map"
pose: 
  position: 
    x: 6.02686945418
    y: -0.995481081294
    z: 0.0399999991374
  orientation: 
    x: 7.39163597738e-12
    y: 1.06648979798e-11
    z: 0.999944284299
    w: -0.0105559603202
---
header: 
  seq: 71808
  stamp: 
    secs: 22285
    nsecs: 618000000
  frame_id: "map"
pose: 
  position: 
    x: 6.02687109277
    y: -0.995481046889
    z: 0.0399961019596
  orientation: 
    x: 2.04856117331e-05
    y: 2.11782760668e-07
    z: 0.999944284097
    w: -0.0105559595528
---
header: 
  seq: 71809
  stamp: 
    secs: 22285
    nsecs: 628000000
  frame_id: "map"
pose: 
  position: 
    x: 6.02686707767
    y: -0.995481130495
    z: 0.0399940583497
  orientation: 
    x: -2.97027910103e-05
    y: -3.11397362878e-07
    z: 0.999944283877
    w: -0.0105559584705
---
header: 
  seq: 71810
  stamp: 
    secs: 22285
    nsecs: 638000000
  frame_id: "map"
pose: 
  position: 
    x: 6.02686945359
    y: -0.995481080245
    z: 0.0399999991374
  orientation: 
    x: 7.39163646189e-12
    y: 1.06648938477e-11
    z: 0.99994428433
    w: -0.0105559573793
---
header: 
  seq: 71811
  stamp: 
    secs: 22285
    nsecs: 648000000
  frame_id: "map"
pose: 
  position: 
    x: 6.02687109218
    y: -0.995481045841
    z: 0.0399961019596
  orientation: 
    x: 2.04856117337e-05
    y: 2.11782700453e-07
    z: 0.999944284128
    w: -0.010555956612
---
header: 
  seq: 71812
  stamp: 
    secs: 22285
    nsecs: 658000000
  frame_id: "map"
pose: 
  position: 
    x: 6.02686707708
    y: -0.995481129447
    z: 0.0399940583497
  orientation: 
    x: -2.97027910113e-05
    y: -3.11397275535e-07
    z: 0.999944283908
    w: -0.0105559555297
---
header: 
  seq: 71813
  stamp: 
    secs: 22285
    nsecs: 668000000
  frame_id: "map"
pose: 
  position: 
    x: 6.026869453
    y: -0.995481079197
    z: 0.0399999991374
  orientation: 
    x: 7.39163552337e-12
    y: 1.06648921959e-11
    z: 0.999944284361
    w: -0.0105559544385
---
header: 
  seq: 71814
  stamp: 
    secs: 22285
    nsecs: 678000000
  frame_id: "map"
pose: 
  position: 
    x: 6.02687109158
    y: -0.995481044792
    z: 0.0399961019596
  orientation: 
    x: 2.04856117343e-05
    y: 2.11782640245e-07
    z: 0.999944284159
    w: -0.0105559536711
---
header: 
  seq: 71815
  stamp: 
    secs: 22285
    nsecs: 688000000
  frame_id: "map"
pose: 
  position: 
    x: 6.02686707648
    y: -0.995481128398
    z: 0.0399940583497
  orientation: 
    x: -2.97027910122e-05
    y: -3.11397188182e-07
    z: 0.999944283939
    w: -0.0105559525888
---
header: 
  seq: 71816
  stamp: 
    secs: 22285
    nsecs: 698000000
  frame_id: "map"
pose: 
  position: 
    x: 6.0268694524
    y: -0.995481078148
    z: 0.0399999991374
  orientation: 
    x: 7.39162082566e-12
    y: 1.0664894709e-11
    z: 0.999944284392
    w: -0.0105559514976
---
header: 
  seq: 71817
  stamp: 
    secs: 22285
    nsecs: 708000000
  frame_id: "map"
pose: 
  position: 
    x: 6.02687109099
    y: -0.995481043743
    z: 0.0399961019596
  orientation: 
    x: 2.0485611735e-05
    y: 2.11782580016e-07
    z: 0.99994428419
    w: -0.0105559507303
---
header: 
  seq: 71818
  stamp: 
    secs: 22285
    nsecs: 718000000
  frame_id: "map"
pose: 
  position: 
    x: 6.02686707589
    y: -0.995481127349
    z: 0.0399940583497
  orientation: 
    x: -2.97027910132e-05
    y: -3.11397100842e-07
    z: 0.99994428397
    w: -0.010555949648
---
header: 
  seq: 71819
  stamp: 
    secs: 22285
    nsecs: 728000000
  frame_id: "map"
pose: 
  position: 
    x: 6.02686945181
    y: -0.995481077099
    z: 0.0399999991374
  orientation: 
    x: 7.39164159491e-12
    y: 1.06648918892e-11
    z: 0.999944284423
    w: -0.0105559485568
---
header: 
  seq: 71820
  stamp: 
    secs: 22285
    nsecs: 738000000
  frame_id: "map"
pose: 
  position: 
    x: 6.0268710904
    y: -0.995481042695
    z: 0.0399961019596
  orientation: 
    x: 2.04856117356e-05
    y: 2.1178251979e-07
    z: 0.999944284221
    w: -0.0105559477894
---
header: 
  seq: 71821
  stamp: 
    secs: 22285
    nsecs: 748000000
  frame_id: "map"
pose: 
  position: 
    x: 6.0268670753
    y: -0.995481126301
    z: 0.0399940583497
  orientation: 
    x: -2.97027910141e-05
    y: -3.11397013502e-07
    z: 0.999944284001
    w: -0.0105559467071
---
header: 
  seq: 71822
  stamp: 
    secs: 22285
    nsecs: 758000000
  frame_id: "map"
pose: 
  position: 
    x: 6.02686945122
    y: -0.995481076051
    z: 0.0399999991374
  orientation: 
    x: 7.39164493222e-12
    y: 1.0664893875e-11
    z: 0.999944284454
    w: -0.0105559456159
---
header: 
  seq: 71823
  stamp: 
    secs: 22285
    nsecs: 768000000
  frame_id: "map"
pose: 
  position: 
    x: 6.02687108981
    y: -0.995481041646
    z: 0.0399961019596
  orientation: 
    x: 2.04856117362e-05
    y: 2.11782459577e-07
    z: 0.999944284252
    w: -0.0105559448486
---
header: 
  seq: 71824
  stamp: 
    secs: 22285
    nsecs: 778000000
  frame_id: "map"
pose: 
  position: 
    x: 6.0268670747
    y: -0.995481125252
    z: 0.0399940583497
  orientation: 
    x: -2.97027910151e-05
    y: -3.11396926171e-07
    z: 0.999944284032
    w: -0.0105559437663
---
header: 
  seq: 71825
  stamp: 
    secs: 22285
    nsecs: 788000000
  frame_id: "map"
pose: 
  position: 
    x: 6.02686945062
    y: -0.995481075002
    z: 0.0399999991374
  orientation: 
    x: 7.39163211153e-12
    y: 1.06648931363e-11
    z: 0.999944284485
    w: -0.0105559426751
---
header: 
  seq: 71826
  stamp: 
    secs: 22285
    nsecs: 798000000
  frame_id: "map"
pose: 
  position: 
    x: 6.02687108921
    y: -0.995481040598
    z: 0.0399961019596
  orientation: 
    x: 2.04856117368e-05
    y: 2.11782399355e-07
    z: 0.999944284283
    w: -0.0105559419077
---
header: 
  seq: 71827
  stamp: 
    secs: 22285
    nsecs: 808000000
  frame_id: "map"
pose: 
  position: 
    x: 6.02686707411
    y: -0.995481124204
    z: 0.0399940583497
  orientation: 
    x: -2.9702791016e-05
    y: -3.11396838824e-07
    z: 0.999944284063
    w: -0.0105559408254
---
header: 
  seq: 71828
  stamp: 
    secs: 22285
    nsecs: 818000000
  frame_id: "map"
pose: 
  position: 
    x: 6.02686945003
    y: -0.995481073954
    z: 0.0399999991374
  orientation: 
    x: 7.39163039713e-12
    y: 1.06648904647e-11
    z: 0.999944284516
    w: -0.0105559397342
---
header: 
  seq: 71829
  stamp: 
    secs: 22285
    nsecs: 828000000
  frame_id: "map"
pose: 
  position: 
    x: 6.02687108862
    y: -0.995481039549
    z: 0.0399961019596
  orientation: 
    x: 2.04856117374e-05
    y: 2.11782339137e-07
    z: 0.999944284314
    w: -0.0105559389669
---
header: 
  seq: 71830
  stamp: 
    secs: 22285
    nsecs: 838000000
  frame_id: "map"
pose: 
  position: 
    x: 6.02686707352
    y: -0.995481123155
    z: 0.0399940583497
  orientation: 
    x: -2.97027910169e-05
    y: -3.11396751479e-07
    z: 0.999944284094
    w: -0.0105559378846
---
header: 
  seq: 71831
  stamp: 
    secs: 22285
    nsecs: 848000000
  frame_id: "map"
pose: 
  position: 
    x: 6.02686944944
    y: -0.995481072905
    z: 0.0399999991374
  orientation: 
    x: 7.39164207941e-12
    y: 1.06648943001e-11
    z: 0.999944284547
    w: -0.0105559367933
---
header: 
  seq: 71832
  stamp: 
    secs: 22285
    nsecs: 858000000
  frame_id: "map"
pose: 
  position: 
    x: 6.02687108803
    y: -0.995481038501
    z: 0.0399961019596
  orientation: 
    x: 2.04856117381e-05
    y: 2.11782278929e-07
    z: 0.999944284345
    w: -0.010555936026
---
header: 
  seq: 71833
  stamp: 
    secs: 22285
    nsecs: 868000000
  frame_id: "map"
pose: 
  position: 
    x: 6.02686707293
    y: -0.995481122106
    z: 0.0399940583497
  orientation: 
    x: -2.97027910179e-05
    y: -3.1139666414e-07
    z: 0.999944284125
    w: -0.0105559349437
---
header: 
  seq: 71834
  stamp: 
    secs: 22285
    nsecs: 878000000
  frame_id: "map"
pose: 
  position: 
    x: 6.02686944885
    y: -0.995481071857
    z: 0.0399999991374
  orientation: 
    x: 7.39162139825e-12
    y: 1.0664895777e-11
    z: 0.999944284578
    w: -0.0105559338525
---
header: 
  seq: 71835
  stamp: 
    secs: 22285
    nsecs: 888000000
  frame_id: "map"
pose: 
  position: 
    x: 6.02687108743
    y: -0.995481037452
    z: 0.0399961019596
  orientation: 
    x: 2.04856117387e-05
    y: 2.1178221869e-07
    z: 0.999944284376
    w: -0.0105559330852
---
header: 
  seq: 71836
  stamp: 
    secs: 22285
    nsecs: 898000000
  frame_id: "map"
pose: 
  position: 
    x: 6.02686707233
    y: -0.995481121058
    z: 0.0399940583497
  orientation: 
    x: -2.97027910188e-05
    y: -3.11396576806e-07
    z: 0.999944284156
    w: -0.0105559320028
---
header: 
  seq: 71837
  stamp: 
    secs: 22285
    nsecs: 908000000
  frame_id: "map"
pose: 
  position: 
    x: 6.02686944825
    y: -0.995481070808
    z: 0.0399999991374
  orientation: 
    x: 7.39162822534e-12
    y: 1.06648965311e-11
    z: 0.999944284609
    w: -0.0105559309116
---
header: 
  seq: 71838
  stamp: 
    secs: 22285
    nsecs: 918000000
  frame_id: "map"
pose: 
  position: 
    x: 6.02687108684
    y: -0.995481036404
    z: 0.0399961019596
  orientation: 
    x: 2.04856117393e-05
    y: 2.11782158484e-07
    z: 0.999944284407
    w: -0.0105559301443
---
header: 
  seq: 71839
  stamp: 
    secs: 22285
    nsecs: 928000000
  frame_id: "map"
pose: 
  position: 
    x: 6.02686707174
    y: -0.995481120009
    z: 0.0399940583497
  orientation: 
    x: -2.97027910198e-05
    y: -3.11396489456e-07
    z: 0.999944284188
    w: -0.010555929062
---
header: 
  seq: 71840
  stamp: 
    secs: 22285
    nsecs: 938000000
  frame_id: "map"
pose: 
  position: 
    x: 6.02686944766
    y: -0.995481069759
    z: 0.0399999991374
  orientation: 
    x: 7.39162837442e-12
    y: 1.0664890877e-11
    z: 0.99994428464
    w: -0.0105559279708
---
header: 
  seq: 71841
  stamp: 
    secs: 22285
    nsecs: 948000000
  frame_id: "map"
pose: 
  position: 
    x: 6.02687108625
    y: -0.995481035355
    z: 0.0399961019596
  orientation: 
    x: 2.048561174e-05
    y: 2.11782098256e-07
    z: 0.999944284438
    w: -0.0105559272035
---
header: 
  seq: 71842
  stamp: 
    secs: 22285
    nsecs: 958000000
  frame_id: "map"
pose: 
  position: 
    x: 6.02686707115
    y: -0.995481118961
    z: 0.0399940583497
  orientation: 
    x: -2.97027910207e-05
    y: -3.11396402114e-07
    z: 0.999944284219
    w: -0.0105559261211
---
header: 
  seq: 71843
  stamp: 
    secs: 22285
    nsecs: 968000000
  frame_id: "map"
pose: 
  position: 
    x: 6.02686944707
    y: -0.995481068711
    z: 0.0399999991374
  orientation: 
    x: 7.39163607564e-12
    y: 1.06648905709e-11
    z: 0.999944284671
    w: -0.0105559250299
---
header: 
  seq: 71844
  stamp: 
    secs: 22285
    nsecs: 978000000
  frame_id: "map"
pose: 
  position: 
    x: 6.02687108566
    y: -0.995481034306
    z: 0.0399961019596
  orientation: 
    x: 2.04856117406e-05
    y: 2.11782038042e-07
    z: 0.99994428447
    w: -0.0105559242626
---
header: 
  seq: 71845
  stamp: 
    secs: 22285
    nsecs: 988000000
  frame_id: "map"
pose: 
  position: 
    x: 6.02686707055
    y: -0.995481117912
    z: 0.0399940583497
  orientation: 
    x: -2.97027910217e-05
    y: -3.11396314772e-07
    z: 0.99994428425
    w: -0.0105559231803
---
header: 
  seq: 71846
  stamp: 
    secs: 22285
    nsecs: 998000000
  frame_id: "map"
pose: 
  position: 
    x: 6.02686944647
    y: -0.995481067662
    z: 0.0399999991374
  orientation: 
    x: 7.39163448999e-12
    y: 1.0664885813e-11
    z: 0.999944284702
    w: -0.0105559220891
---
header: 
  seq: 71847
  stamp: 
    secs: 22286
    nsecs:   8000000
  frame_id: "map"
pose: 
  position: 
    x: 6.02687108506
    y: -0.995481033258
    z: 0.0399961019596
  orientation: 
    x: 2.04856117412e-05
    y: 2.11781977817e-07
    z: 0.999944284501
    w: -0.0105559213218
---
header: 
  seq: 71848
  stamp: 
    secs: 22286
    nsecs:  18000000
  frame_id: "map"
pose: 
  position: 
    x: 6.02686706996
    y: -0.995481116864
    z: 0.0399940583497
  orientation: 
    x: -2.97027910227e-05
    y: -3.11396227434e-07
    z: 0.999944284281
    w: -0.0105559202394
---
header: 
  seq: 71849
  stamp: 
    secs: 22286
    nsecs:  28000000
  frame_id: "map"
pose: 
  position: 
    x: 6.02686944588
    y: -0.995481066614
    z: 0.0399999991374
  orientation: 
    x: 7.3916305496e-12
    y: 1.06648899247e-11
    z: 0.999944284733
    w: -0.0105559191482
---
header: 
  seq: 71850
  stamp: 
    secs: 22286
    nsecs:  38000000
  frame_id: "map"
pose: 
  position: 
    x: 6.02687108447
    y: -0.995481032209
    z: 0.0399961019596
  orientation: 
    x: 2.04856117418e-05
    y: 2.11781917588e-07
    z: 0.999944284532
    w: -0.0105559183809
---
header: 
  seq: 71851
  stamp: 
    secs: 22286
    nsecs:  48000000
  frame_id: "map"
pose: 
  position: 
    x: 6.02686706937
    y: -0.995481115815
    z: 0.0399940583497
  orientation: 
    x: -2.97027910236e-05
    y: -3.11396140089e-07
    z: 0.999944284312
    w: -0.0105559172986
---
header: 
  seq: 71852
  stamp: 
    secs: 22286
    nsecs:  58000000
  frame_id: "map"
pose: 
  position: 
    x: 6.02686944529
    y: -0.995481065565
    z: 0.0399999991374
  orientation: 
    x: 7.39162385804e-12
    y: 1.0664901263e-11
    z: 0.999944284764
    w: -0.0105559162074
---
header: 
  seq: 71853
  stamp: 
    secs: 22286
    nsecs:  68000000
  frame_id: "map"
pose: 
  position: 
    x: 6.02687108388
    y: -0.995481031161
    z: 0.0399961019596
  orientation: 
    x: 2.04856117424e-05
    y: 2.1178185738e-07
    z: 0.999944284563
    w: -0.0105559154401
---
header: 
  seq: 71854
  stamp: 
    secs: 22286
    nsecs:  78000000
  frame_id: "map"
pose: 
  position: 
    x: 6.02686706878
    y: -0.995481114766
    z: 0.0399940583497
  orientation: 
    x: -2.97027910246e-05
    y: -3.11396052749e-07
    z: 0.999944284343
    w: -0.0105559143577
---
header: 
  seq: 71855
  stamp: 
    secs: 22286
    nsecs:  88000000
  frame_id: "map"
pose: 
  position: 
    x: 6.0268694447
    y: -0.995481064517
    z: 0.0399999991374
  orientation: 
    x: 7.39163790523e-12
    y: 1.06648795992e-11
    z: 0.999944284795
    w: -0.0105559132665
---
header: 
  seq: 71856
  stamp: 
    secs: 22286
    nsecs:  98000000
  frame_id: "map"
pose: 
  position: 
    x: 6.02687108328
    y: -0.995481030112
    z: 0.0399961019596
  orientation: 
    x: 2.04856117431e-05
    y: 2.1178179716e-07
    z: 0.999944284594
    w: -0.0105559124992
---
header: 
  seq: 71857
  stamp: 
    secs: 22286
    nsecs: 108000000
  frame_id: "map"
pose: 
  position: 
    x: 6.02686706818
    y: -0.995481113718
    z: 0.0399940583497
  orientation: 
    x: -2.97027910255e-05
    y: -3.11395965401e-07
    z: 0.999944284374
    w: -0.0105559114169
---
header: 
  seq: 71858
  stamp: 
    secs: 22286
    nsecs: 118000000
  frame_id: "map"
pose: 
  position: 
    x: 6.0268694441
    y: -0.995481063468
    z: 0.0399999991374
  orientation: 
    x: 7.39163686169e-12
    y: 1.0664882413e-11
    z: 0.999944284827
    w: -0.0105559103257
---
header: 
  seq: 71859
  stamp: 
    secs: 22286
    nsecs: 128000000
  frame_id: "map"
pose: 
  position: 
    x: 6.02687108269
    y: -0.995481029064
    z: 0.0399961019596
  orientation: 
    x: 2.04856117437e-05
    y: 2.11781736936e-07
    z: 0.999944284625
    w: -0.0105559095584
---
header: 
  seq: 71860
  stamp: 
    secs: 22286
    nsecs: 138000000
  frame_id: "map"
pose: 
  position: 
    x: 6.02686706759
    y: -0.995481112669
    z: 0.0399940583497
  orientation: 
    x: -2.97027910264e-05
    y: -3.11395878059e-07
    z: 0.999944284405
    w: -0.010555908476
---
header: 
  seq: 71861
  stamp: 
    secs: 22286
    nsecs: 148000000
  frame_id: "map"
pose: 
  position: 
    x: 6.02686944351
    y: -0.995481062419
    z: 0.0399999991374
  orientation: 
    x: 7.39164802558e-12
    y: 1.06648811861e-11
    z: 0.999944284858
    w: -0.0105559073848
---
header: 
  seq: 71862
  stamp: 
    secs: 22286
    nsecs: 158000000
  frame_id: "map"
pose: 
  position: 
    x: 6.0268710821
    y: -0.995481028015
    z: 0.0399961019596
  orientation: 
    x: 2.04856117443e-05
    y: 2.11781676722e-07
    z: 0.999944284656
    w: -0.0105559066175
---
header: 
  seq: 71863
  stamp: 
    secs: 22286
    nsecs: 168000000
  frame_id: "map"
pose: 
  position: 
    x: 6.026867067
    y: -0.995481111621
    z: 0.0399940583497
  orientation: 
    x: -2.97027910274e-05
    y: -3.11395790709e-07
    z: 0.999944284436
    w: -0.0105559055352
---
header: 
  seq: 71864
  stamp: 
    secs: 22286
    nsecs: 178000000
  frame_id: "map"
pose: 
  position: 
    x: 6.02686944292
    y: -0.995481061371
    z: 0.0399999991374
  orientation: 
    x: 7.3916288352e-12
    y: 1.0664892858e-11
    z: 0.999944284889
    w: -0.010555904444
---
header: 
  seq: 71865
  stamp: 
    secs: 22286
    nsecs: 188000000
  frame_id: "map"
pose: 
  position: 
    x: 6.02687108151
    y: -0.995481026967
    z: 0.0399961019596
  orientation: 
    x: 2.04856117449e-05
    y: 2.11781616498e-07
    z: 0.999944284687
    w: -0.0105559036767
---
header: 
  seq: 71866
  stamp: 
    secs: 22286
    nsecs: 198000000
  frame_id: "map"
pose: 
  position: 
    x: 6.0268670664
    y: -0.995481110572
    z: 0.0399940583497
  orientation: 
    x: -2.97027910283e-05
    y: -3.11395703378e-07
    z: 0.999944284467
    w: -0.0105559025943
---
header: 
  seq: 71867
  stamp: 
    secs: 22286
    nsecs: 208000000
  frame_id: "map"
pose: 
  position: 
    x: 6.02686944232
    y: -0.995481060322
    z: 0.0399999991374
  orientation: 
    x: 7.39163205732e-12
    y: 1.06648979357e-11
    z: 0.99994428492
    w: -0.0105559015031
---
header: 
  seq: 71868
  stamp: 
    secs: 22286
    nsecs: 218000000
  frame_id: "map"
pose: 
  position: 
    x: 6.02687108091
    y: -0.995481025918
    z: 0.0399961019596
  orientation: 
    x: 2.04856117455e-05
    y: 2.11781556284e-07
    z: 0.999944284718
    w: -0.0105559007358
---
header: 
  seq: 71869
  stamp: 
    secs: 22286
    nsecs: 228000000
  frame_id: "map"
pose: 
  position: 
    x: 6.02686706581
    y: -0.995481109523
    z: 0.0399940583497
  orientation: 
    x: -2.97027910293e-05
    y: -3.11395616024e-07
    z: 0.999944284498
    w: -0.0105558996535
---
header: 
  seq: 71870
  stamp: 
    secs: 22286
    nsecs: 238000000
  frame_id: "map"
pose: 
  position: 
    x: 6.02686944173
    y: -0.995481059274
    z: 0.0399999991374
  orientation: 
    x: 7.39163380898e-12
    y: 1.06648987855e-11
    z: 0.999944284951
    w: -0.0105558985623
---
header: 
  seq: 71871
  stamp: 
    secs: 22286
    nsecs: 248000000
  frame_id: "map"
pose: 
  position: 
    x: 6.02687108032
    y: -0.995481024869
    z: 0.0399961019596
  orientation: 
    x: 2.04856117462e-05
    y: 2.11781496059e-07
    z: 0.999944284749
    w: -0.010555897795
---
header: 
  seq: 71872
  stamp: 
    secs: 22286
    nsecs: 258000000
  frame_id: "map"
pose: 
  position: 
    x: 6.02686706522
    y: -0.995481108475
    z: 0.0399940583497
  orientation: 
    x: -2.97027910303e-05
    y: -3.11395528691e-07
    z: 0.999944284529
    w: -0.0105558967126
---
header: 
  seq: 71873
  stamp: 
    secs: 22286
    nsecs: 268000000
  frame_id: "map"
pose: 
  position: 
    x: 6.02686944114
    y: -0.995481058225
    z: 0.0399999991374
  orientation: 
    x: 7.39162640252e-12
    y: 1.06648917724e-11
    z: 0.999944284982
    w: -0.0105558956214
---
header: 
  seq: 71874
  stamp: 
    secs: 22286
    nsecs: 278000000
  frame_id: "map"
pose: 
  position: 
    x: 6.02687107973
    y: -0.995481023821
    z: 0.0399961019596
  orientation: 
    x: 2.04856117467e-05
    y: 2.11781435843e-07
    z: 0.99994428478
    w: -0.0105558948541
---
header: 
  seq: 71875
  stamp: 
    secs: 22286
    nsecs: 288000000
  frame_id: "map"
pose: 
  position: 
    x: 6.02686706463
    y: -0.995481107426
    z: 0.0399940583497
  orientation: 
    x: -2.97027910312e-05
    y: -3.11395441354e-07
    z: 0.99994428456
    w: -0.0105558937718
---
header: 
  seq: 71876
  stamp: 
    secs: 22286
    nsecs: 298000000
  frame_id: "map"
pose: 
  position: 
    x: 6.02686944055
    y: -0.995481057177
    z: 0.0399999991374
  orientation: 
    x: 7.39163208103e-12
    y: 1.06648945989e-11
    z: 0.999944285013
    w: -0.0105558926806
---
header: 
  seq: 71877
  stamp: 
    secs: 22286
    nsecs: 308000000
  frame_id: "map"
pose: 
  position: 
    x: 6.02687107913
    y: -0.995481022772
    z: 0.0399961019596
  orientation: 
    x: 2.04856117474e-05
    y: 2.11781375625e-07
    z: 0.999944284811
    w: -0.0105558919133
---
header: 
  seq: 71878
  stamp: 
    secs: 22286
    nsecs: 318000000
  frame_id: "map"
pose: 
  position: 
    x: 6.02686706403
    y: -0.995481106378
    z: 0.0399940583497
  orientation: 
    x: -2.97027910321e-05
    y: -3.11395354003e-07
    z: 0.999944284591
    w: -0.0105558908309
---
header: 
  seq: 71879
  stamp: 
    secs: 22286
    nsecs: 328000000
  frame_id: "map"
pose: 
  position: 
    x: 6.02686943995
    y: -0.995481056128
    z: 0.0399999991374
  orientation: 
    x: 7.3916441665e-12
    y: 1.06648839034e-11
    z: 0.999944285044
    w: -0.0105558897397
---
header: 
  seq: 71880
  stamp: 
    secs: 22286
    nsecs: 338000000
  frame_id: "map"
pose: 
  position: 
    x: 6.02687107854
    y: -0.995481021724
    z: 0.0399961019596
  orientation: 
    x: 2.0485611748e-05
    y: 2.11781315413e-07
    z: 0.999944284842
    w: -0.0105558889724
---
header: 
  seq: 71881
  stamp: 
    secs: 22286
    nsecs: 348000000
  frame_id: "map"
pose: 
  position: 
    x: 6.02686706344
    y: -0.995481105329
    z: 0.0399940583497
  orientation: 
    x: -2.97027910331e-05
    y: -3.11395266651e-07
    z: 0.999944284622
    w: -0.0105558878901
---
header: 
  seq: 71882
  stamp: 
    secs: 22286
    nsecs: 358000000
  frame_id: "map"
pose: 
  position: 
    x: 6.02686943936
    y: -0.995481055079
    z: 0.0399999991374
  orientation: 
    x: 7.391623299e-12
    y: 1.06648939496e-11
    z: 0.999944285075
    w: -0.0105558867989
---
header: 
  seq: 71883
  stamp: 
    secs: 22286
    nsecs: 368000000
  frame_id: "map"
pose: 
  position: 
    x: 6.02687107795
    y: -0.995481020675
    z: 0.0399961019596
  orientation: 
    x: 2.04856117486e-05
    y: 2.11781255174e-07
    z: 0.999944284873
    w: -0.0105558860316
---
header: 
  seq: 71884
  stamp: 
    secs: 22286
    nsecs: 378000000
  frame_id: "map"
pose: 
  position: 
    x: 6.02686706285
    y: -0.995481104281
    z: 0.0399940583497
  orientation: 
    x: -2.97027910341e-05
    y: -3.11395179327e-07
    z: 0.999944284653
    w: -0.0105558849492
---
header: 
  seq: 71885
  stamp: 
    secs: 22286
    nsecs: 388000000
  frame_id: "map"
pose: 
  position: 
    x: 6.02686943877
    y: -0.995481054031
    z: 0.0399999991374
  orientation: 
    x: 7.39163664485e-12
    y: 1.06648869465e-11
    z: 0.999944285106
    w: -0.010555883858
---
header: 
  seq: 71886
  stamp: 
    secs: 22286
    nsecs: 398000000
  frame_id: "map"
pose: 
  position: 
    x: 6.02687107736
    y: -0.995481019627
    z: 0.0399961019596
  orientation: 
    x: 2.04856117493e-05
    y: 2.11781194965e-07
    z: 0.999944284904
    w: -0.0105558830907
---
header: 
  seq: 71887
  stamp: 
    secs: 22286
    nsecs: 408000000
  frame_id: "map"
pose: 
  position: 
    x: 6.02686706225
    y: -0.995481103232
    z: 0.0399940583497
  orientation: 
    x: -2.9702791035e-05
    y: -3.11395091987e-07
    z: 0.999944284684
    w: -0.0105558820084
---
header: 
  seq: 71888
  stamp: 
    secs: 22286
    nsecs: 418000000
  frame_id: "map"
pose: 
  position: 
    x: 6.02686943818
    y: -0.995481052982
    z: 0.0399999991374
  orientation: 
    x: 7.39164132386e-12
    y: 1.06648913639e-11
    z: 0.999944285137
    w: -0.0105558809172
---
header: 
  seq: 71889
  stamp: 
    secs: 22286
    nsecs: 428000000
  frame_id: "map"
pose: 
  position: 
    x: 6.02687107676
    y: -0.995481018578
    z: 0.0399961019596
  orientation: 
    x: 2.04856117499e-05
    y: 2.11781134743e-07
    z: 0.999944284935
    w: -0.0105558801499
---
header: 
  seq: 71890
  stamp: 
    secs: 22286
    nsecs: 438000000
  frame_id: "map"
pose: 
  position: 
    x: 6.02686706166
    y: -0.995481102183
    z: 0.0399940583497
  orientation: 
    x: -2.9702791036e-05
    y: -3.11395004635e-07
    z: 0.999944284715
    w: -0.0105558790675
---
header: 
  seq: 71891
  stamp: 
    secs: 22286
    nsecs: 448000000
  frame_id: "map"
pose: 
  position: 
    x: 6.02686943758
    y: -0.995481051934
    z: 0.0399999991374
  orientation: 
    x: 7.39162274673e-12
    y: 1.06648988774e-11
    z: 0.999944285168
    w: -0.0105558779763
---
header: 
  seq: 71892
  stamp: 
    secs: 22286
    nsecs: 458000000
  frame_id: "map"
pose: 
  position: 
    x: 6.02687107617
    y: -0.99548101753
    z: 0.0399961019596
  orientation: 
    x: 2.04856117505e-05
    y: 2.11781074526e-07
    z: 0.999944284966
    w: -0.010555877209
---
header: 
  seq: 71893
  stamp: 
    secs: 22286
    nsecs: 468000000
  frame_id: "map"
pose: 
  position: 
    x: 6.02686706107
    y: -0.995481101135
    z: 0.0399940583497
  orientation: 
    x: -2.97027910369e-05
    y: -3.11394917293e-07
    z: 0.999944284746
    w: -0.0105558761267
---
header: 
  seq: 71894
  stamp: 
    secs: 22286
    nsecs: 478000000
  frame_id: "map"
pose: 
  position: 
    x: 6.02686943699
    y: -0.995481050885
    z: 0.0399999991374
  orientation: 
    x: 7.391637458e-12
    y: 1.06648861368e-11
    z: 0.999944285199
    w: -0.0105558750355
---
header: 
  seq: 71895
  stamp: 
    secs: 22286
    nsecs: 488000000
  frame_id: "map"
pose: 
  position: 
    x: 6.02687107558
    y: -0.995481016481
    z: 0.0399961019596
  orientation: 
    x: 2.04856117511e-05
    y: 2.11781014305e-07
    z: 0.999944284997
    w: -0.0105558742682
---
header: 
  seq: 71896
  stamp: 
    secs: 22286
    nsecs: 498000000
  frame_id: "map"
pose: 
  position: 
    x: 6.02686706048
    y: -0.995481100086
    z: 0.0399940583497
  orientation: 
    x: -2.97027910379e-05
    y: -3.11394829951e-07
    z: 0.999944284777
    w: -0.0105558731858
---
header: 
  seq: 71897
  stamp: 
    secs: 22286
    nsecs: 508000000
  frame_id: "map"
pose: 
  position: 
    x: 6.0268694364
    y: -0.995481049837
    z: 0.0399999991374
  orientation: 
    x: 7.39162389192e-12
    y: 1.06649002798e-11
    z: 0.99994428523
    w: -0.0105558720946
---
header: 
  seq: 71898
  stamp: 
    secs: 22286
    nsecs: 518000000
  frame_id: "map"
pose: 
  position: 
    x: 6.02687107498
    y: -0.995481015432
    z: 0.0399961019596
  orientation: 
    x: 2.04856117517e-05
    y: 2.11780954091e-07
    z: 0.999944285028
    w: -0.0105558713273
---
header: 
  seq: 71899
  stamp: 
    secs: 22286
    nsecs: 528000000
  frame_id: "map"
pose: 
  position: 
    x: 6.02686705988
    y: -0.995481099038
    z: 0.0399940583497
  orientation: 
    x: -2.97027910388e-05
    y: -3.1139474261e-07
    z: 0.999944284808
    w: -0.010555870245
---
header: 
  seq: 71900
  stamp: 
    secs: 22286
    nsecs: 538000000
  frame_id: "map"
pose: 
  position: 
    x: 6.0268694358
    y: -0.995481048788
    z: 0.0399999991374
  orientation: 
    x: 7.39163013963e-12
    y: 1.066489347e-11
    z: 0.999944285261
    w: -0.0105558691538
---
header: 
  seq: 71901
  stamp: 
    secs: 22286
    nsecs: 548000000
  frame_id: "map"
pose: 
  position: 
    x: 6.02687107439
    y: -0.995481014384
    z: 0.0399961019596
  orientation: 
    x: 2.04856117523e-05
    y: 2.11780893871e-07
    z: 0.999944285059
    w: -0.0105558683865
---
header: 
  seq: 71902
  stamp: 
    secs: 22286
    nsecs: 558000000
  frame_id: "map"
pose: 
  position: 
    x: 6.02686705929
    y: -0.995481097989
    z: 0.0399940583497
  orientation: 
    x: -2.97027910397e-05
    y: -3.11394655262e-07
    z: 0.999944284839
    w: -0.0105558673042
---
header: 
  seq: 71903
  stamp: 
    secs: 22286
    nsecs: 568000000
  frame_id: "map"
pose: 
  position: 
    x: 6.02686943521
    y: -0.99548104774
    z: 0.0399999991374
  orientation: 
    x: 7.39163807803e-12
    y: 1.06648980093e-11
    z: 0.999944285292
    w: -0.010555866213
---
header: 
  seq: 71904
  stamp: 
    secs: 22286
    nsecs: 578000000
  frame_id: "map"
pose: 
  position: 
    x: 6.0268710738
    y: -0.995481013335
    z: 0.0399961019596
  orientation: 
    x: 2.0485611753e-05
    y: 2.11780833648e-07
    z: 0.99994428509
    w: -0.0105558654456
---
header: 
  seq: 71905
  stamp: 
    secs: 22286
    nsecs: 588000000
  frame_id: "map"
pose: 
  position: 
    x: 6.0268670587
    y: -0.995481096941
    z: 0.0399940583497
  orientation: 
    x: -2.97027910407e-05
    y: -3.11394567919e-07
    z: 0.999944284871
    w: -0.0105558643633
---
header: 
  seq: 71906
  stamp: 
    secs: 22286
    nsecs: 598000000
  frame_id: "map"
pose: 
  position: 
    x: 6.02686943462
    y: -0.995481046691
    z: 0.0399999991374
  orientation: 
    x: 7.39164116461e-12
    y: 1.06648860193e-11
    z: 0.999944285323
    w: -0.0105558632721
---
header: 
  seq: 71907
  stamp: 
    secs: 22286
    nsecs: 608000000
  frame_id: "map"
pose: 
  position: 
    x: 6.02687107321
    y: -0.995481012287
    z: 0.0399961019596
  orientation: 
    x: 2.04856117536e-05
    y: 2.11780773418e-07
    z: 0.999944285121
    w: -0.0105558625048
---
header: 
  seq: 71908
  stamp: 
    secs: 22286
    nsecs: 618000000
  frame_id: "map"
pose: 
  position: 
    x: 6.02686705811
    y: -0.995481095892
    z: 0.0399940583497
  orientation: 
    x: -2.97027910417e-05
    y: -3.11394480579e-07
    z: 0.999944284902
    w: -0.0105558614225
---
header: 
  seq: 71909
  stamp: 
    secs: 22286
    nsecs: 628000000
  frame_id: "map"
pose: 
  position: 
    x: 6.02686943403
    y: -0.995481045642
    z: 0.0399999991374
  orientation: 
    x: 7.39163267057e-12
    y: 1.06648954978e-11
    z: 0.999944285354
    w: -0.0105558603313
---
header: 
  seq: 71910
  stamp: 
    secs: 22286
    nsecs: 638000000
  frame_id: "map"
pose: 
  position: 
    x: 6.02687107261
    y: -0.995481011238
    z: 0.0399961019596
  orientation: 
    x: 2.04856117542e-05
    y: 2.11780713199e-07
    z: 0.999944285153
    w: -0.0105558595639
---
header: 
  seq: 71911
  stamp: 
    secs: 22286
    nsecs: 648000000
  frame_id: "map"
pose: 
  position: 
    x: 6.02686705751
    y: -0.995481094843
    z: 0.0399940583497
  orientation: 
    x: -2.97027910426e-05
    y: -3.11394393238e-07
    z: 0.999944284933
    w: -0.0105558584816
---
header: 
  seq: 71912
  stamp: 
    secs: 22286
    nsecs: 658000000
  frame_id: "map"
pose: 
  position: 
    x: 6.02686943343
    y: -0.995481044594
    z: 0.0399999991374
  orientation: 
    x: 7.39164354308e-12
    y: 1.06648804596e-11
    z: 0.999944285385
    w: -0.0105558573904
---
header: 
  seq: 71913
  stamp: 
    secs: 22286
    nsecs: 668000000
  frame_id: "map"
pose: 
  position: 
    x: 6.02687107202
    y: -0.99548101019
    z: 0.0399961019596
  orientation: 
    x: 2.04856117548e-05
    y: 2.11780652974e-07
    z: 0.999944285184
    w: -0.0105558566231
---
header: 
  seq: 71914
  stamp: 
    secs: 22286
    nsecs: 678000000
  frame_id: "map"
pose: 
  position: 
    x: 6.02686705692
    y: -0.995481093795
    z: 0.0399940583497
  orientation: 
    x: -2.97027910435e-05
    y: -3.11394305886e-07
    z: 0.999944284964
    w: -0.0105558555408
---
header: 
  seq: 71915
  stamp: 
    secs: 22286
    nsecs: 688000000
  frame_id: "map"
pose: 
  position: 
    x: 6.02686943284
    y: -0.995481043545
    z: 0.0399999991374
  orientation: 
    x: 7.39163576732e-12
    y: 1.0664887635e-11
    z: 0.999944285416
    w: -0.0105558544496
---
header: 
  seq: 71916
  stamp: 
    secs: 22286
    nsecs: 698000000
  frame_id: "map"
pose: 
  position: 
    x: 6.02687107143
    y: -0.995481009141
    z: 0.0399961019596
  orientation: 
    x: 2.04856117555e-05
    y: 2.11780592761e-07
    z: 0.999944285215
    w: -0.0105558536822
---
header: 
  seq: 71917
  stamp: 
    secs: 22286
    nsecs: 708000000
  frame_id: "map"
pose: 
  position: 
    x: 6.02686705633
    y: -0.995481092746
    z: 0.0399940583497
  orientation: 
    x: -2.97027910445e-05
    y: -3.11394218554e-07
    z: 0.999944284995
    w: -0.0105558525999
---
header: 
  seq: 71918
  stamp: 
    secs: 22286
    nsecs: 718000000
  frame_id: "map"
pose: 
  position: 
    x: 6.02686943225
    y: -0.995481042497
    z: 0.0399999991374
  orientation: 
    x: 7.39162334982e-12
    y: 1.06648972141e-11
    z: 0.999944285447
    w: -0.0105558515087
---
header: 
  seq: 71919
  stamp: 
    secs: 22286
    nsecs: 728000000
  frame_id: "map"
pose: 
  position: 
    x: 6.02687107083
    y: -0.995481008093
    z: 0.0399961019596
  orientation: 
    x: 2.0485611756e-05
    y: 2.11780532543e-07
    z: 0.999944285246
    w: -0.0105558507414
---
header: 
  seq: 71920
  stamp: 
    secs: 22286
    nsecs: 738000000
  frame_id: "map"
pose: 
  position: 
    x: 6.02686705573
    y: -0.995481091698
    z: 0.0399940583497
  orientation: 
    x: -2.97027910455e-05
    y: -3.1139413121e-07
    z: 0.999944285026
    w: -0.0105558496591
---
header: 
  seq: 71921
  stamp: 
    secs: 22286
    nsecs: 748000000
  frame_id: "map"
pose: 
  position: 
    x: 6.02686943165
    y: -0.995481041448
    z: 0.0399999991374
  orientation: 
    x: 7.39163242662e-12
    y: 1.06648911032e-11
    z: 0.999944285478
    w: -0.0105558485679
---
header: 
  seq: 71922
  stamp: 
    secs: 22286
    nsecs: 758000000
  frame_id: "map"
pose: 
  position: 
    x: 6.02687107024
    y: -0.995481007044
    z: 0.0399961019596
  orientation: 
    x: 2.04856117566e-05
    y: 2.11780472341e-07
    z: 0.999944285277
    w: -0.0105558478005
---
header: 
  seq: 71923
  stamp: 
    secs: 22286
    nsecs: 768000000
  frame_id: "map"
pose: 
  position: 
    x: 6.02686705514
    y: -0.995481090649
    z: 0.0399940583497
  orientation: 
    x: -2.97027910464e-05
    y: -3.11394043858e-07
    z: 0.999944285057
    w: -0.0105558467182
---
header: 
  seq: 71924
  stamp: 
    secs: 22286
    nsecs: 778000000
  frame_id: "map"
pose: 
  position: 
    x: 6.02686943106
    y: -0.9954810404
    z: 0.0399999991374
  orientation: 
    x: 7.39163881664e-12
    y: 1.06648924832e-11
    z: 0.999944285509
    w: -0.010555845627
---
header: 
  seq: 71925
  stamp: 
    secs: 22286
    nsecs: 788000000
  frame_id: "map"
pose: 
  position: 
    x: 6.02687106965
    y: -0.995481005995
    z: 0.0399961019596
  orientation: 
    x: 2.04856117573e-05
    y: 2.11780412104e-07
    z: 0.999944285308
    w: -0.0105558448597
---
header: 
  seq: 71926
  stamp: 
    secs: 22286
    nsecs: 798000000
  frame_id: "map"
pose: 
  position: 
    x: 6.02686705455
    y: -0.9954810896
    z: 0.0399940583497
  orientation: 
    x: -2.97027910473e-05
    y: -3.11393956523e-07
    z: 0.999944285088
    w: -0.0105558437774
---
header: 
  seq: 71927
  stamp: 
    secs: 22286
    nsecs: 808000000
  frame_id: "map"
pose: 
  position: 
    x: 6.02686943047
    y: -0.995481039351
    z: 0.0399999991374
  orientation: 
    x: 7.39163701754e-12
    y: 1.0664886888e-11
    z: 0.999944285541
    w: -0.0105558426862
---
header: 
  seq: 71928
  stamp: 
    secs: 22286
    nsecs: 818000000
  frame_id: "map"
pose: 
  position: 
    x: 6.02687106906
    y: -0.995481004947
    z: 0.0399961019596
  orientation: 
    x: 2.04856117579e-05
    y: 2.11780351889e-07
    z: 0.999944285339
    w: -0.0105558419188
---
header: 
  seq: 71929
  stamp: 
    secs: 22286
    nsecs: 828000000
  frame_id: "map"
pose: 
  position: 
    x: 6.02686705396
    y: -0.995481088552
    z: 0.0399940583497
  orientation: 
    x: -2.97027910483e-05
    y: -3.11393869185e-07
    z: 0.999944285119
    w: -0.0105558408365
---
header: 
  seq: 71930
  stamp: 
    secs: 22286
    nsecs: 838000000
  frame_id: "map"
pose: 
  position: 
    x: 6.02686942988
    y: -0.995481038302
    z: 0.0399999991374
  orientation: 
    x: 7.39164600287e-12
    y: 1.06648841871e-11
    z: 0.999944285572
    w: -0.0105558397453
---
header: 
  seq: 71931
  stamp: 
    secs: 22286
    nsecs: 848000000
  frame_id: "map"
pose: 
  position: 
    x: 6.02687106846
    y: -0.995481003898
    z: 0.0399961019596
  orientation: 
    x: 2.04856117585e-05
    y: 2.11780291669e-07
    z: 0.99994428537
    w: -0.010555838978
---
header: 
  seq: 71932
  stamp: 
    secs: 22286
    nsecs: 858000000
  frame_id: "map"
pose: 
  position: 
    x: 6.02686705336
    y: -0.995481087503
    z: 0.0399940583497
  orientation: 
    x: -2.97027910492e-05
    y: -3.11393781844e-07
    z: 0.99994428515
    w: -0.0105558378957
---
header: 
  seq: 71933
  stamp: 
    secs: 22286
    nsecs: 868000000
  frame_id: "map"
pose: 
  position: 
    x: 6.02686942928
    y: -0.995481037254
    z: 0.0399999991374
  orientation: 
    x: 7.39163442901e-12
    y: 1.06648935431e-11
    z: 0.999944285603
    w: -0.0105558368045
---
header: 
  seq: 71934
  stamp: 
    secs: 22286
    nsecs: 878000000
  frame_id: "map"
pose: 
  position: 
    x: 6.02687106787
    y: -0.99548100285
    z: 0.0399961019596
  orientation: 
    x: 2.04856117592e-05
    y: 2.11780231437e-07
    z: 0.999944285401
    w: -0.0105558360371
---
header: 
  seq: 71935
  stamp: 
    secs: 22286
    nsecs: 888000000
  frame_id: "map"
pose: 
  position: 
    x: 6.02686705277
    y: -0.995481086455
    z: 0.0399940583497
  orientation: 
    x: -2.97027910502e-05
    y: -3.11393694505e-07
    z: 0.999944285181
    w: -0.0105558349548
---
header: 
  seq: 71936
  stamp: 
    secs: 22286
    nsecs: 898000000
  frame_id: "map"
pose: 
  position: 
    x: 6.02686942869
    y: -0.995481036205
    z: 0.0399999991374
  orientation: 
    x: 7.39162613825e-12
    y: 1.06648870937e-11
    z: 0.999944285634
    w: -0.0105558338636
---
header: 
  seq: 71937
  stamp: 
    secs: 22286
    nsecs: 908000000
  frame_id: "map"
pose: 
  position: 
    x: 6.02687106728
    y: -0.995481001801
    z: 0.0399961019596
  orientation: 
    x: 2.04856117597e-05
    y: 2.1178017122e-07
    z: 0.999944285432
    w: -0.0105558330963
---
header: 
  seq: 71938
  stamp: 
    secs: 22286
    nsecs: 918000000
  frame_id: "map"
pose: 
  position: 
    x: 6.02686705218
    y: -0.995481085406
    z: 0.0399940583497
  orientation: 
    x: -2.97027910511e-05
    y: -3.11393607157e-07
    z: 0.999944285212
    w: -0.010555832014
---
header: 
  seq: 71939
  stamp: 
    secs: 22286
    nsecs: 928000000
  frame_id: "map"
pose: 
  position: 
    x: 6.0268694281
    y: -0.995481035157
    z: 0.0399999991374
  orientation: 
    x: 7.39162996345e-12
    y: 1.06648964527e-11
    z: 0.999944285665
    w: -0.0105558309228
---
header: 
  seq: 71940
  stamp: 
    secs: 22286
    nsecs: 938000000
  frame_id: "map"
pose: 
  position: 
    x: 6.02687106668
    y: -0.995481000753
    z: 0.0399961019596
  orientation: 
    x: 2.04856117604e-05
    y: 2.11780110999e-07
    z: 0.999944285463
    w: -0.0105558301554
---
header: 
  seq: 71941
  stamp: 
    secs: 22286
    nsecs: 948000000
  frame_id: "map"
pose: 
  position: 
    x: 6.02686705158
    y: -0.995481084358
    z: 0.0399940583497
  orientation: 
    x: -2.97027910521e-05
    y: -3.11393519814e-07
    z: 0.999944285243
    w: -0.0105558290731
---
header: 
  seq: 71942
  stamp: 
    secs: 22286
    nsecs: 958000000
  frame_id: "map"
pose: 
  position: 
    x: 6.0268694275
    y: -0.995481034108
    z: 0.0399999991374
  orientation: 
    x: 7.39165000425e-12
    y: 1.06648814348e-11
    z: 0.999944285696
    w: -0.0105558279819
---
header: 
  seq: 71943
  stamp: 
    secs: 22286
    nsecs: 968000000
  frame_id: "map"
pose: 
  position: 
    x: 6.02687106609
    y: -0.995480999704
    z: 0.0399961019596
  orientation: 
    x: 2.0485611761e-05
    y: 2.1178005078e-07
    z: 0.999944285494
    w: -0.0105558272146
---
header: 
  seq: 71944
  stamp: 
    secs: 22286
    nsecs: 978000000
  frame_id: "map"
pose: 
  position: 
    x: 6.02686705099
    y: -0.995481083309
    z: 0.0399940583497
  orientation: 
    x: -2.9702791053e-05
    y: -3.11393432462e-07
    z: 0.999944285274
    w: -0.0105558261323
---
header: 
  seq: 71945
  stamp: 
    secs: 22286
    nsecs: 988000000
  frame_id: "map"
pose: 
  position: 
    x: 6.02686942691
    y: -0.99548103306
    z: 0.0399999991374
  orientation: 
    x: 7.39164046327e-12
    y: 1.06648841225e-11
    z: 0.999944285727
    w: -0.0105558250411
---
header: 
  seq: 71946
  stamp: 
    secs: 22286
    nsecs: 998000000
  frame_id: "map"
pose: 
  position: 
    x: 6.0268710655
    y: -0.995480998655
    z: 0.0399961019596
  orientation: 
    x: 2.04856117616e-05
    y: 2.11779990559e-07
    z: 0.999944285525
    w: -0.0105558242737
---
header: 
  seq: 71947
  stamp: 
    secs: 22287
    nsecs:   8000000
  frame_id: "map"
pose: 
  position: 
    x: 6.0268670504
    y: -0.99548108226
    z: 0.0399940583497
  orientation: 
    x: -2.97027910539e-05
    y: -3.1139334512e-07
    z: 0.999944285305
    w: -0.0105558231914
---
header: 
  seq: 71948
  stamp: 
    secs: 22287
    nsecs:  18000000
  frame_id: "map"
pose: 
  position: 
    x: 6.02686942632
    y: -0.995481032011
    z: 0.0399999991374
  orientation: 
    x: 7.39163046489e-12
    y: 1.06648879268e-11
    z: 0.999944285758
    w: -0.0105558221002
---
header: 
  seq: 71949
  stamp: 
    secs: 22287
    nsecs:  28000000
  frame_id: "map"
pose: 
  position: 
    x: 6.02687106491
    y: -0.995480997607
    z: 0.0399961019596
  orientation: 
    x: 2.04856117622e-05
    y: 2.11779930361e-07
    z: 0.999944285556
    w: -0.0105558213329
---
header: 
  seq: 71950
  stamp: 
    secs: 22287
    nsecs:  38000000
  frame_id: "map"
pose: 
  position: 
    x: 6.02686704981
    y: -0.995481081212
    z: 0.0399940583497
  orientation: 
    x: -2.97027910549e-05
    y: -3.11393257793e-07
    z: 0.999944285336
    w: -0.0105558202506
---
header: 
  seq: 71951
  stamp: 
    secs: 22287
    nsecs:  48000000
  frame_id: "map"
pose: 
  position: 
    x: 6.02686942573
    y: -0.995481030962
    z: 0.0399999991374
  orientation: 
    x: 7.39163273494e-12
    y: 1.06648886902e-11
    z: 0.999944285789
    w: -0.0105558191594
---
header: 
  seq: 71952
  stamp: 
    secs: 22287
    nsecs:  58000000
  frame_id: "map"
pose: 
  position: 
    x: 6.02687106431
    y: -0.995480996558
    z: 0.0399961019596
  orientation: 
    x: 2.04856117629e-05
    y: 2.11779870134e-07
    z: 0.999944285587
    w: -0.0105558183921
---
header: 
  seq: 71953
  stamp: 
    secs: 22287
    nsecs:  68000000
  frame_id: "map"
pose: 
  position: 
    x: 6.02686704921
    y: -0.995481080163
    z: 0.0399940583497
  orientation: 
    x: -2.97027910559e-05
    y: -3.11393170455e-07
    z: 0.999944285367
    w: -0.0105558173097
---
header: 
  seq: 71954
  stamp: 
    secs: 22287
    nsecs:  78000000
  frame_id: "map"
pose: 
  position: 
    x: 6.02686942513
    y: -0.995481029914
    z: 0.0399999991374
  orientation: 
    x: 7.3916168446e-12
    y: 1.06648964385e-11
    z: 0.99994428582
    w: -0.0105558162185
---
header: 
  seq: 71955
  stamp: 
    secs: 22287
    nsecs:  88000000
  frame_id: "map"
pose: 
  position: 
    x: 6.02687106372
    y: -0.99548099551
    z: 0.0399961019596
  orientation: 
    x: 2.04856117635e-05
    y: 2.11779809908e-07
    z: 0.999944285618
    w: -0.0105558154512
---
header: 
  seq: 71956
  stamp: 
    secs: 22287
    nsecs:  98000000
  frame_id: "map"
pose: 
  position: 
    x: 6.02686704862
    y: -0.995481079115
    z: 0.0399940583497
  orientation: 
    x: -2.97027910568e-05
    y: -3.11393083111e-07
    z: 0.999944285398
    w: -0.0105558143689
---
header: 
  seq: 71957
  stamp: 
    secs: 22287
    nsecs: 108000000
  frame_id: "map"
pose: 
  position: 
    x: 6.02686942454
    y: -0.995481028865
    z: 0.0399999991374
  orientation: 
    x: 7.39163433075e-12
    y: 1.06648882985e-11
    z: 0.999944285851
    w: -0.0105558132777
---
header: 
  seq: 71958
  stamp: 
    secs: 22287
    nsecs: 118000000
  frame_id: "map"
pose: 
  position: 
    x: 6.02687106313
    y: -0.995480994461
    z: 0.0399961019596
  orientation: 
    x: 2.04856117641e-05
    y: 2.1177974969e-07
    z: 0.999944285649
    w: -0.0105558125104
---
header: 
  seq: 71959
  stamp: 
    secs: 22287
    nsecs: 128000000
  frame_id: "map"
pose: 
  position: 
    x: 6.02686704803
    y: -0.995481078066
    z: 0.0399940583497
  orientation: 
    x: -2.97027910578e-05
    y: -3.11392995762e-07
    z: 0.999944285429
    w: -0.010555811428
---
header: 
  seq: 71960
  stamp: 
    secs: 22287
    nsecs: 138000000
  frame_id: "map"
pose: 
  position: 
    x: 6.02686942395
    y: -0.995481027817
    z: 0.0399999991374
  orientation: 
    x: 7.39162823889e-12
    y: 1.06648952633e-11
    z: 0.999944285882
    w: -0.0105558103368
---
header: 
  seq: 71961
  stamp: 
    secs: 22287
    nsecs: 148000000
  frame_id: "map"
pose: 
  position: 
    x: 6.02687106254
    y: -0.995480993413
    z: 0.0399961019596
  orientation: 
    x: 2.04856117647e-05
    y: 2.11779689476e-07
    z: 0.99994428568
    w: -0.0105558095695
---
header: 
  seq: 71962
  stamp: 
    secs: 22287
    nsecs: 158000000
  frame_id: "map"
pose: 
  position: 
    x: 6.02686704743
    y: -0.995481077017
    z: 0.0399940583497
  orientation: 
    x: -2.97027910587e-05
    y: -3.1139290842e-07
    z: 0.99994428546
    w: -0.0105558084872
---
header: 
  seq: 71963
  stamp: 
    secs: 22287
    nsecs: 168000000
  frame_id: "map"
pose: 
  position: 
    x: 6.02686942335
    y: -0.995481026768
    z: 0.0399999991374
  orientation: 
    x: 7.39163195228e-12
    y: 1.06648991039e-11
    z: 0.999944285913
    w: -0.010555807396
---
header: 
  seq: 71964
  stamp: 
    secs: 22287
    nsecs: 178000000
  frame_id: "map"
pose: 
  position: 
    x: 6.02687106194
    y: -0.995480992364
    z: 0.0399961019596
  orientation: 
    x: 2.04856117654e-05
    y: 2.1177962926e-07
    z: 0.999944285711
    w: -0.0105558066287
---
header: 
  seq: 71965
  stamp: 
    secs: 22287
    nsecs: 188000000
  frame_id: "map"
pose: 
  position: 
    x: 6.02686704684
    y: -0.995481075969
    z: 0.0399940583497
  orientation: 
    x: -2.97027910596e-05
    y: -3.11392821078e-07
    z: 0.999944285491
    w: -0.0105558055464
---
header: 
  seq: 71966
  stamp: 
    secs: 22287
    nsecs: 198000000
  frame_id: "map"
pose: 
  position: 
    x: 6.02686942276
    y: -0.99548102572
    z: 0.0399999991374
  orientation: 
    x: 7.39161893508e-12
    y: 1.06648973183e-11
    z: 0.999944285944
    w: -0.0105558044552
---
header: 
  seq: 71967
  stamp: 
    secs: 22287
    nsecs: 208000000
  frame_id: "map"
pose: 
  position: 
    x: 6.02687106135
    y: -0.995480991316
    z: 0.0399961019596
  orientation: 
    x: 2.0485611766e-05
    y: 2.11779569027e-07
    z: 0.999944285742
    w: -0.0105558036878
---
header: 
  seq: 71968
  stamp: 
    secs: 22287
    nsecs: 218000000
  frame_id: "map"
pose: 
  position: 
    x: 6.02686704625
    y: -0.99548107492
    z: 0.0399940583497
  orientation: 
    x: -2.97027910606e-05
    y: -3.11392733731e-07
    z: 0.999944285522
    w: -0.0105558026055
---
header: 
  seq: 71969
  stamp: 
    secs: 22287
    nsecs: 228000000
  frame_id: "map"
pose: 
  position: 
    x: 6.02686942217
    y: -0.995481024671
    z: 0.0399999991374
  orientation: 
    x: 7.39163950443e-12
    y: 1.06648902506e-11
    z: 0.999944285975
    w: -0.0105558015143
---
header: 
  seq: 71970
  stamp: 
    secs: 22287
    nsecs: 238000000
  frame_id: "map"
pose: 
  position: 
    x: 6.02687106076
    y: -0.995480990267
    z: 0.0399961019596
  orientation: 
    x: 2.04856117666e-05
    y: 2.11779508814e-07
