%time,field.header.seq,field.header.stamp,field.header.frame_id,field.pose.position.x,field.pose.position.y,field.pose.position.z,field.pose.orientation.x,field.pose.orientation.y,field.pose.orientation.z,field.pose.orientation.w
872272000000,21214,872272000000,map,3.36114138767,0.921528918889,0.0399962734571,-9.63080414685e-06,1.59456485593e-05,0.516999415483,0.855985749906
872282000000,21215,872282000000,map,3.36114040711,0.921527117031,0.0399984993269,3.81113957167e-06,-6.4421892213e-06,0.516999267633,0.855985839375
872292000000,21216,872292000000,map,3.36114046043,0.92152780185,0.0399992030732,-3.14274919239e-06,-1.37954394856e-06,0.516999254012,0.855985847628
872302000000,21217,872302000000,map,3.3611419046,0.921528013186,0.0400006780744,3.83606044454e-06,1.55371886624e-05,0.516999226124,0.855985864329
872312000000,21218,872312000000,map,3.36114140866,0.921529008589,0.0399961152605,-1.00396988995e-05,1.66225868721e-05,0.516999214964,0.855985870999
872322000000,21219,872322000000,map,3.3611393949,0.921528582729,0.0399947528724,-1.79767912226e-05,-7.89124707576e-06,0.516999076374,0.8559859547
872332000000,21220,872332000000,map,3.36114032866,0.921527919619,0.0399987768995,-4.825184104e-06,-2.11810495072e-06,0.516999061912,0.855985963643
872342000000,21221,872342000000,map,3.36114080016,0.921527926801,0.0399993109641,-1.94703865548e-06,3.06500567812e-06,0.516999032706,0.855985981291
872352000000,21222,872352000000,map,3.36113984152,0.921527476014,0.0399965180576,-2.82962291816e-06,-1.03769479328e-05,0.516998890759,0.855986066965
872362000000,21223,872362000000,map,3.36113914313,0.9215287807,0.0399948134588,-2.12615171804e-05,-9.33310418837e-06,0.516998871045,0.855986078624
872372000000,21224,872372000000,map,3.36113910191,0.921528807916,0.0399944679845,-2.18356982424e-05,-9.58510650555e-06,0.516998866935,0.85598608109
872382000000,21225,872382000000,map,3.36114080646,0.921527951771,0.0399992551548,-1.75778599289e-06,3.16564827574e-06,0.516998832182,0.855986102405
872392000000,21226,872392000000,map,3.3611419397,0.921526840178,0.0399954453925,1.79767317384e-05,7.89114789666e-06,0.516998693265,0.85598618609
872402000000,21227,872402000000,map,3.36113933647,0.92152866938,0.0399953400199,-1.83927460782e-05,-8.07375800998e-06,0.516998678948,0.855986194727
872412000000,21228,872412000000,map,3.36114135282,0.921529075851,0.03999620791,-9.80022827017e-06,1.62261575887e-05,0.516998651524,0.855986211316
872422000000,21229,872422000000,map,3.36114077139,0.921527971409,0.0399993018741,-1.78921733649e-06,2.765712634e-06,0.516998625556,0.855986227203
872432000000,21230,872432000000,map,3.36114222042,0.921526808384,0.0399949765728,2.05907617922e-05,1.06611769477e-05,0.51699848777,0.855986310116
872442000000,21231,872442000000,map,3.36114057618,0.921527976519,0.0399998876454,-2.55051994168e-06,6.29689250894e-07,0.516998484105,0.855986312639
872452000000,21232,872452000000,map,3.36114132961,0.921529086125,0.0399962734571,-9.6307862824e-06,1.59456592715e-05,0.516998458308,0.855986328022
872462000000,21233,872462000000,map,3.36114034905,0.92152728427,0.0399984993271,3.81113185732e-06,-6.44219247817e-06,0.516998310458,0.85598641749
872472000000,21234,872472000000,map,3.36114040237,0.921527969089,0.0399992030732,-3.14275075466e-06,-1.3795404429e-06,0.516998296837,0.855986425743
872482000000,21235,872482000000,map,3.36114184654,0.921528180422,0.0400006780744,3.83607787318e-06,1.55371845945e-05,0.516998268949,0.855986442444
872492000000,21236,872492000000,map,3.36114135061,0.921529175826,0.0399961152605,-1.00396802415e-05,1.6622597982e-05,0.516998257789,0.855986449113
872502000000,21237,872502000000,map,3.36113933684,0.92152874997,0.0399947528725,-1.7976800561e-05,-7.89122719917e-06,0.516998119199,0.855986532814
872512000000,21238,872512000000,map,3.3611402706,0.921528086858,0.0399987768995,-4.82518647202e-06,-2.11809955494e-06,0.516998104737,0.855986541758
872522000000,21239,872522000000,map,3.3611407421,0.92152809404,0.0399993109641,-1.94703528855e-06,3.0650079384e-06,0.516998075532,0.855986559406
872532000000,21240,872532000000,map,3.36113978346,0.921527643255,0.0399965180573,-2.82963471707e-06,-1.03769455927e-05,0.516997933584,0.855986645079
872542000000,21241,872542000000,map,3.36113908507,0.921528947942,0.0399948134588,-2.12615275677e-05,-9.33308039193e-06,0.51699791387,0.855986656739
872552000000,21242,872552000000,map,3.36113904385,0.921528975158,0.0399944679845,-2.18357092122e-05,-9.58508219907e-06,0.516997909761,0.855986659204
872562000000,21243,872562000000,map,3.3611407484,0.921528119009,0.0399992551548,-1.75778244332e-06,3.1656505879e-06,0.516997875007,0.855986680518
872572000000,21244,872572000000,map,3.36114188164,0.921527007414,0.0399954453924,1.79767410767e-05,7.89112802011e-06,0.516997736091,0.855986764203
872582000000,21245,872582000000,map,3.36113927841,0.921528836621,0.0399953400199,-1.83927551039e-05,-8.0737374419e-06,0.516997721774,0.85598677284
872592000000,21246,872592000000,map,3.36114129477,0.921529243088,0.03999620791,-9.80021008659e-06,1.62261684822e-05,0.51699769435,0.855986789429
872602000000,21247,872602000000,map,3.36114071333,0.921528138648,0.0399993018739,-1.7892145237e-06,2.76571382568e-06,0.516997668382,0.855986805317
872612000000,21248,872612000000,map,3.36114216236,0.921526975619,0.0399949765726,2.05907743091e-05,1.06611542348e-05,0.516997530596,0.855986888229
872622000000,21249,872622000000,map,3.36114051813,0.921528143758,0.0399998876455,-2.55051869143e-06,6.29691968084e-07,0.516997526931,0.855986890753
872632000000,21250,872632000000,map,3.36114127156,0.921529253363,0.0399962734571,-9.63076841798e-06,1.59456699837e-05,0.516997501134,0.855986906135
872642000000,21251,872642000000,map,3.36114029099,0.92152745151,0.0399984993273,3.81112414306e-06,-6.44219573511e-06,0.516997353284,0.855986995603
872652000000,21252,872652000000,map,3.36114034432,0.921528136329,0.0399992030732,-3.14275231685e-06,-1.37953693722e-06,0.516997339663,0.855987003856
872662000000,21253,872662000000,map,3.36114178848,0.921528347658,0.0400006780744,3.83609530175e-06,1.55371805266e-05,0.516997311775,0.855987020557
872672000000,21254,872672000000,map,3.36114129255,0.921529343063,0.0399961152606,-1.00396615836e-05,1.66226090918e-05,0.516997300615,0.855987027226
872682000000,21255,872682000000,map,3.36113927878,0.921528917212,0.0399947528727,-1.79768098994e-05,-7.8912073226e-06,0.516997162025,0.855987110927
872692000000,21256,872692000000,map,3.36114021254,0.921528254098,0.0399987768995,-4.82518884e-06,-2.11809415913e-06,0.516997147563,0.85598711987
872702000000,21257,872702000000,map,3.36114068405,0.921528261279,0.039999310964,-1.94703192167e-06,3.06501019874e-06,0.516997118358,0.855987137518
872712000000,21258,872712000000,map,3.3611397254,0.921527810496,0.039996518057,-2.82964651602e-06,-1.03769432529e-05,0.516996976411,0.855987223191
872722000000,21259,872722000000,map,3.36113902701,0.921529115185,0.0399948134588,-2.1261537955e-05,-9.3330565955e-06,0.516996956696,0.855987234851
872732000000,21260,872732000000,map,3.36113898579,0.921529142401,0.0399944679844,-2.18357201819e-05,-9.58505789255e-06,0.516996952587,0.855987237316
872742000000,21261,872742000000,map,3.36114069035,0.921528286248,0.0399992551548,-1.75777889372e-06,3.16565290003e-06,0.516996917834,0.85598725863
872752000000,21262,872752000000,map,3.36114182357,0.921527174651,0.0399954453922,1.79767504151e-05,7.89110814368e-06,0.516996778917,0.855987342315
872762000000,21263,872762000000,map,3.36113922036,0.921529003864,0.0399953400199,-1.83927641296e-05,-8.07371687385e-06,0.5169967646,0.855987350952
872772000000,21264,872772000000,map,3.36114123671,0.921529410326,0.03999620791,-9.80019190306e-06,1.62261793756e-05,0.516996737176,0.855987367541
872782000000,21265,872782000000,map,3.36114065528,0.921528305887,0.0399993018737,-1.78921171101e-06,2.76571501747e-06,0.516996711209,0.855987383428
872792000000,21266,872792000000,map,3.36114210429,0.921527142855,0.0399949765725,2.0590786826e-05,1.06611315218e-05,0.516996573422,0.855987466341
872802000000,21267,872802000000,map,3.36114046007,0.921528310997,0.0399998876455,-2.55051744112e-06,6.29694685249e-07,0.516996569757,0.855987468864
872812000000,21268,872812000000,map,3.3611412135,0.921529420601,0.0399962734572,-9.63075055361e-06,1.59456806958e-05,0.516996543961,0.855987484246
872822000000,21269,872822000000,map,3.36114023293,0.92152761875,0.0399984993275,3.81111642871e-06,-6.44219899194e-06,0.51699639611,0.855987573714
872832000000,21270,872832000000,map,3.36114028626,0.921528303569,0.0399992030732,-3.14275387909e-06,-1.37953343157e-06,0.51699638249,0.855987581967
872842000000,21271,872842000000,map,3.36114173043,0.921528514895,0.0400006780744,3.83611273034e-06,1.55371764588e-05,0.516996354602,0.855987598667
872852000000,21272,872852000000,map,3.36114123449,0.921529510302,0.0399961152606,-1.00396429256e-05,1.66226202015e-05,0.516996343442,0.855987605337
872862000000,21273,872862000000,map,3.36113922073,0.921529084455,0.0399947528728,-1.79768192378e-05,-7.8911874461e-06,0.516996204852,0.855987689037
872872000000,21274,872872000000,map,3.36114015448,0.921528421339,0.0399987768995,-4.82519120803e-06,-2.11808876337e-06,0.51699619039,0.855987697981
872882000000,21275,872882000000,map,3.36114062599,0.921528428518,0.039999310964,-1.94702855478e-06,3.06501245907e-06,0.516996161185,0.855987715628
872892000000,21276,872892000000,map,3.36113966734,0.921527977738,0.0399965180567,-2.8296583149e-06,-1.03769409129e-05,0.516996019237,0.855987801301
872902000000,21277,872902000000,map,3.36113896896,0.921529282428,0.0399948134588,-2.12615483422e-05,-9.33303279913e-06,0.516995999523,0.855987812961
872912000000,21278,872912000000,map,3.36113892774,0.921529309645,0.0399944679843,-2.18357311516e-05,-9.5850335861e-06,0.516995995414,0.855987815426
872922000000,21279,872922000000,map,3.36114063229,0.921528453488,0.0399992551548,-1.75777534415e-06,3.16565521216e-06,0.516995960661,0.85598783674
872932000000,21280,872932000000,map,3.36114176551,0.921527341888,0.0399954453921,1.79767597533e-05,7.89108826721e-06,0.516995821744,0.855987920425
872942000000,21281,872942000000,map,3.3611391623,0.921529171107,0.0399953400199,-1.83927731553e-05,-8.07369630583e-06,0.516995807427,0.855987929062
872952000000,21282,872952000000,map,3.36114117865,0.921529577564,0.03999620791,-9.80017371952e-06,1.6226190269e-05,0.516995780004,0.855987945651
872962000000,21283,872962000000,map,3.36114059722,0.921528473127,0.0399993018736,-1.78920889829e-06,2.76571620924e-06,0.516995754036,0.855987961538
872972000000,21284,872972000000,map,3.36114204623,0.921527310092,0.0399949765723,2.05907993428e-05,1.0661108809e-05,0.516995616249,0.85598804445
872982000000,21285,872982000000,map,3.36114040201,0.921528478238,0.0399998876455,-2.5505161909e-06,6.29697402433e-07,0.516995612585,0.855988046973
872992000000,21286,872992000000,map,3.36114115545,0.92152958784,0.0399962734572,-9.63073268921e-06,1.59456914079e-05,0.516995586788,0.855988062355
873002000000,21287,873002000000,map,3.36114017487,0.921527785991,0.0399984993277,3.81110871443e-06,-6.44220224883e-06,0.516995438938,0.855988151823
873012000000,21288,873012000000,map,3.3611402282,0.92152847081,0.0399992030732,-3.1427554413e-06,-1.3795299259e-06,0.516995425317,0.855988160076
873022000000,21289,873022000000,map,3.36114167237,0.921528682133,0.0400006780744,3.83613015886e-06,1.5537172391e-05,0.516995397429,0.855988176776
873032000000,21290,873032000000,map,3.36114117644,0.92152967754,0.0399961152606,-1.00396242677e-05,1.66226313112e-05,0.51699538627,0.855988183446
873042000000,21291,873042000000,map,3.36113916267,0.921529251698,0.0399947528729,-1.79768285762e-05,-7.89116756957e-06,0.516995247679,0.855988267146
873052000000,21292,873052000000,map,3.36114009643,0.92152858858,0.0399987768995,-4.82519357603e-06,-2.11808336758e-06,0.516995233218,0.855988276089
873062000000,21293,873062000000,map,3.36114056793,0.921528595759,0.039999310964,-1.94702518788e-06,3.06501471934e-06,0.516995204013,0.855988293737
873072000000,21294,873072000000,map,3.36113960928,0.92152814498,0.0399965180565,-2.82967011372e-06,-1.0376938573e-05,0.516995062065,0.85598837941
873082000000,21295,873082000000,map,3.3611389109,0.921529449672,0.0399948134588,-2.12615587295e-05,-9.33300900278e-06,0.516995042351,0.855988391069
873092000000,21296,873092000000,map,3.36113886968,0.921529476889,0.0399944679843,-2.18357421212e-05,-9.58500927965e-06,0.516995038241,0.855988393534
873102000000,21297,873102000000,map,3.36114057423,0.921528620729,0.0399992551548,-1.75777179458e-06,3.1656575243e-06,0.516995003489,0.855988414848
873112000000,21298,873112000000,map,3.36114170745,0.921527509126,0.039995445392,1.79767690915e-05,7.89106839076e-06,0.516994864572,0.855988498533
873122000000,21299,873122000000,map,3.36113910424,0.921529338351,0.03999534002,-1.83927821809e-05,-8.07367573781e-06,0.516994850255,0.85598850717
873132000000,21300,873132000000,map,3.3611411206,0.921529744804,0.0399962079101,-9.80015553602e-06,1.62262011623e-05,0.516994822832,0.855988523758
873142000000,21301,873142000000,map,3.36114053916,0.921528640368,0.0399993018734,-1.78920608557e-06,2.76571740099e-06,0.516994796864,0.855988539645
873152000000,21302,873152000000,map,3.36114198817,0.921527477329,0.0399949765722,2.05908118596e-05,1.06610860961e-05,0.516994659078,0.855988622557
873162000000,21303,873162000000,map,3.36114034395,0.921528645479,0.0399998876455,-2.55051494063e-06,6.29700119587e-07,0.516994655413,0.855988625081
873172000000,21304,873172000000,map,3.36114109739,0.921529755079,0.0399962734572,-9.63071482479e-06,1.59457021199e-05,0.516994629617,0.855988640462
873182000000,21305,873182000000,map,3.36114011681,0.921527953233,0.039998499328,3.81110100023e-06,-6.44220550578e-06,0.516994481766,0.85598872993
873192000000,21306,873192000000,map,3.36114017014,0.921528638052,0.0399992030732,-3.14275700355e-06,-1.37952642026e-06,0.516994468145,0.855988738183
873202000000,21307,873202000000,map,3.36114161431,0.921528849372,0.0400006780744,3.83614758736e-06,1.5537168323e-05,0.516994440258,0.855988754883
873212000000,21308,873212000000,map,3.36114111838,0.92152984478,0.0399961152606,-1.00396056098e-05,1.66226424209e-05,0.516994429099,0.855988761552
873222000000,21309,873222000000,map,3.36113910461,0.921529418942,0.039994752873,-1.79768379145e-05,-7.89114769311e-06,0.516994290508,0.855988845253
873232000000,21310,873232000000,map,3.36114003837,0.921528755822,0.0399987768995,-4.82519594397e-06,-2.1180779718e-06,0.516994276046,0.855988854196
873242000000,21311,873242000000,map,3.36114050987,0.921528763,0.039999310964,-1.947021821e-06,3.06501697965e-06,0.516994246841,0.855988871843
873252000000,21312,873252000000,map,3.36113955122,0.921528312223,0.0399965180562,-2.8296819126e-06,-1.03769362331e-05,0.516994104894,0.855988957516
873262000000,21313,873262000000,map,3.36113885284,0.921529616917,0.0399948134588,-2.12615691166e-05,-9.33298520643e-06,0.51699408518,0.855988969175
873272000000,21314,873272000000,map,3.36113881163,0.921529644134,0.0399944679842,-2.18357530908e-05,-9.58498497324e-06,0.51699408107,0.85598897164
873282000000,21315,873282000000,map,3.36114051617,0.92152878797,0.0399992551548,-1.75776824498e-06,3.1656598364e-06,0.516994046318,0.855988992954
873292000000,21316,873292000000,map,3.36114164939,0.921527676365,0.0399954453919,1.79767784297e-05,7.89104851436e-06,0.516993907401,0.855989076639
873302000000,21317,873302000000,map,3.36113904619,0.921529505595,0.03999534002,-1.83927912064e-05,-8.07365516984e-06,0.516993893084,0.855989085275
873312000000,21318,873312000000,map,3.36114106254,0.921529912044,0.0399962079101,-9.8001373525e-06,1.62262120556e-05,0.516993865661,0.855989101864
873322000000,21319,873322000000,map,3.3611404811,0.921528807609,0.0399993018732,-1.78920327278e-06,2.7657185926e-06,0.516993839693,0.855989117751
873332000000,21320,873332000000,map,3.36114193011,0.921527644567,0.039994976572,2.05908243764e-05,1.06610633832e-05,0.516993701906,0.855989200663
873342000000,21321,873342000000,map,3.36114028589,0.921528812721,0.0399998876455,-2.55051369035e-06,6.29702836737e-07,0.516993698242,0.855989203186
873352000000,21322,873352000000,map,3.36114103934,0.92152992232,0.0399962734572,-9.63069696044e-06,1.59457128319e-05,0.516993672446,0.855989218568
873362000000,21323,873362000000,map,3.36114005875,0.921528120475,0.0399984993282,3.81109328601e-06,-6.4422087627e-06,0.516993524595,0.855989308035
873372000000,21324,873372000000,map,3.36114011208,0.921528805294,0.0399992030732,-3.14275856573e-06,-1.37952291461e-06,0.516993510974,0.855989316288
873382000000,21325,873382000000,map,3.36114155625,0.921529016611,0.0400006780744,3.8361650158e-06,1.55371642551e-05,0.516993483087,0.855989332988
873392000000,21326,873392000000,map,3.36114106033,0.92153001202,0.0399961152607,-1.00395869519e-05,1.66226535306e-05,0.516993471928,0.855989339657
873402000000,21327,873402000000,map,3.36113904656,0.921529586187,0.0399947528732,-1.79768472527e-05,-7.89112781658e-06,0.516993333337,0.855989423357
873412000000,21328,873412000000,map,3.36113998031,0.921528923065,0.0399987768995,-4.82519831195e-06,-2.11807257603e-06,0.516993318876,0.855989432301
873422000000,21329,873422000000,map,3.36114045181,0.921528930241,0.039999310964,-1.9470184541e-06,3.06501923995e-06,0.516993289671,0.855989449948
873432000000,21330,873432000000,map,3.36113949316,0.921528479467,0.0399965180559,-2.82969371154e-06,-1.03769338932e-05,0.516993147723,0.85598953562
873442000000,21331,873442000000,map,3.36113879479,0.921529784163,0.0399948134588,-2.12615795037e-05,-9.33296141013e-06,0.516993128009,0.85598954728
873452000000,21332,873452000000,map,3.36113875357,0.921529811379,0.0399944679842,-2.18357640604e-05,-9.58496066684e-06,0.5169931239,0.855989549745
873462000000,21333,873462000000,map,3.36114045811,0.921528955212,0.0399992551548,-1.75776469542e-06,3.16566214852e-06,0.516993089148,0.855989571058
873472000000,21334,873472000000,map,3.36114159133,0.921527843604,0.0399954453917,1.79767877678e-05,7.89102863794e-06,0.516992950231,0.855989654743
873482000000,21335,873482000000,map,3.36113898813,0.92152967284,0.03999534002,-1.8392800232e-05,-8.07363460189e-06,0.516992935913,0.855989663379
873492000000,21336,873492000000,map,3.36114100449,0.921530079285,0.0399962079101,-9.80011916902e-06,1.62262229489e-05,0.516992908491,0.855989679968
873502000000,21337,873502000000,map,3.36114042304,0.921528974851,0.039999301873,-1.78920046005e-06,2.76571978433e-06,0.516992882523,0.855989695855
873512000000,21338,873512000000,map,3.36114187205,0.921527811806,0.0399949765719,2.05908368931e-05,1.06610406704e-05,0.516992744736,0.855989778766
873522000000,21339,873522000000,map,3.36114022784,0.921528979963,0.0399998876456,-2.55051244003e-06,6.29705553883e-07,0.516992741072,0.85598978129
873532000000,21340,873532000000,map,3.36114098128,0.92153008956,0.0399962734572,-9.63067909611e-06,1.59457235439e-05,0.516992715276,0.855989796671
873542000000,21341,873542000000,map,3.36114000069,0.921528287719,0.0399984993284,3.81108557173e-06,-6.44221201952e-06,0.516992567425,0.855989886138
873552000000,21342,873552000000,map,3.36114005403,0.921528972537,0.0399992030732,-3.14276012795e-06,-1.37951940898e-06,0.516992553804,0.855989894391
873562000000,21343,873562000000,map,3.3611414982,0.921529183851,0.0400006780745,3.83618244427e-06,1.55371601873e-05,0.516992525917,0.855989911091
873572000000,21344,873572000000,map,3.36114100227,0.921530179261,0.0399961152607,-1.0039568294e-05,1.66226646401e-05,0.516992514758,0.85598991776
873582000000,21345,873582000000,map,3.3611389885,0.921529753433,0.0399947528733,-1.7976856591e-05,-7.89110794017e-06,0.516992376167,0.85599000146
873592000000,21346,873592000000,map,3.36113992225,0.921529090308,0.0399987768995,-4.82520067987e-06,-2.11806718027e-06,0.516992361706,0.855990010403
873602000000,21347,873602000000,map,3.36114039376,0.921529097484,0.0399993109639,-1.94701508722e-06,3.06502150025e-06,0.516992332501,0.85599002805
873612000000,21348,873612000000,map,3.36113943511,0.921528646712,0.0399965180556,-2.82970551028e-06,-1.03769315531e-05,0.516992190554,0.855990113723
873622000000,21349,873622000000,map,3.36113873673,0.921529951409,0.0399948134588,-2.12615898907e-05,-9.33293761381e-06,0.51699217084,0.855990125382
873632000000,21350,873632000000,map,3.36113869551,0.921529978626,0.0399944679841,-2.18357750299e-05,-9.58493636047e-06,0.51699216673,0.855990127847
873642000000,21351,873642000000,map,3.36114040006,0.921529122454,0.0399992551548,-1.75776114584e-06,3.16566446063e-06,0.516992131978,0.85599014916
873652000000,21352,873652000000,map,3.36114153327,0.921528010844,0.0399954453916,1.79767971059e-05,7.89100876157e-06,0.516991993061,0.855990232845
873662000000,21353,873662000000,map,3.36113893008,0.921529840086,0.03999534002,-1.83928092575e-05,-8.07361403394e-06,0.516991978744,0.855990241481
873672000000,21354,873672000000,map,3.36114094643,0.921530246526,0.0399962079101,-9.80010098556e-06,1.62262338421e-05,0.516991951321,0.855990258069
873682000000,21355,873682000000,map,3.36114036499,0.921529142094,0.0399993018729,-1.78919764731e-06,2.76572097608e-06,0.516991925354,0.855990273956
873692000000,21356,873692000000,map,3.36114181399,0.921527979046,0.0399949765717,2.05908494097e-05,1.06610179575e-05,0.516991787567,0.855990356868
873702000000,21357,873702000000,map,3.36114016978,0.921529147206,0.0399998876456,-2.55051118968e-06,6.29708271009e-07,0.516991783902,0.855990359391
873712000000,21358,873712000000,map,3.36114092323,0.921530256802,0.0399962734572,-9.63066123178e-06,1.59457342558e-05,0.516991758107,0.855990374772
873722000000,21359,873722000000,map,3.36113994263,0.921528454963,0.0399984993286,3.81107785751e-06,-6.44221527636e-06,0.516991610256,0.855990464239
873732000000,21360,873732000000,map,3.36113999597,0.921529139781,0.0399992030731,-3.14276169016e-06,-1.37951590334e-06,0.516991596635,0.855990472492
873742000000,21361,873742000000,map,3.36114144014,0.921529351091,0.0400006780745,3.83619987268e-06,1.55371561194e-05,0.516991568748,0.855990489192
873752000000,21362,873752000000,map,3.36114094422,0.921530346503,0.0399961152607,-1.00395496361e-05,1.66226757497e-05,0.51699155759,0.855990495861
873762000000,21363,873762000000,map,3.36113893045,0.921529920679,0.0399947528734,-1.79768659291e-05,-7.8910880637e-06,0.516991418998,0.855990579561
873772000000,21364,873772000000,map,3.3611398642,0.921529257552,0.0399987768995,-4.82520304784e-06,-2.11806178452e-06,0.516991404537,0.855990588504
873782000000,21365,873782000000,map,3.3611403357,0.921529264727,0.0399993109639,-1.94701172035e-06,3.06502376051e-06,0.516991375333,0.855990606151
873792000000,21366,873792000000,map,3.36113937705,0.921528813957,0.0399965180553,-2.8297173091e-06,-1.03769292132e-05,0.516991233385,0.855990691823
873802000000,21367,873802000000,map,3.36113867868,0.921530118656,0.0399948134589,-2.12616002777e-05,-9.33291381757e-06,0.516991213671,0.855990703482
873812000000,21368,873812000000,map,3.36113863746,0.921530145873,0.039994467984,-2.18357859993e-05,-9.58491205413e-06,0.516991209561,0.855990705947
873822000000,21369,873822000000,map,3.361140342,0.921529289698,0.0399992551549,-1.75775759627e-06,3.1656667727e-06,0.51699117481,0.85599072726
873832000000,21370,873832000000,map,3.36114147521,0.921528178085,0.0399954453915,1.7976806444e-05,7.89098888519e-06,0.516991035893,0.855990810944
873842000000,21371,873842000000,map,3.36113887202,0.921530007333,0.03999534002,-1.8392818283e-05,-8.07359346605e-06,0.516991021575,0.855990819581
873852000000,21372,873852000000,map,3.36114088838,0.921530413768,0.0399962079101,-9.8000828021e-06,1.62262447353e-05,0.516990994153,0.855990836169
873862000000,21373,873862000000,map,3.36114030693,0.921529309337,0.0399993018727,-1.78919483458e-06,2.76572216784e-06,0.516990968186,0.855990852056
873872000000,21374,873872000000,map,3.36114175593,0.921528146286,0.0399949765716,2.05908619262e-05,1.06609952446e-05,0.516990830398,0.855990934967
873882000000,21375,873882000000,map,3.36114011172,0.92152931445,0.0399998876456,-2.5505099394e-06,6.29710988142e-07,0.516990826734,0.855990937491
873892000000,21376,873892000000,map,3.36114086517,0.921530424044,0.0399962734572,-9.63064336748e-06,1.59457449678e-05,0.516990800939,0.855990952872
873902000000,21377,873902000000,map,3.36113988458,0.921528622207,0.0399984993289,3.81107014323e-06,-6.44221853314e-06,0.516990653088,0.855991042339
873912000000,21378,873912000000,map,3.36113993791,0.921529307025,0.0399992030731,-3.14276325233e-06,-1.3795123977e-06,0.516990639467,0.855991050591
873922000000,21379,873922000000,map,3.36114138208,0.921529518333,0.0400006780745,3.83621730102e-06,1.55371520514e-05,0.51699061158,0.855991067291
873932000000,21380,873932000000,map,3.36114088616,0.921530513745,0.0399961152607,-1.00395309783e-05,1.66226868592e-05,0.516990600422,0.85599107396
873942000000,21381,873942000000,map,3.36113887239,0.921530087926,0.0399947528736,-1.79768752672e-05,-7.89106818725e-06,0.51699046183,0.855991157659
873952000000,21382,873952000000,map,3.36113980614,0.921529424797,0.0399987768995,-4.82520541577e-06,-2.11805638876e-06,0.516990447369,0.855991166603
873962000000,21383,873962000000,map,3.36114027764,0.921529431971,0.0399993109639,-1.94700835343e-06,3.06502602075e-06,0.516990418165,0.855991184249
873972000000,21384,873972000000,map,3.36113931899,0.921528981203,0.0399965180551,-2.82972910795e-06,-1.03769268732e-05,0.516990276217,0.855991269921
873982000000,21385,873982000000,map,3.36113862062,0.921530285903,0.0399948134589,-2.12616106647e-05,-9.33289002131e-06,0.516990256503,0.855991281581
873992000000,21386,873992000000,map,3.36113857941,0.921530313121,0.039994467984,-2.18357969687e-05,-9.58488774778e-06,0.516990252393,0.855991284045
874002000000,21387,874002000000,map,3.36114028394,0.921529456942,0.0399992551549,-1.75775404671e-06,3.16566908482e-06,0.516990217642,0.855991305358
874012000000,21388,874012000000,map,3.36114141716,0.921528345326,0.0399954453913,1.79768157819e-05,7.8909690088e-06,0.516990078725,0.855991389042
874022000000,21389,874022000000,map,3.36113881397,0.92153017458,0.03999534002,-1.83928273084e-05,-8.07357289815e-06,0.516990064407,0.855991397679
874032000000,21390,874032000000,map,3.36114083033,0.921530581011,0.0399962079101,-9.80006461867e-06,1.62262556284e-05,0.516990036985,0.855991414267
874042000000,21391,874042000000,map,3.36114024887,0.921529476581,0.0399993018725,-1.78919202176e-06,2.7657233595e-06,0.516990011018,0.855991430154
874052000000,21392,874052000000,map,3.36114169787,0.921528313527,0.0399949765714,2.05908744429e-05,1.0660972532e-05,0.516989873231,0.855991513065
874062000000,21393,874062000000,map,3.36114005367,0.921529481695,0.0399998876456,-2.55050868922e-06,6.29713705293e-07,0.516989869566,0.855991515588
874072000000,21394,874072000000,map,3.36114080712,0.921530591288,0.0399962734572,-9.63062550319e-06,1.59457556796e-05,0.516989843771,0.855991530969
874082000000,21395,874082000000,map,3.36113982652,0.921528789453,0.0399984993291,3.81106242897e-06,-6.44222178988e-06,0.51698969592,0.855991620436
874092000000,21396,874092000000,map,3.36113987986,0.92152947427,0.0399992030731,-3.1427648145e-06,-1.37950889205e-06,0.516989682299,0.855991628688
874102000000,21397,874102000000,map,3.36114132403,0.921529685575,0.0400006780745,3.83623472939e-06,1.55371479835e-05,0.516989654413,0.855991645388
874112000000,21398,874112000000,map,3.36114082811,0.921530680988,0.0399961152608,-1.00395123204e-05,1.66226979687e-05,0.516989643254,0.855991652057
874122000000,21399,874122000000,map,3.36113881434,0.921530255174,0.0399947528737,-1.79768846054e-05,-7.89104831088e-06,0.516989504663,0.855991735756
874132000000,21400,874132000000,map,3.36113974808,0.921529592043,0.0399987768995,-4.8252077836e-06,-2.11805099298e-06,0.516989490201,0.855991744699
874142000000,21401,874142000000,map,3.36114021959,0.921529599216,0.0399993109639,-1.94700498659e-06,3.06502828108e-06,0.516989460998,0.855991762346
874152000000,21402,874152000000,map,3.36113926093,0.92152914845,0.0399965180548,-2.8297409067e-06,-1.03769245331e-05,0.51698931905,0.855991848018
874162000000,21403,874162000000,map,3.36113856257,0.921530453152,0.0399948134589,-2.12616210517e-05,-9.33286622513e-06,0.516989299336,0.855991859677
874172000000,21404,874172000000,map,3.36113852135,0.921530480369,0.0399944679839,-2.1835807938e-05,-9.58486344149e-06,0.516989295226,0.855991862142
874182000000,21405,874182000000,map,3.36114022589,0.921529624186,0.0399992551549,-1.75775049714e-06,3.1656713969e-06,0.516989260475,0.855991883455
874192000000,21406,874192000000,map,3.3611413591,0.921528512568,0.0399954453912,1.79768251199e-05,7.89094913251e-06,0.516989121558,0.855991967138
874202000000,21407,874202000000,map,3.36113875591,0.921530341828,0.03999534002,-1.83928363338e-05,-8.07355233027e-06,0.51698910724,0.855991975775
874212000000,21408,874212000000,map,3.36114077227,0.921530748255,0.0399962079102,-9.80004643523e-06,1.62262665216e-05,0.516989079819,0.855991992363
874222000000,21409,874222000000,map,3.36114019082,0.921529643826,0.0399993018723,-1.78918920901e-06,2.76572455124e-06,0.516989053852,0.855992008249
874232000000,21410,874232000000,map,3.36114163982,0.921528480769,0.0399949765713,2.05908869594e-05,1.06609498191e-05,0.516988916064,0.85599209116
874242000000,21411,874242000000,map,3.36113999561,0.92152964894,0.0399998876457,-2.55050743891e-06,6.29716422407e-07,0.516988912399,0.855992093684
874252000000,21412,874252000000,map,3.36114074906,0.921530758531,0.0399962734573,-9.63060763887e-06,1.59457663914e-05,0.516988886605,0.855992109064
874262000000,21413,874262000000,map,3.36113976846,0.921528956699,0.0399984993293,3.81105471487e-06,-6.44222504684e-06,0.516988738754,0.855992198531
874272000000,21414,874272000000,map,3.3611398218,0.921529641516,0.0399992030731,-3.14276637668e-06,-1.37950538642e-06,0.516988725133,0.855992206783
874282000000,21415,874282000000,map,3.36114126597,0.921529852817,0.0400006780745,3.83625215773e-06,1.55371439157e-05,0.516988697246,0.855992223483
874292000000,21416,874292000000,map,3.36114077006,0.921530848232,0.0399961152608,-1.00394936626e-05,1.66227090781e-05,0.516988686088,0.855992230152
874302000000,21417,874302000000,map,3.36113875628,0.921530422422,0.0399947528738,-1.79768939435e-05,-7.8910284345e-06,0.516988547497,0.855992313851
874312000000,21418,874312000000,map,3.36113969003,0.921529759289,0.0399987768995,-4.82521015152e-06,-2.11804559723e-06,0.516988533035,0.855992322794
874322000000,21419,874322000000,map,3.36114016153,0.921529766461,0.0399993109638,-1.94700161976e-06,3.0650305414e-06,0.516988503831,0.855992340441
874332000000,21420,874332000000,map,3.36113920288,0.921529315698,0.0399965180545,-2.82975270539e-06,-1.03769221931e-05,0.516988361883,0.855992426112
874342000000,21421,874342000000,map,3.36113850451,0.921530620401,0.0399948134589,-2.12616314385e-05,-9.33284242891e-06,0.516988342169,0.855992437771
874352000000,21422,874352000000,map,3.3611384633,0.921530647618,0.0399944679838,-2.18358189074e-05,-9.58483913525e-06,0.51698833806,0.855992440236
874362000000,21423,874362000000,map,3.36114016783,0.921529791432,0.0399992551549,-1.75774694755e-06,3.16567370894e-06,0.516988303309,0.855992461549
874372000000,21424,874372000000,map,3.36114130104,0.921528679811,0.0399954453911,1.79768344579e-05,7.89092925617e-06,0.516988164392,0.855992545232
874382000000,21425,874382000000,map,3.36113869786,0.921530509077,0.03999534002,-1.83928453592e-05,-8.07353176244e-06,0.516988150074,0.855992553869
874392000000,21426,874392000000,map,3.36114071422,0.921530915499,0.0399962079102,-9.80002825184e-06,1.62262774146e-05,0.516988122653,0.855992570457
874402000000,21427,874402000000,map,3.36114013276,0.921529811072,0.0399993018722,-1.7891863962e-06,2.76572574289e-06,0.516988096686,0.855992586343
874412000000,21428,874412000000,map,3.36114158176,0.921528648011,0.0399949765712,2.05908994759e-05,1.06609271064e-05,0.516987958898,0.855992669254
874422000000,21429,874422000000,map,3.36113993755,0.921529816186,0.0399998876457,-2.55050618857e-06,6.29719139514e-07,0.516987955234,0.855992671777
874432000000,21430,874432000000,map,3.36114069101,0.921530925776,0.0399962734573,-9.63058977461e-06,1.59457771032e-05,0.516987929439,0.855992687158
874442000000,21431,874442000000,map,3.3611397104,0.921529123945,0.0399984993295,3.81104700067e-06,-6.44222830363e-06,0.516987781588,0.855992776624
874452000000,21432,874452000000,map,3.36113976374,0.921529808763,0.0399992030731,-3.14276793884e-06,-1.3795018808e-06,0.516987767967,0.855992784877
874462000000,21433,874462000000,map,3.36114120792,0.921530020061,0.0400006780745,3.83626958603e-06,1.55371398477e-05,0.516987740081,0.855992801576
874472000000,21434,874472000000,map,3.361140712,0.921531015477,0.0399961152608,-1.00394750048e-05,1.66227201875e-05,0.516987728923,0.855992808245
874482000000,21435,874482000000,map,3.36113869823,0.921530589671,0.039994752874,-1.79769032815e-05,-7.89100855815e-06,0.516987590331,0.855992891944
874492000000,21436,874492000000,map,3.36113963197,0.921529926536,0.0399987768995,-4.82521251948e-06,-2.11804020153e-06,0.516987575869,0.855992900887
874502000000,21437,874502000000,map,3.36114010348,0.921529933707,0.0399993109638,-1.94699825284e-06,3.06503280156e-06,0.516987546666,0.855992918533
874512000000,21438,874512000000,map,3.36113914482,0.921529482946,0.0399965180542,-2.82976450412e-06,-1.03769198531e-05,0.516987404718,0.855993004205
874522000000,21439,874522000000,map,3.36113844646,0.92153078765,0.0399948134589,-2.12616418254e-05,-9.33281863276e-06,0.516987385004,0.855993015864
874532000000,21440,874532000000,map,3.36113840524,0.921530814868,0.0399944679838,-2.18358298767e-05,-9.58481482899e-06,0.516987380894,0.855993018329
874542000000,21441,874542000000,map,3.36114010978,0.921529958678,0.0399992551549,-1.75774339799e-06,3.16567602102e-06,0.516987346144,0.855993039641
874552000000,21442,874552000000,map,3.36114124298,0.921528847055,0.0399954453909,1.79768437958e-05,7.89090937989e-06,0.516987207226,0.855993123324
874562000000,21443,874562000000,map,3.3611386398,0.921530676326,0.03999534002,-1.83928543845e-05,-8.07351119462e-06,0.516987192909,0.855993131961
874572000000,21444,874572000000,map,3.36114065617,0.921531082744,0.0399962079102,-9.80001006845e-06,1.62262883077e-05,0.516987165488,0.855993148548
874582000000,21445,874582000000,map,3.3611400747,0.921529978318,0.039999301872,-1.78918358347e-06,2.76572693459e-06,0.516987139521,0.855993164435
874592000000,21446,874592000000,map,3.3611415237,0.921528815254,0.039994976571,2.05909119923e-05,1.06609043937e-05,0.516987001733,0.855993247346
874602000000,21447,874602000000,map,3.3611398795,0.921529983433,0.0399998876457,-2.55050493832e-06,6.29721856627e-07,0.516986998068,0.855993249869
874612000000,21448,874612000000,map,3.36114063296,0.921531093021,0.0399962734573,-9.63057191039e-06,1.5945787815e-05,0.516986972274,0.855993265249
874622000000,21449,874622000000,map,3.36113965235,0.921529291193,0.0399984993297,3.81103928638e-06,-6.44223156031e-06,0.516986824423,0.855993354716
874632000000,21450,874632000000,map,3.36113970569,0.92152997601,0.0399992030731,-3.14276950103e-06,-1.37949837519e-06,0.516986810802,0.855993362968
874642000000,21451,874642000000,map,3.36114114986,0.921530187305,0.0400006780745,3.83628701432e-06,1.55371357799e-05,0.516986782916,0.855993379667
874652000000,21452,874652000000,map,3.36114065395,0.921531182722,0.0399961152609,-1.0039456347e-05,1.66227312969e-05,0.516986771758,0.855993386336
874662000000,21453,874662000000,map,3.36113864017,0.921530756921,0.0399947528741,-1.79769126195e-05,-7.89098868178e-06,0.516986633166,0.855993470035
874672000000,21454,874672000000,map,3.36113957392,0.921530093784,0.0399987768995,-4.82521488735e-06,-2.1180348058e-06,0.516986618704,0.855993478978
874682000000,21455,874682000000,map,3.36114004542,0.921530100954,0.0399993109638,-1.94699488602e-06,3.0650350619e-06,0.516986589502,0.855993496624
874692000000,21456,874692000000,map,3.36113908676,0.921529650195,0.039996518054,-2.82977630281e-06,-1.0376917513e-05,0.516986447553,0.855993582295
874702000000,21457,874702000000,map,3.36113838841,0.921530954901,0.0399948134589,-2.12616522121e-05,-9.33279483661e-06,0.516986427839,0.855993593954
874712000000,21458,874712000000,map,3.36113834719,0.921530982119,0.0399944679837,-2.18358408459e-05,-9.58479052278e-06,0.51698642373,0.855993596419
874722000000,21459,874722000000,map,3.36114005172,0.921530125925,0.0399992551549,-1.75773984842e-06,3.16567833307e-06,0.51698638898,0.855993617731
874732000000,21460,874732000000,map,3.36114118492,0.921529014299,0.0399954453908,1.79768531337e-05,7.89088950363e-06,0.516986250062,0.855993701415
874742000000,21461,874742000000,map,3.36113858175,0.921530843576,0.03999534002,-1.83928634098e-05,-8.07349062681e-06,0.516986235745,0.855993710051
874752000000,21462,874752000000,map,3.36114059811,0.92153124999,0.0399962079102,-9.79999188507e-06,1.62262992007e-05,0.516986208323,0.855993726638
874762000000,21463,874762000000,map,3.36114001665,0.921530145565,0.0399993018718,-1.7891807707e-06,2.76572812623e-06,0.516986182357,0.855993742525
874772000000,21464,874772000000,map,3.36114146564,0.921528982498,0.0399949765709,2.05909245086e-05,1.0660881681e-05,0.516986044569,0.855993825435
874782000000,21465,874782000000,map,3.36113982144,0.92153015068,0.0399998876457,-2.55050368807e-06,6.29724573734e-07,0.516986040904,0.855993827959
874792000000,21466,874792000000,map,3.3611405749,0.921531260267,0.0399962734573,-9.63055404615e-06,1.59457985267e-05,0.51698601511,0.855993843339
874802000000,21467,874802000000,map,3.36113959429,0.921529458441,0.03999849933,3.81103157224e-06,-6.44223481713e-06,0.516985867259,0.855993932805
874812000000,21468,874812000000,map,3.36113964763,0.921530143258,0.0399992030731,-3.14277106316e-06,-1.37949486956e-06,0.516985853638,0.855993941057
874822000000,21469,874822000000,map,3.36114109181,0.92153035455,0.0400006780745,3.83630444251e-06,1.55371317118e-05,0.516985825752,0.855993957756
874832000000,21470,874832000000,map,3.3611405959,0.921531349968,0.0399961152609,-1.00394376892e-05,1.66227424062e-05,0.516985814594,0.855993964425
874842000000,21471,874842000000,map,3.36113858212,0.921530924171,0.0399947528742,-1.79769219574e-05,-7.8909688054e-06,0.516985676002,0.855994048124
874852000000,21472,874852000000,map,3.36113951586,0.921530261032,0.0399987768995,-4.8252172552e-06,-2.11802941004e-06,0.516985661541,0.855994057067
874862000000,21473,874862000000,map,3.36113998737,0.921530268201,0.0399993109638,-1.94699151914e-06,3.0650373221e-06,0.516985632338,0.855994074713
874872000000,21474,874872000000,map,3.36113902871,0.921529817444,0.0399965180537,-2.8297881015e-06,-1.0376915173e-05,0.516985490389,0.855994160384
874882000000,21475,874882000000,map,3.36113833035,0.921531122152,0.0399948134589,-2.12616625989e-05,-9.33277104052e-06,0.516985470676,0.855994172043
874892000000,21476,874892000000,map,3.36113828914,0.92153114937,0.0399944679836,-2.18358518151e-05,-9.58476621656e-06,0.516985466566,0.855994174507
874902000000,21477,874902000000,map,3.36113999367,0.921530293172,0.0399992551549,-1.75773629889e-06,3.16568064518e-06,0.516985431816,0.855994195819
874912000000,21478,874912000000,map,3.36114112686,0.921529181544,0.0399954453907,1.79768624715e-05,7.8908696274e-06,0.516985292898,0.855994279503
874922000000,21479,874922000000,map,3.3611385237,0.921531010827,0.03999534002,-1.83928724351e-05,-8.07347005903e-06,0.516985278581,0.855994288139
874932000000,21480,874932000000,map,3.36114054006,0.921531417236,0.0399962079102,-9.79997370171e-06,1.62263100936e-05,0.51698525116,0.855994304726
874942000000,21481,874942000000,map,3.36113995859,0.921530312813,0.0399993018716,-1.78917795796e-06,2.76572931797e-06,0.516985225194,0.855994320612
874952000000,21482,874952000000,map,3.36114140758,0.921529149742,0.0399949765707,2.05909370249e-05,1.06608589683e-05,0.516985087405,0.855994403523
874962000000,21483,874962000000,map,3.36113976339,0.921530317929,0.0399998876458,-2.55050243776e-06,6.29727290831e-07,0.516985083741,0.855994406046
874972000000,21484,874972000000,map,3.36114051685,0.921531427513,0.0399962734573,-9.63053618192e-06,1.59458092384e-05,0.516985057947,0.855994421426
874982000000,21485,874982000000,map,3.36113953623,0.92152962569,0.0399984993302,3.81102385812e-06,-6.44223807394e-06,0.516984910096,0.855994510892
874992000000,21486,874992000000,map,3.36113958958,0.921530310507,0.0399992030731,-3.14277262529e-06,-1.37949136393e-06,0.516984896475,0.855994519144
875002000000,21487,875002000000,map,3.36114103375,0.921530521795,0.0400006780745,3.83632187069e-06,1.55371276438e-05,0.516984868589,0.855994535843
875012000000,21488,875012000000,map,3.36114053785,0.921531517215,0.0399961152609,-1.00394190315e-05,1.66227535156e-05,0.516984857431,0.855994542512
875022000000,21489,875022000000,map,3.36113852407,0.921531091423,0.0399947528744,-1.79769312954e-05,-7.89094892918e-06,0.516984718839,0.855994626211
875032000000,21490,875032000000,map,3.36113945781,0.921530428281,0.0399987768995,-4.82521962308e-06,-2.11802401434e-06,0.516984704377,0.855994635154
875042000000,21491,875042000000,map,3.36113992931,0.921530435449,0.0399993109638,-1.94698815227e-06,3.06503958232e-06,0.516984675175,0.855994652799
875052000000,21492,875052000000,map,3.36113897065,0.921529984694,0.0399965180534,-2.82979990013e-06,-1.03769128328e-05,0.516984533227,0.85599473847
875062000000,21493,875062000000,map,3.3611382723,0.921531289404,0.0399948134589,-2.12616729857e-05,-9.33274724447e-06,0.516984513513,0.855994750129
875072000000,21494,875072000000,map,3.36113823108,0.921531316622,0.0399944679836,-2.18358627842e-05,-9.58474191039e-06,0.516984509403,0.855994752594
875082000000,21495,875082000000,map,3.36113993561,0.92153046042,0.0399992551549,-1.75773274929e-06,3.16568295716e-06,0.516984474654,0.855994773906
875092000000,21496,875092000000,map,3.36114106881,0.92152934879,0.0399954453906,1.79768718093e-05,7.89084975117e-06,0.516984335736,0.855994857589
875102000000,21497,875102000000,map,3.36113846564,0.921531178079,0.03999534002,-1.83928814603e-05,-8.07344949127e-06,0.516984321418,0.855994866225
875112000000,21498,875112000000,map,3.36114048201,0.921531584483,0.0399962079102,-9.79995551837e-06,1.62263209865e-05,0.516984293997,0.855994882812
875122000000,21499,875122000000,map,3.36113990054,0.921530480061,0.0399993018715,-1.78917514509e-06,2.76573050957e-06,0.516984268031,0.855994898698
875132000000,21500,875132000000,map,3.36114134953,0.921529316987,0.0399949765706,2.05909495414e-05,1.06608362557e-05,0.516984130243,0.855994981609
875142000000,21501,875142000000,map,3.36113970533,0.921530485177,0.0399998876458,-2.55050118748e-06,6.29730007918e-07,0.516984126578,0.855994984132
875152000000,21502,875152000000,map,3.3611404588,0.921531594761,0.0399962734573,-9.63051831772e-06,1.594581995e-05,0.516984100784,0.855994999512
875162000000,21503,875162000000,map,3.36113947818,0.92152979294,0.0399984993304,3.81101614399e-06,-6.44224133074e-06,0.516983952933,0.855995088977
875172000000,21504,875172000000,map,3.36113953152,0.921530477756,0.0399992030731,-3.14277418746e-06,-1.37948785834e-06,0.516983939312,0.85599509723
875182000000,21505,875182000000,map,3.3611409757,0.921530689041,0.0400006780745,3.83633929888e-06,1.55371235759e-05,0.516983911427,0.855995113929
875192000000,21506,875192000000,map,3.36114047979,0.921531684462,0.0399961152609,-1.00394003737e-05,1.66227646248e-05,0.516983900269,0.855995120597
875202000000,21507,875202000000,map,3.36113846601,0.921531258675,0.0399947528745,-1.79769406333e-05,-7.89092905288e-06,0.516983761677,0.855995204295
875212000000,21508,875212000000,map,3.36113939975,0.921530595531,0.0399987768995,-4.82522199094e-06,-2.11801861863e-06,0.516983747215,0.855995213239
875222000000,21509,875222000000,map,3.36113987126,0.921530602698,0.0399993109637,-1.94698478541e-06,3.06504184255e-06,0.516983718013,0.855995230884
875232000000,21510,875232000000,map,3.36113891259,0.921530151945,0.0399965180531,-2.82981169872e-06,-1.03769104928e-05,0.516983576064,0.855995316555
875242000000,21511,875242000000,map,3.36113821425,0.921531456656,0.039994813459,-2.12616833724e-05,-9.33272344842e-06,0.516983556351,0.855995328214
875252000000,21512,875252000000,map,3.36113817303,0.921531483874,0.0399944679835,-2.18358737533e-05,-9.58471760427e-06,0.516983552241,0.855995330678
875262000000,21513,875262000000,map,3.36113987756,0.921530627669,0.0399992551549,-1.75772919975e-06,3.16568526924e-06,0.516983517492,0.85599535199
875272000000,21514,875272000000,map,3.36114101075,0.921529516036,0.0399954453904,1.79768811471e-05,7.89082987497e-06,0.516983378574,0.855995435673
875282000000,21515,875282000000,map,3.36113840759,0.921531345331,0.03999534002,-1.83928904855e-05,-8.07342892355e-06,0.516983364256,0.85599544431
875292000000,21516,875292000000,map,3.36114042396,0.921531751731,0.0399962079102,-9.79993733503e-06,1.62263318794e-05,0.516983336836,0.855995460896
875302000000,21517,875302000000,map,3.36113984248,0.92153064731,0.0399993018713,-1.78917233234e-06,2.76573170126e-06,0.51698331087,0.855995476782
875312000000,21518,875312000000,map,3.36114129147,0.921529484233,0.0399949765704,2.05909620576e-05,1.0660813543e-05,0.516983173081,0.855995559693
875322000000,21519,875322000000,map,3.36113964728,0.921530652427,0.0399998876458,-2.55049993719e-06,6.29732725005e-07,0.516983169417,0.855995562216
875332000000,21520,875332000000,map,3.36114040075,0.921531762008,0.0399962734573,-9.63050045352e-06,1.59458306616e-05,0.516983143623,0.855995577595
875342000000,21521,875342000000,map,3.36113942012,0.92152996019,0.0399984993306,3.81100842971e-06,-6.44224458732e-06,0.516982995772,0.855995667061
875352000000,21522,875352000000,map,3.36113947347,0.921530645006,0.0399992030731,-3.14277574958e-06,-1.37948435272e-06,0.516982982151,0.855995675313
875362000000,21523,875362000000,map,3.36114091764,0.921530856288,0.0400006780745,3.83635672703e-06,1.5537119508e-05,0.516982954266,0.855995692012
875372000000,21524,875372000000,map,3.36114042174,0.92153185171,0.039996115261,-1.0039381716e-05,1.6622775734e-05,0.516982943108,0.85599569868
875382000000,21525,875382000000,map,3.36113840796,0.921531425927,0.0399947528746,-1.79769499711e-05,-7.8909091766e-06,0.516982804516,0.855995782378
875392000000,21526,875392000000,map,3.3611393417,0.921530762781,0.0399987768995,-4.82522435883e-06,-2.11801322292e-06,0.516982790054,0.855995791322
875402000000,21527,875402000000,map,3.3611398132,0.921530769948,0.0399993109637,-1.94698141855e-06,3.06504410277e-06,0.516982760852,0.855995808967
875412000000,21528,875412000000,map,3.36113885454,0.921530319197,0.0399965180528,-2.82982349742e-06,-1.03769081527e-05,0.516982618903,0.855995894638
875422000000,21529,875422000000,map,3.3611381562,0.92153162391,0.039994813459,-2.12616937589e-05,-9.33269965236e-06,0.516982599189,0.855995906296
875432000000,21530,875432000000,map,3.36113811498,0.921531651128,0.0399944679834,-2.18358847223e-05,-9.58469329815e-06,0.51698259508,0.855995908761
875442000000,21531,875442000000,map,3.3611398195,0.921530794919,0.0399992551549,-1.7577256502e-06,3.16568758123e-06,0.516982560331,0.855995930072
875452000000,21532,875452000000,map,3.36114095269,0.921529683283,0.0399954453903,1.79768904849e-05,7.8908099988e-06,0.516982421413,0.855996013755
875462000000,21533,875462000000,map,3.36113834954,0.921531512584,0.03999534002,-1.83928995106e-05,-8.07340835583e-06,0.516982407095,0.855996022392
875472000000,21534,875472000000,map,3.3611403659,0.921531918979,0.0399962079103,-9.79991915169e-06,1.62263427722e-05,0.516982379675,0.855996038978
875482000000,21535,875482000000,map,3.36113978443,0.92153081456,0.0399993018711,-1.78916951956e-06,2.76573289299e-06,0.516982353709,0.855996054864
875492000000,21536,875492000000,map,3.36114123341,0.92152965148,0.0399949765703,2.05909745737e-05,1.06607908304e-05,0.51698221592,0.855996137774
875502000000,21537,875502000000,map,3.36113958922,0.921530819677,0.0399998876458,-2.55049868699e-06,6.2973544211e-07,0.516982212256,0.855996140297
875512000000,21538,875512000000,map,3.3611403427,0.921531929257,0.0399962734574,-9.63048258936e-06,1.59458413732e-05,0.516982186462,0.855996155677
875522000000,21539,875522000000,map,3.36113936206,0.921530127441,0.0399984993309,3.81100071563e-06,-6.44224784413e-06,0.516982038611,0.855996245142
875532000000,21540,875532000000,map,3.36113941541,0.921530812257,0.0399992030731,-3.14277731173e-06,-1.37948084712e-06,0.51698202499,0.855996253394
875542000000,21541,875542000000,map,3.36114085959,0.921531023536,0.0400006780746,3.8363741551e-06,1.55371154399e-05,0.516981997105,0.855996270093
875552000000,21542,875552000000,map,3.36114036369,0.921532018959,0.039996115261,-1.00393630583e-05,1.66227868431e-05,0.516981985947,0.855996276761
875562000000,21543,875562000000,map,3.36113834991,0.92153159318,0.0399947528747,-1.79769593089e-05,-7.89088930036e-06,0.516981847355,0.855996360459
875572000000,21544,875572000000,map,3.36113928364,0.921530930033,0.0399987768995,-4.8252267267e-06,-2.11800782725e-06,0.516981832893,0.855996369403
875582000000,21545,875582000000,map,3.36113975515,0.921530937198,0.0399993109637,-1.9469780517e-06,3.06504636298e-06,0.516981803692,0.855996387048
875592000000,21546,875592000000,map,3.36113879648,0.921530486449,0.0399965180526,-2.82983529598e-06,-1.03769058127e-05,0.516981661743,0.855996472718
875602000000,21547,875602000000,map,3.36113809814,0.921531791164,0.039994813459,-2.12617041455e-05,-9.33267585634e-06,0.516981642029,0.855996484377
875612000000,21548,875612000000,map,3.36113805693,0.921531818382,0.0399944679834,-2.18358956914e-05,-9.58466899205e-06,0.51698163792,0.855996486842
875622000000,21549,875622000000,map,3.36113976145,0.921530962169,0.0399992551549,-1.75772210062e-06,3.16568989321e-06,0.516981603171,0.855996508153
875632000000,21550,875632000000,map,3.36114089464,0.921529850531,0.0399954453902,1.79768998225e-05,7.89079012261e-06,0.516981464253,0.855996591835
875642000000,21551,875642000000,map,3.36113829149,0.921531679838,0.03999534002,-1.83929085357e-05,-8.07338778814e-06,0.516981449935,0.855996600472
875652000000,21552,875652000000,map,3.36114030785,0.921532086229,0.0399962079103,-9.79990096838e-06,1.6226353665e-05,0.516981422515,0.855996617058
875662000000,21553,875662000000,map,3.36113972638,0.92153098181,0.0399993018709,-1.78916670679e-06,2.76573408461e-06,0.516981396549,0.855996632944
875672000000,21554,875672000000,map,3.36114117536,0.921529818727,0.0399949765701,2.05909870899e-05,1.06607681178e-05,0.51698125876,0.855996715854
875682000000,21555,875682000000,map,3.36113953117,0.921530986928,0.0399998876459,-2.55049743667e-06,6.29738159175e-07,0.516981255096,0.855996718377
875692000000,21556,875692000000,map,3.36114028464,0.921532096507,0.0399962734574,-9.6304647252e-06,1.59458520847e-05,0.516981229302,0.855996733757
875702000000,21557,875702000000,map,3.36113930401,0.921530294692,0.0399984993311,3.81099300154e-06,-6.44225110088e-06,0.516981081451,0.855996823222
875712000000,21558,875712000000,map,3.36113935736,0.921530979508,0.0399992030731,-3.14277887386e-06,-1.37947734153e-06,0.51698106783,0.855996831474
875722000000,21559,875722000000,map,3.36114080154,0.921531190784,0.0400006780746,3.83639158316e-06,1.55371113718e-05,0.516981039945,0.855996848172
875732000000,21560,875732000000,map,3.36114030564,0.921532186208,0.039996115261,-1.00393444006e-05,1.66227979523e-05,0.516981028788,0.85599685484
875742000000,21561,875742000000,map,3.36113829186,0.921531760434,0.0399947528749,-1.79769686466e-05,-7.89086942412e-06,0.516980890195,0.855996938539
875752000000,21562,875752000000,map,3.36113922559,0.921531097284,0.0399987768995,-4.82522909455e-06,-2.11800243156e-06,0.516980875734,0.855996947482
875762000000,21563,875762000000,map,3.3611396971,0.921531104449,0.0399993109637,-1.94697468489e-06,3.06504862325e-06,0.516980846532,0.855996965126
875772000000,21564,875772000000,map,3.36113873843,0.921530653702,0.0399965180523,-2.82984709461e-06,-1.03769034724e-05,0.516980704583,0.855997050797
875782000000,21565,875782000000,map,3.36113804009,0.921531958418,0.039994813459,-2.12617145321e-05,-9.33265206035e-06,0.516980684869,0.855997062456
875792000000,21566,875792000000,map,3.36113799888,0.921531985637,0.0399944679833,-2.18359066603e-05,-9.58464468598e-06,0.51698068076,0.85599706492
875802000000,21567,875802000000,map,3.3611397034,0.92153112942,0.0399992551549,-1.75771855108e-06,3.16569220527e-06,0.516980646012,0.855997086231
875812000000,21568,875812000000,map,3.36114083658,0.92153001778,0.03999544539,1.79769091602e-05,7.89077024649e-06,0.516980507093,0.855997169914
875822000000,21569,875822000000,map,3.36113823343,0.921531847092,0.03999534002,-1.83929175608e-05,-8.07336722048e-06,0.516980492776,0.85599717855
875832000000,21570,875832000000,map,3.3611402498,0.921532253479,0.0399962079103,-9.79988278512e-06,1.62263645578e-05,0.516980465356,0.855997195136
875842000000,21571,875842000000,map,3.36113966832,0.921531149062,0.0399993018707,-1.78916389397e-06,2.7657352763e-06,0.51698043939,0.855997211022
875852000000,21572,875852000000,map,3.3611411173,0.921529985975,0.03999497657,2.05909996059e-05,1.06607454052e-05,0.516980301601,0.855997293932
875862000000,21573,875862000000,map,3.36113947312,0.92153115418,0.0399998876459,-2.55049618641e-06,6.29740876249e-07,0.516980297937,0.855997296455
875872000000,21574,875872000000,map,3.36114022659,0.921532263757,0.0399962734574,-9.63044686105e-06,1.59458627962e-05,0.516980272144,0.855997311834
875882000000,21575,875882000000,map,3.36113924595,0.921530461945,0.0399984993313,3.81098528747e-06,-6.44225435765e-06,0.516980124292,0.855997401299
875892000000,21576,875892000000,map,3.36113929931,0.921531146761,0.0399992030731,-3.14278043598e-06,-1.37947383593e-06,0.516980110671,0.855997409551
875902000000,21577,875902000000,map,3.36114074348,0.921531358033,0.0400006780746,3.83640901125e-06,1.5537107304e-05,0.516980082787,0.85599742625
875912000000,21578,875912000000,map,3.36114024759,0.921532353458,0.039996115261,-1.0039325743e-05,1.66228090614e-05,0.516980071629,0.855997432917
875922000000,21579,875922000000,map,3.36114681434,0.921544797099,0.0402414571544,-9.65872860731e-05,0.00017796070505,0.516978841809,0.855998151939
875932000000,21580,875932000000,map,3.36115592058,0.921562076996,0.0405569238255,-0.000396779748026,0.000412219447177,0.516974507096,0.856000602601
875942000000,21581,875942000000,map,3.3611654829,0.921581128148,0.0412787140571,-0.00073883679998,0.000776698333332,0.516967133404,0.856004575829
875952000000,21582,875952000000,map,3.36117556173,0.921602174122,0.042125242736,-0.000979396025537,0.00108053748613,0.51695690376,0.856010182695
875962000000,21583,875962000000,map,3.36118675535,0.921626876009,0.0431736774388,-0.00124808140277,0.00145002589266,0.516943761028,0.856017223923
875972000000,21584,875972000000,map,3.36119950371,0.921656500956,0.0446848742582,-0.00131625806682,0.00163043625575,0.51692821637,0.856026184332
875982000000,21585,875982000000,map,3.36121397794,0.921690752998,0.0463352556686,-0.0014959471881,0.00197446698831,0.516909844741,0.856036258596
875992000000,21586,875992000000,map,3.36123078051,0.921731046253,0.0483707548831,-0.00147243876735,0.0020859457105,0.516889325905,0.856048424752
876002000000,21587,876002000000,map,3.36124998901,0.921776690699,0.0505378135275,-0.00159548744155,0.00241671575719,0.516865987127,0.8560614261
876012000000,21588,876012000000,map,3.36127238358,0.921829225511,0.0530800241743,-0.00150761025901,0.00246498590971,0.516840778411,0.856076667552
876022000000,21589,876022000000,map,3.36129782352,0.921887482174,0.0557383759334,-0.00158585293841,0.00278587102176,0.516812800253,0.856092432795
876032000000,21590,876032000000,map,3.36132725342,0.921953050189,0.0587525381223,-0.00146260029988,0.00278394497111,0.516783183208,0.856110537258
876042000000,21591,876042000000,map,3.36136032966,0.922024508158,0.061869587645,-0.00150687565176,0.00309319469385,0.516750870529,0.856128903425
876052000000,21592,876052000000,map,3.36139814511,0.922103453449,0.0653259403738,-0.00136356088894,0.00304858439279,0.516717124635,0.856149671461
876062000000,21593,876062000000,map,3.36144015397,0.922188303552,0.0688724888414,-0.00138026963389,0.00334838640525,0.516680770586,0.85617046461
876072000000,21594,876072000000,map,3.36148758331,0.922280632753,0.0727426370202,-0.00123087084725,0.00327243792927,0.516643133537,0.856193698105
876082000000,21595,876082000000,map,3.36153970652,0.922378790582,0.0766910741908,-0.0012295980368,0.00356907342839,0.516602948751,0.856216761776
876092000000,21596,876092000000,map,3.36159787467,0.922484317144,0.0809483895177,-0.00108129771837,0.00346532147548,0.516561646423,0.856242306702
876102000000,21597,876102000000,map,3.36166118688,0.922595537094,0.0852728102891,-0.00106521385755,0.00375221596365,0.516517889666,0.856267514186
876112000000,21598,876112000000,map,3.36173109903,0.922713941067,0.0898923882816,-0.000925177083955,0.00362319154444,0.516473147039,0.856295220656
876122000000,21599,876122000000,map,3.3618065427,0.922837864827,0.0945685724247,-0.000898143912697,0.003902578553,0.516426006482,0.856322452729
876132000000,21600,876132000000,map,3.36188906432,0.922968744712,0.0995270406437,-0.000764226653263,0.00375399158015,0.516377990095,0.856352202572
876142000000,21601,876142000000,map,3.36197746023,0.923104938576,0.104532273239,-0.000727034382149,0.00402593554268,0.516327691389,0.856381327662
876152000000,21602,876152000000,map,3.36207335628,0.923247821748,0.109807763453,-0.000608089835179,0.00385816041215,0.516276658255,0.856412959364
876162000000,21603,876162000000,map,3.36217413692,0.923394737532,0.114917410943,-0.000556258490288,0.00406204260128,0.516223513087,0.856444087447
876172000000,21604,876172000000,map,3.36228251237,0.923547854421,0.120264092553,-0.000460712504415,0.00394526614217,0.516169505852,0.856477240706
876182000000,21605,876182000000,map,3.36239735432,0.923705910819,0.125646718515,-0.000415300956381,0.00420812419168,0.516113458973,0.85650978785
876192000000,21606,876192000000,map,3.36252041622,0.923870171943,0.131286704884,-0.000319996745508,0.00400306908973,0.516056880144,0.856544902206
876202000000,21607,876202000000,map,3.36265010203,0.924039123341,0.136953470004,-0.000269847062359,0.00424525149498,0.515998218924,0.856579093306
876212000000,21608,876212000000,map,3.36279490943,0.924218562003,0.143805822971,-0.000216987187542,0.004461044902,0.51593829211,0.856614108411
876222000000,21609,876222000000,map,3.36294431178,0.92440114194,0.150301235764,-0.000135091472127,0.00421376905948,0.515877981904,0.856651699168
876232000000,21610,876232000000,map,3.36310179364,0.924588888076,0.156945305933,-8.26088163983e-05,0.00451554266176,0.5158155048,0.856687789138
876242000000,21611,876242000000,map,3.3632695746,0.924783159767,0.163983031306,-1.22803780025e-05,0.00418561074879,0.515753031697,0.856727080702
876252000000,21612,876252000000,map,3.36344038912,0.924979233835,0.170481366915,5.5159455699e-05,0.00416415881912,0.515688894238,0.856765791275
876262000000,21613,876262000000,map,3.36362467834,0.925183177755,0.177874547556,0.000116663041953,0.00434541315871,0.515623316587,0.85680435291
876272000000,21614,876272000000,map,3.36381468116,0.925390394567,0.185047017762,0.000170675874217,0.00422017704546,0.515557214169,0.856844746668
876282000000,21615,876282000000,map,3.36401206428,0.925601620245,0.192227283643,0.000231260947044,0.00444673346593,0.515489481602,0.856884337258
876292000000,21616,876292000000,map,3.3642184517,0.925817689679,0.199590383863,0.000269640490146,0.00420322485046,0.515421586786,0.856926395947
876302000000,21617,876302000000,map,3.36443202055,0.926037439002,0.206930936669,0.000329980525362,0.00440452162524,0.515351962216,0.856967237613
876312000000,21618,876312000000,map,3.36465466003,0.926261798784,0.214457526865,0.000357899283844,0.00415374805451,0.515282201309,0.857010426599
876322000000,21619,876322000000,map,3.36488165253,0.926488261852,0.221596354073,0.000410131529281,0.00422860691859,0.515210989197,0.857052849763
