header: 
  seq: 22
  stamp: 
    secs: 2241
    nsecs: 968000000
  frame_id: "world"
pose: 
  position: 
    x: -6.50105164368e-07
    y: 2.29143623187e-07
    z: -1.9675456997e-07
  orientation: 
    x: 2.22622361434e-07
    y: 4.01521617732e-07
    z: -3.3980447256e-07
    w: 1.0
---
header: 
  seq: 23
  stamp: 
    secs: 2242
    nsecs: 303000000
  frame_id: "world"
pose: 
  position: 
    x: -3.19071477861e-06
    y: -3.244171603e-05
    z: -1.32309351102e-05
  orientation: 
    x: -2.47268417221e-05
    y: 9.45712315279e-07
    z: 1.73215346368e-06
    w: 0.999999999692
---
header: 
  seq: 24
  stamp: 
    secs: 2242
    nsecs: 659000000
  frame_id: "world"
pose: 
  position: 
    x: -3.19071477861e-06
    y: -3.244171603e-05
    z: -1.32309351102e-05
  orientation: 
    x: -2.47268417221e-05
    y: 9.45712315279e-07
    z: 1.73215346368e-06
    w: 0.999999999692
---
header: 
  seq: 25
  stamp: 
    secs: 2242
    nsecs: 911000000
  frame_id: "world"
pose: 
  position: 
    x: -3.19071477861e-06
    y: -3.244171603e-05
    z: -1.32309351102e-05
  orientation: 
    x: -2.47268417221e-05
    y: 9.45712315279e-07
    z: 1.73215346368e-06
    w: 0.999999999692
---
header: 
  seq: 26
  stamp: 
    secs: 2243
    nsecs: 153000000
  frame_id: "world"
pose: 
  position: 
    x: -5.37155187885e-07
    y: 6.16533668563e-08
    z: -3.47522160382e-07
  orientation: 
    x: -1.82621153755e-08
    y: 3.32471927322e-07
    z: -1.97806883762e-07
    w: 1.0
---
header: 
  seq: 27
  stamp: 
    secs: 2243
    nsecs: 404000000
  frame_id: "world"
pose: 
  position: 
    x: -3.21803599945e-06
    y: -3.2489268051e-05
    z: -1.32588202177e-05
  orientation: 
    x: -2.47515472362e-05
    y: 9.53539881427e-07
    z: 1.73410683093e-06
    w: 0.999999999692
---
header: 
  seq: 28
  stamp: 
    secs: 2243
    nsecs: 674000000
  frame_id: "world"
pose: 
  position: 
    x: -3.21803599945e-06
    y: -3.2489271689e-05
    z: -1.32588202177e-05
  orientation: 
    x: -2.47515472362e-05
    y: 9.53539881427e-07
    z: 1.73410683093e-06
    w: 0.999999999692
---
header: 
  seq: 29
  stamp: 
    secs: 2243
    nsecs: 921000000
  frame_id: "world"
pose: 
  position: 
    x: -5.45612863334e-07
    y: 2.10583522176e-07
    z: -1.99234179377e-07
  orientation: 
    x: 9.28866086269e-08
    y: 3.43323250718e-07
    z: -9.236384102e-08
    w: 1.0
---
header: 
  seq: 30
  stamp: 
    secs: 2244
    nsecs: 164000000
  frame_id: "world"
pose: 
  position: 
    x: -5.45612863334e-07
    y: 2.10583522176e-07
    z: -1.99234179377e-07
  orientation: 
    x: 9.28866086269e-08
    y: 3.43323250718e-07
    z: -9.236384102e-08
    w: 1.0
---
header: 
  seq: 31
  stamp: 
    secs: 2244
    nsecs: 557000000
  frame_id: "world"
pose: 
  position: 
    x: -5.70295355828e-07
    y: 1.05046979115e-07
    z: -3.08585725861e-07
  orientation: 
    x: 1.37191129568e-08
    y: 3.62558267852e-07
    z: 9.07704755804e-09
    w: 1.0
---
header: 
  seq: 32
  stamp: 
    secs: 2244
    nsecs: 959000000
  frame_id: "world"
pose: 
  position: 
    x: -5.80222604185e-07
    y: 9.14497988447e-08
    z: -3.16850616855e-07
  orientation: 
    x: 6.08768235821e-09
    y: 3.61346877753e-07
    z: 8.66536176147e-09
    w: 1.0
---
header: 
  seq: 33
  stamp: 
    secs: 2245
    nsecs: 250000000
  frame_id: "world"
pose: 
  position: 
    x: -5.80222604185e-07
    y: 9.14497988447e-08
    z: -3.16850616855e-07
  orientation: 
    x: 6.08768235821e-09
    y: 3.61346877753e-07
    z: 8.66536176147e-09
    w: 1.0
---
header: 
  seq: 34
  stamp: 
    secs: 2245
    nsecs: 497000000
  frame_id: "world"
pose: 
  position: 
    x: 4.17324054069e-06
    y: -3.25600267388e-05
    z: -2.53588204941e-05
  orientation: 
    x: -3.64427505458e-05
    y: -5.59960198724e-07
    z: 2.68296025572e-06
    w: 0.999999999332
---
header: 
  seq: 35
  stamp: 
    secs: 2245
    nsecs: 737000000
  frame_id: "world"
pose: 
  position: 
    x: 4.21250570071e-06
    y: -3.25150649587e-05
    z: -2.53856760537e-05
  orientation: 
    x: -3.6422126844e-05
    y: -5.76098670606e-07
    z: 2.69745078005e-06
    w: 0.999999999333
---
header: 
  seq: 36
  stamp: 
    secs: 2245
    nsecs: 985000000
  frame_id: "world"
pose: 
  position: 
    x: -5.77083767439e-07
    y: 8.406326657e-08
    z: -3.21926876268e-07
  orientation: 
    x: 3.46092621228e-09
    y: 3.63722307384e-07
    z: 1.97372891364e-08
    w: 1.0
---
header: 
  seq: 37
  stamp: 
    secs: 2246
    nsecs: 257000000
  frame_id: "world"
pose: 
  position: 
    x: -3.27387306243e-06
    y: -3.14531826007e-05
    z: -1.24997686726e-05
  orientation: 
    x: -2.40668905392e-05
    y: 8.92738455344e-07
    z: 1.83641372988e-06
    w: 0.999999999708
---
header: 
  seq: 38
  stamp: 
    secs: 2246
    nsecs: 585000000
  frame_id: "world"
pose: 
  position: 
    x: -5.86100668443e-07
    y: 7.73131816345e-08
    z: -3.17322019328e-07
  orientation: 
    x: 4.51615811414e-09
    y: 3.6343493548e-07
    z: 6.92733914676e-09
    w: 1.0
---
header: 
  seq: 39
  stamp: 
    secs: 2246
    nsecs: 921000000
  frame_id: "world"
pose: 
  position: 
    x: -5.6918889868e-07
    y: 8.03133133331e-08
    z: -3.18542817013e-07
  orientation: 
    x: 2.61531774015e-09
    y: 3.62469080528e-07
    z: 1.20245644553e-08
    w: 1.0
---
header: 
  seq: 40
  stamp: 
    secs: 2247
    nsecs: 342000000
  frame_id: "world"
pose: 
  position: 
    x: 4.06393354524e-07
    y: -2.10447196878e-05
    z: -3.39948383044e-05
  orientation: 
    x: -3.69380322556e-05
    y: 1.76389664709e-06
    z: -4.16719316546e-08
    w: 0.999999999316
---
header: 
  seq: 41
  stamp: 
    secs: 2247
    nsecs: 650000000
  frame_id: "world"
pose: 
  position: 
    x: -7.29341707029e-07
    y: 2.62837769327e-08
    z: -3.45650221334e-07
  orientation: 
    x: 9.78728706968e-08
    y: 4.61942704533e-07
    z: -3.32610397891e-07
    w: 1.0
---
header: 
  seq: 42
  stamp: 
    secs: 2247
    nsecs: 883000000
  frame_id: "world"
pose: 
  position: 
    x: -3.43303054251e-06
    y: -3.25862638419e-05
    z: -1.32805416797e-05
  orientation: 
    x: -2.48155247314e-05
    y: 1.07649452696e-06
    z: 1.71041392552e-06
    w: 0.99999999969
---
header: 
  seq: 43
  stamp: 
    secs: 2248
    nsecs: 112000000
  frame_id: "world"
pose: 
  position: 
    x: -7.27344627194e-07
    y: 1.55767825305e-08
    z: -3.32153433646e-07
  orientation: 
    x: 9.70774749476e-08
    y: 4.61168497168e-07
    z: -3.40656214348e-07
    w: 1.0
---
header: 
  seq: 44
  stamp: 
    secs: 2248
    nsecs: 349000000
  frame_id: "world"
pose: 
  position: 
    x: -6.07371873684e-07
    y: 4.67563694428e-08
    z: -3.41332338394e-07
  orientation: 
    x: -1.59141286815e-08
    y: 3.84918308782e-07
    z: 3.61364005386e-09
    w: 1.0
---
header: 
  seq: 45
  stamp: 
    secs: 2248
    nsecs: 660000000
  frame_id: "world"
pose: 
  position: 
    x: -3.44804084307e-06
    y: -3.25787768816e-05
    z: -1.32742279675e-05
  orientation: 
    x: -2.48119358653e-05
    y: 1.08261360731e-06
    z: 1.71157716924e-06
    w: 0.99999999969
---
header: 
  seq: 46
  stamp: 
    secs: 2249
    nsecs:  35000000
  frame_id: "world"
pose: 
  position: 
    x: -3.44804084307e-06
    y: -3.25787768816e-05
    z: -1.32742279675e-05
  orientation: 
    x: -2.48119358653e-05
    y: 1.08261360731e-06
    z: 1.71157716924e-06
    w: 0.99999999969
---
header: 
  seq: 47
  stamp: 
    secs: 2249
    nsecs: 309000000
  frame_id: "world"
pose: 
  position: 
    x: -4.16548999738e-07
    y: -3.9685437514e-07
    z: -4.88936677812e-07
  orientation: 
    x: -2.5447468488e-07
    y: 2.74288368018e-07
    z: -1.32921442741e-07
    w: 1.0
---
header: 
  seq: 48
  stamp: 
    secs: 2249
    nsecs: 687000000
  frame_id: "world"
pose: 
  position: 
    x: -4.16548999738e-07
    y: -3.9685437514e-07
    z: -4.88936677812e-07
  orientation: 
    x: -2.5447468488e-07
    y: 2.74288368018e-07
    z: -1.32921442741e-07
    w: 1.0
---
header: 
  seq: 49
  stamp: 
    secs: 2250
    nsecs: 111000000
  frame_id: "world"
pose: 
  position: 
    x: 3.75488684767e-06
    y: -3.26285044139e-05
    z: -2.52488443948e-05
  orientation: 
    x: -3.6456269275e-05
    y: -4.25103479245e-07
    z: 2.7231747008e-06
    w: 0.999999999332
---
header: 
  seq: 50
  stamp: 
    secs: 2250
    nsecs: 416000000
  frame_id: "world"
pose: 
  position: 
    x: -7.58918076826e-07
    y: 7.66925722928e-08
    z: -2.87062448479e-07
  orientation: 
    x: 1.20519118241e-07
    y: 4.89266994918e-07
    z: -3.2063238109e-07
    w: 1.0
---
header: 
  seq: 51
  stamp: 
    secs: 2250
    nsecs: 683000000
  frame_id: "world"
pose: 
  position: 
    x: -3.83927442726e-07
    y: -3.07547452394e-07
    z: -5.02616217091e-07
  orientation: 
    x: -2.20503807213e-07
    y: 2.61983387873e-07
    z: -1.4639530832e-07
    w: 1.0
---
header: 
  seq: 52
  stamp: 
    secs: 2250
    nsecs: 975000000
  frame_id: "world"
pose: 
  position: 
    x: 3.74462911168e-06
    y: -3.26902227243e-05
    z: -2.51469191426e-05
  orientation: 
    x: -3.6474630154e-05
    y: -4.34896321331e-07
    z: 2.69831184416e-06
    w: 0.999999999331
---
header: 
  seq: 53
  stamp: 
    secs: 2251
    nsecs: 338000000
  frame_id: "world"
pose: 
  position: 
    x: 3.74462911168e-06
    y: -3.26902227243e-05
    z: -2.51469191426e-05
  orientation: 
    x: -3.6474630154e-05
    y: -4.34896321331e-07
    z: 2.69831184416e-06
    w: 0.999999999331
---
header: 
  seq: 54
  stamp: 
    secs: 2251
    nsecs: 763000000
  frame_id: "world"
pose: 
  position: 
    x: -2.75089746538e-07
    y: -3.01646252865e-07
    z: -1.96013971276e-07
  orientation: 
    x: -1.87149240105e-07
    y: 1.78020954422e-07
    z: -1.52645071694e-07
    w: 1.0
---
header: 
  seq: 55
  stamp: 
    secs: 2252
    nsecs: 203000000
  frame_id: "world"
pose: 
  position: 
    x: -3.34463084073e-06
    y: -3.16437690344e-05
    z: -1.26634267872e-05
  orientation: 
    x: -2.41732977813e-05
    y: 9.60986994586e-07
    z: 1.75542982054e-06
    w: 0.999999999706
---
header: 
  seq: 56
  stamp: 
    secs: 2252
    nsecs: 586000000
  frame_id: "world"
pose: 
  position: 
    x: 6.29569467492e-06
    y: -1.80151801032e-05
    z: -3.59520417987e-05
  orientation: 
    x: -3.53742106887e-05
    y: -8.04634168568e-07
    z: -2.04752808358e-07
    w: 0.999999999374
---
header: 
  seq: 57
  stamp: 
    secs: 2252
    nsecs: 986000000
  frame_id: "world"
pose: 
  position: 
    x: -4.30538148066e-06
    y: -3.16159530485e-05
    z: -1.30866601467e-05
  orientation: 
    x: -2.42914866176e-05
    y: 1.70582313735e-06
    z: 1.72528802926e-06
    w: 0.999999999702
---
header: 
  seq: 58
  stamp: 
    secs: 2253
    nsecs: 302000000
  frame_id: "world"
pose: 
  position: 
    x: -7.03954981418e-07
    y: 3.68899542025e-08
    z: -3.55235158622e-07
  orientation: 
    x: 1.05372848225e-07
    y: 4.77948333355e-07
    z: -4.08516825701e-07
    w: 1.0
---
header: 
  seq: 59
  stamp: 
    secs: 2253
    nsecs: 623000000
  frame_id: "world"
pose: 
  position: 
    x: -5.84040151352e-07
    y: 4.07131437896e-07
    z: -2.95888753499e-07
  orientation: 
    x: 1.86771842436e-07
    y: 3.81211037848e-07
    z: -8.6415973044e-08
    w: 1.0
---
header: 
  seq: 60
  stamp: 
    secs: 2253
    nsecs: 919000000
  frame_id: "world"
pose: 
  position: 
    x: -3.96903033106e-06
    y: -3.062349424e-05
    z: -1.23217223518e-05
  orientation: 
    x: -2.36250325476e-05
    y: 1.43689817337e-06
    z: 1.7775798819e-06
    w: 0.999999999718
---
header: 
  seq: 61
  stamp: 
    secs: 2254
    nsecs: 301000000
  frame_id: "world"
pose: 
  position: 
    x: -3.11255007546e-07
    y: -8.33028863667e-08
    z: -2.44252447601e-07
  orientation: 
    x: -8.60356408339e-08
    y: 2.06640535794e-07
    z: -1.22986890005e-07
    w: 1.0
---
header: 
  seq: 62
  stamp: 
    secs: 2254
    nsecs: 659000000
  frame_id: "world"
pose: 
  position: 
    x: 3.65974119632e-06
    y: -3.2803574868e-05
    z: -2.55457543972e-05
  orientation: 
    x: -3.65550185716e-05
    y: -3.27655271583e-07
    z: 2.67812310815e-06
    w: 0.999999999328
---
header: 
  seq: 63
  stamp: 
    secs: 2255
    nsecs:  52000000
  frame_id: "world"
pose: 
  position: 
    x: 3.65974119632e-06
    y: -3.2803574868e-05
    z: -2.55457543972e-05
  orientation: 
    x: -3.65550185716e-05
    y: -3.27655271583e-07
    z: 2.67812310815e-06
    w: 0.999999999328
---
header: 
  seq: 64
  stamp: 
    secs: 2255
    nsecs: 299000000
  frame_id: "world"
pose: 
  position: 
    x: 3.70408110939e-06
    y: -3.43679021171e-05
    z: -1.36994276545e-05
  orientation: 
    x: -2.53284215349e-05
    y: -2.00885415259e-06
    z: 3.0606886402e-06
    w: 0.999999999673
---
header: 
  seq: 65
  stamp: 
    secs: 2255
    nsecs: 550000000
  frame_id: "world"
pose: 
  position: 
    x: 3.70408110939e-06
    y: -3.43679021171e-05
    z: -1.36994276545e-05
  orientation: 
    x: -2.53284215349e-05
    y: -2.00885415259e-06
    z: 3.0606886402e-06
    w: 0.999999999673
---
header: 
  seq: 66
  stamp: 
    secs: 2255
    nsecs: 820000000
  frame_id: "world"
pose: 
  position: 
    x: 3.70408110939e-06
    y: -3.43679021171e-05
    z: -1.36994276545e-05
  orientation: 
    x: -2.53284215349e-05
    y: -2.00885415259e-06
    z: 3.0606886402e-06
    w: 0.999999999673
---
header: 
  seq: 67
  stamp: 
    secs: 2256
    nsecs:  17000000
  frame_id: "world"
pose: 
  position: 
    x: -9.03929048945e-07
    y: 4.07640015965e-07
    z: -2.44185315523e-07
  orientation: 
    x: 1.91387186987e-07
    y: 5.38650226645e-07
    z: -7.64376721918e-08
    w: 1.0
---
header: 
  seq: 68
  stamp: 
    secs: 2256
    nsecs: 309000000
  frame_id: "world"
pose: 
  position: 
    x: 3.80005303668e-06
    y: -3.26828630932e-05
    z: -2.54850692727e-05
  orientation: 
    x: -3.64996267064e-05
    y: -4.17675323381e-07
    z: 2.69996735188e-06
    w: 0.99999999933
---
header: 
  seq: 69
  stamp: 
    secs: 2256
    nsecs: 707000000
  frame_id: "world"
pose: 
  position: 
    x: -9.06433967884e-07
    y: 3.58328378525e-07
    z: -2.29605461755e-07
  orientation: 
    x: 1.66274602975e-07
    y: 5.37194125627e-07
    z: -7.05332112716e-08
    w: 1.0
---
header: 
  seq: 70
  stamp: 
    secs: 2257
    nsecs:   6000000
  frame_id: "world"
pose: 
  position: 
    x: 3.75663285013e-06
    y: -3.43759165844e-05
    z: -1.36879816637e-05
  orientation: 
    x: -2.53290436293e-05
    y: -2.04023581251e-06
    z: 3.06413244188e-06
    w: 0.999999999672
---
header: 
  seq: 71
  stamp: 
    secs: 2257
    nsecs: 337000000
  frame_id: "world"
pose: 
  position: 
    x: -6.11740119894e-07
    y: 3.13443877076e-07
    z: -6.15535384441e-07
  orientation: 
    x: 1.18672851102e-07
    y: 4.31710191151e-07
    z: -2.61193889628e-07
    w: 1.0
---
header: 
  seq: 72
  stamp: 
    secs: 2257
    nsecs: 581000000
  frame_id: "world"
pose: 
  position: 
    x: 3.80250526177e-06
    y: -3.28876412823e-05
    z: -2.55538197962e-05
  orientation: 
    x: -3.65973027992e-05
    y: -3.68130343738e-07
    z: 2.64090499335e-06
    w: 0.999999999327
---
header: 
  seq: 73
  stamp: 
    secs: 2257
    nsecs: 836000000
  frame_id: "world"
pose: 
  position: 
    x: 3.80250526177e-06
    y: -3.28876412823e-05
    z: -2.55538197962e-05
  orientation: 
    x: -3.65973027992e-05
    y: -3.68130343738e-07
    z: 2.64090499335e-06
    w: 0.999999999327
---
header: 
  seq: 74
  stamp: 
    secs: 2258
    nsecs: 102000000
  frame_id: "world"
pose: 
  position: 
    x: -1.08657627607e-06
    y: 4.60146395653e-07
    z: -5.51982168417e-07
  orientation: 
    x: 2.95104769066e-07
    y: 6.89633964157e-07
    z: -3.25270036683e-07
    w: 1.0
---
header: 
  seq: 75
  stamp: 
    secs: 2258
    nsecs: 364000000
  frame_id: "world"
pose: 
  position: 
    x: 2.85269925371e-06
    y: -2.08119836316e-05
    z: -4.3499043386e-05
  orientation: 
    x: -3.73166658131e-05
    y: 1.77264655453e-06
    z: -1.64068722937e-07
    w: 0.999999999302
---
header: 
  seq: 76
  stamp: 
    secs: 2258
    nsecs: 742000000
  frame_id: "world"
pose: 
  position: 
    x: 3.18364368468e-06
    y: -2.06404747587e-05
    z: -4.33154709754e-05
  orientation: 
    x: -3.72073591021e-05
    y: 1.58483351133e-06
    z: -1.26811229873e-07
    w: 0.999999999307
---
header: 
  seq: 77
  stamp: 
    secs: 2259
    nsecs: 155000000
  frame_id: "world"
pose: 
  position: 
    x: -7.08270931682e-07
    y: 3.18139854016e-07
    z: -3.37708769393e-07
  orientation: 
    x: 1.36260581485e-07
    y: 4.46693519507e-07
    z: -2.51116063055e-07
    w: 1.0
---
header: 
  seq: 78
  stamp: 
    secs: 2259
    nsecs: 567000000
  frame_id: "world"
pose: 
  position: 
    x: 3.74491082766e-06
    y: -3.29557369696e-05
    z: -2.56392177107e-05
  orientation: 
    x: -3.66592393882e-05
    y: -3.98268326493e-07
    z: 2.78570177937e-06
    w: 0.999999999324
---
header: 
  seq: 79
  stamp: 
    secs: 2259
    nsecs: 927000000
  frame_id: "world"
pose: 
  position: 
    x: 3.71123223886e-06
    y: -3.29586073349e-05
    z: -2.58456111624e-05
  orientation: 
    x: -3.66564272306e-05
    y: -3.24007970457e-07
    z: 2.76750597363e-06
    w: 0.999999999324
---
header: 
  seq: 80
  stamp: 
    secs: 2260
    nsecs: 197000000
  frame_id: "world"
pose: 
  position: 
    x: 3.79352945856e-06
    y: -3.29076538037e-05
    z: -2.55820341408e-05
  orientation: 
    x: -3.6620487638e-05
    y: -4.17392555792e-07
    z: 2.73496948282e-06
    w: 0.999999999326
---
header: 
  seq: 81
  stamp: 
    secs: 2260
    nsecs: 463000000
  frame_id: "world"
pose: 
  position: 
    x: 0.00395561521873
    y: -0.00533825205639
    z: -0.00605260720477
  orientation: 
    x: 0.0154778014014
    y: -0.00324804752964
    z: 0.0136492362812
    w: 0.999781769288
---
header: 
  seq: 82
  stamp: 
    secs: 2260
    nsecs: 704000000
  frame_id: "world"
pose: 
  position: 
    x: 0.00054523081053
    y: -0.0168062951416
    z: -0.011586394161
  orientation: 
    x: 0.00683545417209
    y: -0.00178873609566
    z: -0.0114827938857
    w: 0.999909107086
---
header: 
  seq: 83
  stamp: 
    secs: 2260
    nsecs: 922000000
  frame_id: "world"
pose: 
  position: 
    x: 0.0041422448121
    y: -0.0217336360365
    z: -0.0195521432906
  orientation: 
    x: 0.0103609196373
    y: -0.00231411326125
    z: -0.0225487104199
    w: 0.999689377698
---
header: 
  seq: 84
  stamp: 
    secs: 2261
    nsecs: 281000000
  frame_id: "world"
pose: 
  position: 
    x: 0.00778569513932
    y: -0.0365976877511
    z: -0.0316150300205
  orientation: 
    x: 0.0148702918509
    y: -0.00231475419395
    z: -0.0320402593183
    w: 0.999373272664
---
header: 
  seq: 85
  stamp: 
    secs: 2261
    nsecs: 616000000
  frame_id: "world"
pose: 
  position: 
    x: 0.00665328046307
    y: -0.0439458973706
    z: -0.0361407957971
  orientation: 
    x: 0.0160973236551
    y: -0.00145860199766
    z: -0.030229882679
    w: 0.999412278714
---
header: 
  seq: 86
  stamp: 
    secs: 2261
    nsecs: 969000000
  frame_id: "world"
pose: 
  position: 
    x: 0.00993867218494
    y: -0.0493278056383
    z: -0.0440007187426
  orientation: 
    x: 0.0166882513813
    y: -0.00210319895684
    z: -0.0305518741193
    w: 0.999391645857
---
header: 
  seq: 87
  stamp: 
    secs: 2262
    nsecs: 513000000
  frame_id: "world"
pose: 
  position: 
    x: 0.0093832956627
    y: -0.051527608186
    z: -0.045565508306
  orientation: 
    x: 0.0180020779512
    y: -0.00149476749474
    z: -0.0316404924045
    w: 0.999336064645
---
header: 
  seq: 88
  stamp: 
    secs: 2262
    nsecs: 906000000
  frame_id: "world"
pose: 
  position: 
    x: 0.0142082795501
    y: -0.0517580397427
    z: -0.0481905713677
  orientation: 
    x: 0.018439174504
    y: -0.0030660941836
    z: -0.0314840619098
    w: 0.999329450059
---
header: 
  seq: 89
  stamp: 
    secs: 2263
    nsecs: 255000000
  frame_id: "world"
pose: 
  position: 
    x: 0.0196329727769
    y: -0.0745545774698
    z: -0.0497103221714
  orientation: 
    x: 0.00693725096172
    y: -0.0056988639666
    z: -0.0292258801856
    w: 0.999532513441
---
header: 
  seq: 90
  stamp: 
    secs: 2263
    nsecs: 585000000
  frame_id: "world"
pose: 
  position: 
    x: 0.0189928486943
    y: -0.0746801793575
    z: -0.0484339557588
  orientation: 
    x: 0.00732250981768
    y: -0.00556254587747
    z: -0.0283853805134
    w: 0.999554755432
---
header: 
  seq: 91
  stamp: 
    secs: 2264
    nsecs:  74000000
  frame_id: "world"
pose: 
  position: 
    x: 0.0195000655949
    y: -0.0743444487453
    z: -0.0490130446851
  orientation: 
    x: 0.00786196675393
    y: -0.00524331972152
    z: -0.0308749397519
    w: 0.999478581648
---
header: 
  seq: 92
  stamp: 
    secs: 2264
    nsecs: 524000000
  frame_id: "world"
pose: 
  position: 
    x: 0.0187446195632
    y: -0.0736846253276
    z: -0.0483354702592
  orientation: 
    x: 0.00802692770498
    y: -0.00547215621605
    z: -0.0282648037957
    w: 0.999553262615
---
header: 
  seq: 93
  stamp: 
    secs: 2264
    nsecs: 995000000
  frame_id: "world"
pose: 
  position: 
    x: 0.019816217944
    y: -0.0724278613925
    z: -0.0501130186021
  orientation: 
    x: 0.00849294487491
    y: -0.00523413481037
    z: -0.0309613820128
    w: 0.999470793242
---
header: 
  seq: 94
  stamp: 
    secs: 2265
    nsecs: 425000000
  frame_id: "world"
pose: 
  position: 
    x: 0.0202074982226
    y: -0.0723700746894
    z: -0.0498942658305
  orientation: 
    x: 0.00880934957923
    y: -0.00502055049753
    z: -0.0321612025723
    w: 0.999431261509
---
header: 
  seq: 95
  stamp: 
    secs: 2265
    nsecs: 939000000
  frame_id: "world"
pose: 
  position: 
    x: 0.0141520909965
    y: -0.0670799762011
    z: -0.0436884723604
  orientation: 
    x: 0.0093069287007
    y: -0.00162391660737
    z: -0.0312815445028
    w: 0.999465961875
---
header: 
  seq: 96
  stamp: 
    secs: 2266
    nsecs: 193000000
  frame_id: "world"
pose: 
  position: 
    x: 0.0106985429302
    y: -0.057863984257
    z: -0.0485783852637
  orientation: 
    x: 0.0215630761764
    y: 0.00150514863187
    z: -0.0321872216894
    w: 0.999248092834
---
header: 
  seq: 97
  stamp: 
    secs: 2266
    nsecs: 436000000
  frame_id: "world"
pose: 
  position: 
    x: 0.0152078624815
    y: -0.075281471014
    z: -0.0522253885865
  orientation: 
    x: 0.0136060161101
    y: 0.00134632709065
    z: -0.027888559819
    w: 0.999517529591
---
header: 
  seq: 98
  stamp: 
    secs: 2266
    nsecs: 686000000
  frame_id: "world"
pose: 
  position: 
    x: 0.00422477163374
    y: -0.0647004172206
    z: -0.0459732562304
  orientation: 
    x: 0.01711764123
    y: 0.00693966655345
    z: -0.0257068676633
    w: 0.999498866604
---
header: 
  seq: 99
  stamp: 
    secs: 2266
    nsecs: 937000000
  frame_id: "world"
pose: 
  position: 
    x: 0.00339266075753
    y: -0.0802619606256
    z: -0.0504189692438
  orientation: 
    x: 0.00885993258344
    y: 0.00580073097565
    z: -0.032579396812
    w: 0.999413045751
---
header: 
  seq: 100
  stamp: 
    secs: 2267
    nsecs: 329000000
  frame_id: "world"
pose: 
  position: 
    x: 0.0119843222201
    y: -0.0829194486141
    z: -0.0469295084476
  orientation: 
    x: 0.0102213267413
    y: 0.00188750966343
    z: -0.0330487162134
    w: 0.999399691887
---
header: 
  seq: 101
  stamp: 
    secs: 2267
    nsecs: 680000000
  frame_id: "world"
pose: 
  position: 
    x: 0.0165556166321
    y: -0.059497307986
    z: -0.0436885803938
  orientation: 
    x: 0.0246507257674
    y: -0.00120461530822
    z: -0.0303579392604
    w: 0.999234349962
---
header: 
  seq: 102
  stamp: 
    secs: 2268
    nsecs: 132000000
  frame_id: "world"
pose: 
  position: 
    x: 0.0178287550807
    y: -0.0683829709888
    z: -0.0427186377347
  orientation: 
    x: 0.0199247368152
    y: -0.0066751108961
    z: -0.0380046466094
    w: 0.999056602297
---
header: 
  seq: 103
  stamp: 
    secs: 2268
    nsecs: 561000000
  frame_id: "world"
pose: 
  position: 
    x: 0.022775946185
    y: -0.077683031559
    z: -0.0411986112595
  orientation: 
    x: 0.0203906434034
    y: -0.0141199110621
    z: -0.0340052039668
    w: 0.999113855312
---
header: 
  seq: 104
  stamp: 
    secs: 2268
    nsecs: 816000000
  frame_id: "world"
pose: 
  position: 
    x: 0.0145164942369
    y: -0.0766356363893
    z: -0.0401110239327
  orientation: 
    x: 0.0201203847736
    y: -0.0122625447577
    z: -0.0401147057314
    w: 0.998917219041
---
header: 
  seq: 105
  stamp: 
    secs: 2269
    nsecs:  59000000
  frame_id: "world"
pose: 
  position: 
    x: 0.0168406553566
    y: -0.0489399321377
    z: -0.029257806018
  orientation: 
    x: 0.0373506653023
    y: -0.0164096893516
    z: -0.0382204758724
    w: 0.998436199825
---
header: 
  seq: 106
  stamp: 
    secs: 2269
    nsecs: 304000000
  frame_id: "world"
pose: 
  position: 
    x: 0.0152474334463
    y: -0.0706156864762
    z: -0.040435500443
  orientation: 
    x: 0.0295585237533
    y: -0.0128760856164
    z: -0.0396518287619
    w: 0.998693262503
---
header: 
  seq: 107
  stamp: 
    secs: 2269
    nsecs: 582000000
  frame_id: "world"
pose: 
  position: 
    x: 0.0170369986445
    y: -0.0800883173943
    z: -0.0413898453116
  orientation: 
    x: 0.0255931207468
    y: -0.0149425939555
    z: -0.0461874271512
    w: 0.998493080912
---
header: 
  seq: 108
  stamp: 
    secs: 2270
    nsecs:  38000000
  frame_id: "world"
pose: 
  position: 
    x: 0.0125394137576
    y: -0.0670590698719
    z: -0.0387447178364
  orientation: 
    x: 0.0260850334312
    y: -0.013532643836
    z: -0.0460495975778
    w: 0.998506821782
---
header: 
  seq: 109
  stamp: 
    secs: 2270
    nsecs: 384000000
  frame_id: "world"
pose: 
  position: 
    x: 0.010212443769
    y: -0.0662458837032
    z: -0.0379084162414
  orientation: 
    x: 0.0321066860608
    y: -0.0138313517447
    z: -0.0414448637075
    w: 0.998529006935
---
header: 
  seq: 110
  stamp: 
    secs: 2270
    nsecs: 862000000
  frame_id: "world"
pose: 
  position: 
    x: 0.0253330040723
    y: -0.0657756924629
    z: -0.041274830699
  orientation: 
    x: 0.0380803705356
    y: -0.0224163319239
    z: -0.0471076054183
    w: 0.997911953508
---
header: 
  seq: 111
  stamp: 
    secs: 2271
    nsecs: 138000000
  frame_id: "world"
pose: 
  position: 
    x: 0.0125308632851
    y: -0.0979992002249
    z: -0.0393199548125
  orientation: 
    x: 0.0206949296568
    y: -0.0197506952465
    z: -0.0452867214974
    w: 0.998564340831
---
header: 
  seq: 112
  stamp: 
    secs: 2271
    nsecs: 389000000
  frame_id: "world"
pose: 
  position: 
    x: 0.0131739927456
    y: -0.113074965775
    z: -0.0428230240941
  orientation: 
    x: 0.0163096912535
    y: -0.0192114837193
    z: -0.0449855280987
    w: 0.998669722744
---
header: 
  seq: 113
  stamp: 
    secs: 2271
    nsecs: 633000000
  frame_id: "world"
pose: 
  position: 
    x: 0.0184756089002
    y: -0.085859388113
    z: -0.047181468457
  orientation: 
    x: 0.0303356547559
    y: -0.0246536934573
    z: -0.0475628932187
    w: 0.998103058125
---
header: 
  seq: 114
  stamp: 
    secs: 2271
    nsecs: 886000000
  frame_id: "world"
pose: 
  position: 
    x: 0.0171483661979
    y: -0.0913836508989
    z: -0.0442619770765
  orientation: 
    x: 0.0290484549448
    y: -0.027041654164
    z: -0.0477252847997
    w: 0.998071757639
---
header: 
  seq: 115
  stamp: 
    secs: 2272
    nsecs: 203000000
  frame_id: "world"
pose: 
  position: 
    x: 0.023831859231
    y: -0.0830941572785
    z: -0.0412161722779
  orientation: 
    x: 0.0402068781461
    y: -0.0337518704033
    z: -0.0521151631013
    w: 0.997260361174
---
header: 
  seq: 116
  stamp: 
    secs: 2272
    nsecs: 450000000
  frame_id: "world"
pose: 
  position: 
    x: 0.0280265323818
    y: -0.0461700074375
    z: -0.0286058969796
  orientation: 
    x: 0.0574758967589
    y: -0.0403542246219
    z: -0.0566477759253
    w: 0.995921225464
---
header: 
  seq: 117
  stamp: 
    secs: 2272
    nsecs: 862000000
  frame_id: "world"
pose: 
  position: 
    x: 0.0226530190557
    y: -0.0489688068628
    z: -0.0316253118217
  orientation: 
    x: 0.0541430241601
    y: -0.0420507919721
    z: -0.0600023877341
    w: 0.995841341427
---
header: 
  seq: 118
  stamp: 
    secs: 2273
    nsecs: 260000000
  frame_id: "world"
pose: 
  position: 
    x: 0.0357858352363
    y: -0.0367206260562
    z: -0.0283293556422
  orientation: 
    x: 0.067958481163
    y: -0.0544550899561
    z: -0.0623080353812
    w: 0.994250469823
---
header: 
  seq: 119
  stamp: 
    secs: 2273
    nsecs: 738000000
  frame_id: "world"
pose: 
  position: 
    x: 0.0741350352764
    y: -0.042130369693
    z: -0.0151482466608
  orientation: 
    x: 0.0660721699366
    y: -0.0758864839639
    z: -0.0628723841573
    w: 0.992936439669
---
header: 
  seq: 120
  stamp: 
    secs: 2273
    nsecs: 983000000
  frame_id: "world"
pose: 
  position: 
    x: 0.0587588213384
    y: -0.038243599236
    z: -0.00751735270023
  orientation: 
    x: 0.0677721115817
    y: -0.0740264491985
    z: -0.0663134890924
    w: 0.992738408079
---
header: 
  seq: 121
  stamp: 
    secs: 2274
    nsecs: 223000000
  frame_id: "world"
pose: 
  position: 
    x: 0.0542659275234
    y: -0.0402561761439
    z: 0.00304785300978
  orientation: 
    x: 0.0733101400336
    y: -0.0775509283093
    z: -0.0724205333108
    w: 0.991648497827
---
header: 
  seq: 122
  stamp: 
    secs: 2274
    nsecs: 432000000
  frame_id: "world"
pose: 
  position: 
    x: 0.0373849496245
    y: -0.0470279529691
    z: 0.00288694654591
  orientation: 
    x: 0.0729407728051
    y: -0.0721769243964
    z: -0.0728563800804
    w: 0.992049435829
---
header: 
  seq: 123
  stamp: 
    secs: 2274
    nsecs: 687000000
  frame_id: "world"
pose: 
  position: 
    x: 0.0663155764341
    y: -0.05205386132
    z: -0.00857407506555
  orientation: 
    x: 0.0702496561847
    y: -0.0907250644721
    z: -0.0783198264186
    w: 0.990302960347
---
header: 
  seq: 124
  stamp: 
    secs: 2275
    nsecs: 126000000
  frame_id: "world"
pose: 
  position: 
    x: 0.047977976501
    y: -0.049888253212
    z: -0.00501380953938
  orientation: 
    x: 0.0727835127046
    y: -0.0810825428227
    z: -0.0772060133033
    w: 0.99104359795
---
header: 
  seq: 125
  stamp: 
    secs: 2275
    nsecs: 617000000
  frame_id: "world"
pose: 
  position: 
    x: 0.0322606675327
    y: -0.0422746390104
    z: 0.0219204071909
  orientation: 
    x: 0.0794076288772
    y: -0.0800253266852
    z: -0.0725708423101
    w: 0.990971164268
---
header: 
  seq: 126
  stamp: 
    secs: 2276
    nsecs: 119000000
  frame_id: "world"
pose: 
  position: 
    x: 0.0327325835824
    y: -0.0406741052866
    z: 0.0534551255405
  orientation: 
    x: 0.0816831725156
    y: -0.0802766817345
    z: -0.0724658507851
    w: 0.990773543332
---
header: 
  seq: 127
  stamp: 
    secs: 2276
    nsecs: 361000000
  frame_id: "world"
pose: 
  position: 
    x: 0.0354304015636
    y: -0.0424403473735
    z: 0.0653459578753
  orientation: 
    x: 0.0827834650399
    y: -0.0798378632075
    z: -0.065978524656
    w: 0.991170846927
---
header: 
  seq: 128
  stamp: 
    secs: 2276
    nsecs: 594000000
  frame_id: "world"
pose: 
  position: 
    x: 0.0377562232316
    y: -0.0466297641397
    z: 0.0753606408834
  orientation: 
    x: 0.0865504930036
    y: -0.0779982177529
    z: -0.0702350483623
    w: 0.990702946483
---
header: 
  seq: 129
  stamp: 
    secs: 2276
    nsecs: 831000000
  frame_id: "world"
pose: 
  position: 
    x: 0.038633428514
    y: -0.0434177033603
    z: 0.0714040324092
  orientation: 
    x: 0.0866289485563
    y: -0.0774068362345
    z: -0.0687142813635
    w: 0.990849107843
---
header: 
  seq: 130
  stamp: 
    secs: 2277
    nsecs:  63000000
  frame_id: "world"
pose: 
  position: 
    x: 0.0571196638048
    y: -0.00287771224976
    z: 0.0883418917656
  orientation: 
    x: 0.111282004119
    y: -0.0858959169305
    z: -0.0733332845715
    w: 0.987350209595
---
header: 
  seq: 131
  stamp: 
    secs: 2277
    nsecs: 427000000
  frame_id: "world"
pose: 
  position: 
    x: 0.0579396747053
    y: 0.00662414822727
    z: 0.103717699647
  orientation: 
    x: 0.11837277831
    y: -0.0879140982484
    z: -0.0705740348961
    w: 0.986548682166
---
header: 
  seq: 132
  stamp: 
    secs: 2277
    nsecs: 930000000
  frame_id: "world"
pose: 
  position: 
    x: 0.0524542182684
    y: -0.00329081621021
    z: 0.113606512547
  orientation: 
    x: 0.121500341754
    y: -0.083785453344
    z: -0.0651352731004
    w: 0.986901748382
---
header: 
  seq: 133
  stamp: 
    secs: 2278
    nsecs: 511000000
  frame_id: "world"
pose: 
  position: 
    x: 0.0138053763658
    y: 0.00800238456577
    z: 0.0853549093008
  orientation: 
    x: 0.124946615957
    y: -0.0674485560812
    z: -0.0680962275987
    w: 0.987523133517
---
header: 
  seq: 134
  stamp: 
    secs: 2279
    nsecs:  73000000
  frame_id: "world"
pose: 
  position: 
    x: 0.0162097942084
    y: 0.00748047372326
    z: 0.0795333832502
  orientation: 
    x: 0.125758793286
    y: -0.0663801784946
    z: -0.068051522488
    w: 0.987495512953
---
header: 
  seq: 135
  stamp: 
    secs: 2279
    nsecs: 433000000
  frame_id: "world"
pose: 
  position: 
    x: 0.0237873271108
    y: 0.0117801045999
    z: 0.063555136323
  orientation: 
    x: 0.12834415957
    y: -0.0687492469845
    z: -0.071557706006
    w: 0.986752660222
---
header: 
  seq: 136
  stamp: 
    secs: 2279
    nsecs: 724000000
  frame_id: "world"
pose: 
  position: 
    x: 0.0239772312343
    y: 0.0207037869841
    z: 0.0496811047196
  orientation: 
    x: 0.132388421888
    y: -0.0684022425586
    z: -0.073254693724
    w: 0.986117735775
---
header: 
  seq: 137
  stamp: 
    secs: 2280
    nsecs:  28000000
  frame_id: "world"
pose: 
  position: 
    x: 0.0249794516712
    y: 0.0214197672904
    z: 0.0454940795898
  orientation: 
    x: 0.132139557046
    y: -0.0676605817104
    z: -0.0742053576486
    w: 0.986131202246
---
header: 
  seq: 138
  stamp: 
    secs: 2280
    nsecs: 420000000
  frame_id: "world"
pose: 
  position: 
    x: 0.0240333806723
    y: 0.0220114663243
    z: 0.0438165217638
  orientation: 
    x: 0.131723393256
    y: -0.067538300644
    z: -0.0749213411295
    w: 0.98614112492
---
header: 
  seq: 139
  stamp: 
    secs: 2280
    nsecs: 789000000
  frame_id: "world"
pose: 
  position: 
    x: 0.0245888214558
    y: 0.0335975326598
    z: 0.0429206937551
  orientation: 
    x: 0.12982752012
    y: -0.071997674739
    z: -0.0778863301092
    w: 0.985847285047
---
header: 
  seq: 140
  stamp: 
    secs: 2281
    nsecs: 181000000
  frame_id: "world"
pose: 
  position: 
    x: 0.0392126776278
    y: 0.0179386939853
    z: 0.0596601627767
  orientation: 
    x: 0.126048694847
    y: -0.0833561467341
    z: -0.0744682376757
    w: 0.985706833144
---
header: 
  seq: 141
  stamp: 
    secs: 2281
    nsecs: 612000000
  frame_id: "world"
pose: 
  position: 
    x: 0.0386611558497
    y: 0.0167522151023
    z: 0.0596982203424
  orientation: 
    x: 0.126705908812
    y: -0.0830577275068
    z: -0.0759268963602
    w: 0.985536469636
---
header: 
  seq: 142
  stamp: 
    secs: 2281
    nsecs: 865000000
  frame_id: "world"
pose: 
  position: 
    x: 0.0375150218606
    y: 0.0147814266384
    z: 0.0723272189498
  orientation: 
    x: 0.124569382309
    y: -0.0842934075195
    z: -0.0681876742163
    w: 0.986269502481
---
header: 
  seq: 143
  stamp: 
    secs: 2282
    nsecs: 112000000
  frame_id: "world"
pose: 
  position: 
    x: 0.0219975430518
    y: 0.0166393462569
    z: 0.079295925796
  orientation: 
    x: 0.124754066062
    y: -0.079399798498
    z: -0.0693689034424
    w: 0.986569840526
---
header: 
  seq: 144
  stamp: 
    secs: 2282
    nsecs: 353000000
  frame_id: "world"
pose: 
  position: 
    x: 0.0216198470443
    y: 0.02043469809
    z: 0.0683977901936
  orientation: 
    x: 0.123229793677
    y: -0.0813910908459
    z: -0.0694485038262
    w: 0.986593540217
---
header: 
  seq: 145
  stamp: 
    secs: 2282
    nsecs: 661000000
  frame_id: "world"
pose: 
  position: 
    x: 0.0233237929642
    y: 0.022532235831
    z: 0.0657217726111
  orientation: 
    x: 0.119493655317
    y: -0.0804377045547
    z: -0.0618718449936
    w: 0.987635011946
---
header: 
  seq: 146
  stamp: 
    secs: 2283
    nsecs:  54000000
  frame_id: "world"
pose: 
  position: 
    x: 0.0379601120949
    y: 0.0182435233146
    z: 0.0683836713433
  orientation: 
    x: 0.121020659806
    y: -0.0906858164882
    z: -0.0701777295789
    w: 0.986004649512
---
header: 
  seq: 147
  stamp: 
    secs: 2283
    nsecs: 392000000
  frame_id: "world"
pose: 
  position: 
    x: 0.0446790233254
    y: 0.00942495185882
    z: 0.07454238832
  orientation: 
    x: 0.116278897855
    y: -0.0946516065322
    z: -0.068298769721
    w: 0.986334410506
---
header: 
  seq: 148
  stamp: 
    secs: 2283
    nsecs: 848000000
  frame_id: "world"
pose: 
  position: 
    x: 0.0763292014599
    y: 0.0232969895005
    z: 0.089128382504
  orientation: 
    x: 0.116797522647
    y: -0.111212321873
    z: -0.0667560733874
    w: 0.984649066842
---
header: 
  seq: 149
  stamp: 
    secs: 2284
    nsecs: 224000000
  frame_id: "world"
pose: 
  position: 
    x: 0.0671447962523
    y: 0.0150339156389
    z: 0.115599289536
  orientation: 
    x: 0.117313859593
    y: -0.113626820646
    z: -0.0663343282708
    w: 0.984340469995
---
header: 
  seq: 150
  stamp: 
    secs: 2284
    nsecs: 478000000
  frame_id: "world"
pose: 
  position: 
    x: 0.0778051912785
    y: 0.0178365055472
    z: 0.116362966597
  orientation: 
    x: 0.114897409691
    y: -0.122870082418
    z: -0.0651962396494
    w: 0.983590859264
---
header: 
  seq: 151
  stamp: 
    secs: 2284
    nsecs: 719000000
  frame_id: "world"
pose: 
  position: 
    x: 0.0633179470897
    y: 0.00714148394763
    z: 0.10638050735
  orientation: 
    x: 0.107337233548
    y: -0.116350401822
    z: -0.0633386803702
    w: 0.985357556351
---
header: 
  seq: 152
  stamp: 
    secs: 2284
    nsecs: 965000000
  frame_id: "world"
pose: 
  position: 
    x: 0.128958418965
    y: -0.00392155023292
    z: 0.115337647498
  orientation: 
    x: 0.101574233691
    y: -0.151053188783
    z: -0.0589629927586
    w: 0.981523802408
---
header: 
  seq: 153
  stamp: 
    secs: 2285
    nsecs: 254000000
  frame_id: "world"
pose: 
  position: 
    x: 0.144561097026
    y: 0.00111419055611
    z: 0.113120511174
  orientation: 
    x: 0.105318980363
    y: -0.15717037689
    z: -0.0604708535587
    w: 0.98007584445
---
header: 
  seq: 154
  stamp: 
    secs: 2285
    nsecs: 621000000
  frame_id: "world"
pose: 
  position: 
    x: 0.174839675426
    y: -0.000777496490628
    z: 0.111515201628
  orientation: 
    x: 0.102383982509
    y: -0.172378086932
    z: -0.0598960944772
    w: 0.977862860087
---
header: 
  seq: 155
  stamp: 
    secs: 2285
    nsecs: 993000000
  frame_id: "world"
pose: 
  position: 
    x: 0.208466395736
    y: -0.00205335021019
    z: 0.11610352993
  orientation: 
    x: 0.101326018196
    y: -0.1882011298
    z: -0.0562771217267
    w: 0.97526727534
---
header: 
  seq: 156
  stamp: 
    secs: 2286
    nsecs: 523000000
  frame_id: "world"
pose: 
  position: 
    x: 0.218698844314
    y: -0.00590500654653
    z: 0.115481667221
  orientation: 
    x: 0.097970997049
    y: -0.2000191156
    z: -0.0622265321569
    w: 0.972893568602
---
header: 
  seq: 157
  stamp: 
    secs: 2286
    nsecs: 861000000
  frame_id: "world"
pose: 
  position: 
    x: 0.223766893148
    y: 0.00604387372732
    z: 0.0917688310146
  orientation: 
    x: 0.0963991355369
    y: -0.188200175433
    z: -0.0538434044656
    w: 0.975904087721
---
header: 
  seq: 158
  stamp: 
    secs: 2287
    nsecs:  94000000
  frame_id: "world"
pose: 
  position: 
    x: 0.207846403122
    y: -0.00475936569273
    z: 0.115420900285
  orientation: 
    x: 0.0893539553624
    y: -0.18973830147
    z: -0.0526319848544
    w: 0.976342727625
---
header: 
  seq: 159
  stamp: 
    secs: 2287
    nsecs: 337000000
  frame_id: "world"
pose: 
  position: 
    x: 0.18843396008
    y: -0.00581511529163
    z: 0.0971874594688
  orientation: 
    x: 0.0892641851404
    y: -0.175796763889
    z: -0.0577472603208
    w: 0.978668818847
---
header: 
  seq: 160
  stamp: 
    secs: 2287
    nsecs: 584000000
  frame_id: "world"
pose: 
  position: 
    x: 0.188620850444
    y: -0.00612827343866
    z: 0.0967132225633
  orientation: 
    x: 0.0890320752177
    y: -0.173582045491
    z: -0.0536102042381
    w: 0.979320432273
---
header: 
  seq: 161
  stamp: 
    secs: 2287
    nsecs: 869000000
  frame_id: "world"
pose: 
  position: 
    x: 0.187792360783
    y: -0.00546088255942
    z: 0.0947304368019
  orientation: 
    x: 0.0883077915304
    y: -0.17357848821
    z: -0.04929305257
    w: 0.979613412196
---
header: 
  seq: 162
  stamp: 
    secs: 2288
    nsecs: 320000000
  frame_id: "world"
pose: 
  position: 
    x: 0.236237391829
    y: 0.00049124378711
    z: 0.103904396296
  orientation: 
    x: 0.0907747362887
    y: -0.192090404877
    z: -0.0552641854993
    w: 0.975606013413
---
header: 
  seq: 163
  stamp: 
    secs: 2288
    nsecs: 659000000
  frame_id: "world"
pose: 
  position: 
    x: 0.232387647033
    y: 0.00351469498128
    z: 0.096836283803
  orientation: 
    x: 0.0898787471884
    y: -0.192436907593
    z: -0.0543598320115
    w: 0.975671489828
---
header: 
  seq: 164
  stamp: 
    secs: 2289
    nsecs: 181000000
  frame_id: "world"
pose: 
  position: 
    x: 0.233229488134
    y: 0.00326421577483
    z: 0.0956340953708
  orientation: 
    x: 0.0896597274706
    y: -0.192426099001
    z: -0.0524877008034
    w: 0.975796275335
---
header: 
  seq: 165
  stamp: 
    secs: 2289
    nsecs: 499000000
  frame_id: "world"
pose: 
  position: 
    x: 0.224311307073
    y: 0.00208560656756
    z: 0.113281130791
  orientation: 
    x: 0.088144277085
    y: -0.189084046751
    z: -0.0477014019123
    w: 0.976832834182
---
header: 
  seq: 166
  stamp: 
    secs: 2289
    nsecs: 736000000
  frame_id: "world"
pose: 
  position: 
    x: 0.192712843418
    y: -0.00251469272189
    z: 0.110410578549
  orientation: 
    x: 0.084058196232
    y: -0.174087317619
    z: -0.0451950361093
    w: 0.980094502689
---
header: 
  seq: 167
  stamp: 
    secs: 2289
    nsecs: 974000000
  frame_id: "world"
pose: 
  position: 
    x: 0.19320076704
    y: -0.00169505551457
    z: 0.109736472368
  orientation: 
    x: 0.0834816971184
    y: -0.173611308717
    z: -0.043677261858
    w: 0.980297004243
---
header: 
  seq: 168
  stamp: 
    secs: 2290
    nsecs: 208000000
  frame_id: "world"
pose: 
  position: 
    x: 0.19020563364
    y: -0.00283587467857
    z: 0.107180513442
  orientation: 
    x: 0.084618217573
    y: -0.172769783248
    z: -0.0444800960054
    w: 0.980312134124
---
header: 
  seq: 169
  stamp: 
    secs: 2290
    nsecs: 703000000
  frame_id: "world"
pose: 
  position: 
    x: 0.174297362566
    y: 0.0137316519395
    z: 0.0956570655107
  orientation: 
    x: 0.0894730518619
    y: -0.158746104951
    z: -0.0494601268712
    w: 0.982012190863
---
header: 
  seq: 170
  stamp: 
    secs: 2291
    nsecs:  47000000
  frame_id: "world"
pose: 
  position: 
    x: 0.177330806851
    y: 0.018311643973
    z: 0.0805940181017
  orientation: 
    x: 0.0880255632573
    y: -0.157829883677
    z: -0.0469602348151
    w: 0.982413336828
---
header: 
  seq: 171
  stamp: 
    secs: 2291
    nsecs: 510000000
  frame_id: "world"
pose: 
  position: 
    x: 0.192930519581
    y: 0.031621940434
    z: 0.0148168727756
  orientation: 
    x: 0.0839147392473
    y: -0.142318244294
    z: -0.0423688577266
    w: 0.985347001707
---
header: 
  seq: 172
  stamp: 
    secs: 2291
    nsecs: 943000000
  frame_id: "world"
pose: 
  position: 
    x: 0.206386163831
    y: 0.0266109406948
    z: -0.017342608422
  orientation: 
    x: 0.0837698578379
    y: -0.136632892184
    z: -0.0520945107514
    w: 0.985697836886
---
header: 
  seq: 173
  stamp: 
    secs: 2292
    nsecs: 313000000
  frame_id: "world"
pose: 
  position: 
    x: 0.238304495811
    y: 0.00852417014539
    z: 0.0137949790806
  orientation: 
    x: 0.0720266918661
    y: -0.1501168897
    z: -0.0495053601051
    w: 0.984797590577
---
header: 
  seq: 174
  stamp: 
    secs: 2292
    nsecs: 743000000
  frame_id: "world"
pose: 
  position: 
    x: 0.213377326727
    y: 0.00141752883792
    z: 0.0280495136976
  orientation: 
    x: 0.0664149741724
    y: -0.15013736383
    z: -0.0429633964619
    w: 0.985495798952
---
header: 
  seq: 175
  stamp: 
    secs: 2293
    nsecs: 293000000
  frame_id: "world"
pose: 
  position: 
    x: 0.258258372545
    y: 0.00764019135386
    z: 0.0481784269214
  orientation: 
    x: 0.0678594963068
    y: -0.177735511023
    z: -0.0424264008986
    w: 0.980818626143
---
header: 
  seq: 176
  stamp: 
    secs: 2293
    nsecs: 805000000
  frame_id: "world"
pose: 
  position: 
    x: 0.238328829408
    y: 0.00619651516899
    z: 0.0534007400274
  orientation: 
    x: 0.063486363928
    y: -0.176421021529
    z: -0.0443654072906
    w: 0.981262867632
---
header: 
  seq: 177
  stamp: 
    secs: 2294
    nsecs: 196000000
  frame_id: "world"
pose: 
  position: 
    x: 0.292911857367
    y: -0.00164794363081
    z: 0.0502749308944
  orientation: 
    x: 0.0568363028893
    y: -0.203344836851
    z: -0.0416552431199
    w: 0.976568150577
---
header: 
  seq: 178
  stamp: 
    secs: 2294
    nsecs: 619000000
  frame_id: "world"
pose: 
  position: 
    x: 0.319728374481
    y: 0.00384844560176
    z: 0.0486180372536
  orientation: 
    x: 0.0501305151565
    y: -0.216949592093
    z: -0.0384973725908
    w: 0.974134363548
---
header: 
  seq: 179
  stamp: 
    secs: 2294
    nsecs: 861000000
  frame_id: "world"
pose: 
  position: 
    x: 0.331516593695
    y: 0.00563567038625
    z: 0.0687820464373
  orientation: 
    x: 0.0447789125703
    y: -0.227583136632
    z: -0.0308032738892
    w: 0.972240671453
---
header: 
  seq: 180
  stamp: 
    secs: 2295
    nsecs: 107000000
  frame_id: "world"
pose: 
  position: 
    x: 0.373226195574
    y: 0.00689356960356
    z: 0.0603767074645
  orientation: 
    x: 0.0376549896467
    y: -0.243162555941
    z: -0.0295798833037
    w: 0.968802923017
---
header: 
  seq: 181
  stamp: 
    secs: 2295
    nsecs: 350000000
  frame_id: "world"
pose: 
  position: 
    x: 0.450085043907
    y: 0.0224712025374
    z: 0.0523692220449
  orientation: 
    x: 0.0383656821742
    y: -0.260618343393
    z: -0.0340954454883
    w: 0.964076581043
---
header: 
  seq: 182
  stamp: 
    secs: 2295
    nsecs: 572000000
  frame_id: "world"
pose: 
  position: 
    x: 0.416281014681
    y: 0.0330096408725
    z: 0.0218564365059
  orientation: 
    x: 0.0337224131376
    y: -0.237359387468
    z: -0.0253901407462
    w: 0.970504333213
---
header: 
  seq: 183
  stamp: 
    secs: 2296
    nsecs:  14000000
  frame_id: "world"
pose: 
  position: 
    x: 0.469691544771
    y: -0.00330887828022
    z: 0.0766145512462
  orientation: 
    x: -0.00109994566229
    y: -0.263274798983
    z: -0.00400258803629
    w: 0.964711951636
---
header: 
  seq: 184
  stamp: 
    secs: 2296
    nsecs: 341000000
  frame_id: "world"
pose: 
  position: 
    x: 0.478544324636
    y: 0.0104845240712
    z: 0.0814745277166
  orientation: 
    x: 0.00628475024404
    y: -0.264783102048
    z: -0.00586909354748
    w: 0.96426965343
---
header: 
  seq: 185
  stamp: 
    secs: 2296
    nsecs: 556000000
  frame_id: "world"
pose: 
  position: 
    x: 0.47560480237
    y: 0.0010675766971
    z: 0.0725458562374
  orientation: 
    x: 0.00103251803623
    y: -0.262842607489
    z: -0.00431008514482
    w: 0.964828544748
---
header: 
  seq: 186
  stamp: 
    secs: 2296
    nsecs: 887000000
  frame_id: "world"
pose: 
  position: 
    x: 0.473393559456
    y: -0.00205329596065
    z: 0.0748050734401
  orientation: 
    x: -0.000404235620328
    y: -0.264117969867
    z: -0.00409772454933
    w: 0.964481593002
---
header: 
  seq: 187
  stamp: 
    secs: 2297
    nsecs: 129000000
  frame_id: "world"
pose: 
  position: 
    x: 0.473345130682
    y: -0.00203962321393
    z: 0.0751707330346
  orientation: 
    x: -0.000365685069629
    y: -0.263858572218
    z: -0.00429346947894
    w: 0.96455175406
---
header: 
  seq: 188
  stamp: 
    secs: 2297
    nsecs: 386000000
  frame_id: "world"
pose: 
  position: 
    x: 0.457704335451
    y: -0.00187743559945
    z: 0.0802178531885
  orientation: 
    x: -0.000481856199808
    y: -0.260448588405
    z: -0.00377759499879
    w: 0.965480207145
---
header: 
  seq: 189
  stamp: 
    secs: 2297
    nsecs: 653000000
  frame_id: "world"
pose: 
  position: 
    x: 0.477312713861
    y: -0.00318774348125
    z: 0.081076040864
  orientation: 
    x: -0.000812770596403
    y: -0.267740538507
    z: -0.00434361988735
    w: 0.963480916474
---
header: 
  seq: 190
  stamp: 
    secs: 2297
    nsecs: 947000000
  frame_id: "world"
pose: 
  position: 
    x: 0.467832922935
    y: 0.0109503846616
    z: 0.0940002650023
  orientation: 
    x: 0.00667731692537
    y: -0.265387742041
    z: -0.00634095068755
    w: 0.964097791802
---
header: 
  seq: 191
  stamp: 
    secs: 2298
    nsecs: 300000000
  frame_id: "world"
pose: 
  position: 
    x: 0.385246694088
    y: 0.003641564399
    z: 0.0447490401566
  orientation: 
    x: 0.00212265903944
    y: -0.226943139119
    z: -0.00376286224338
    w: 0.973898427349
---
header: 
  seq: 192
  stamp: 
    secs: 2298
    nsecs: 644000000
  frame_id: "world"
pose: 
  position: 
    x: 0.387881189585
    y: 1.00524630398e-05
    z: 0.0600681006908
  orientation: 
    x: 0.000454204614987
    y: -0.233269315
    z: -0.00301654608484
    w: 0.97240738419
---
header: 
  seq: 193
  stamp: 
    secs: 2298
    nsecs: 977000000
  frame_id: "world"
pose: 
  position: 
    x: 0.4114151299
    y: -0.00179541972466
    z: 0.0651026144624
  orientation: 
    x: -0.00027290012423
    y: -0.242583792996
    z: -0.00356355467494
    w: 0.970123873523
---
header: 
  seq: 194
  stamp: 
    secs: 2299
    nsecs: 321000000
  frame_id: "world"
pose: 
  position: 
    x: 0.408937573433
    y: -0.00166111113504
    z: 0.0592583939433
  orientation: 
    x: -0.000309991170962
    y: -0.241467927186
    z: -0.00345085685767
    w: 0.970402615224
---
header: 
  seq: 195
  stamp: 
    secs: 2299
    nsecs: 572000000
  frame_id: "world"
pose: 
  position: 
    x: 0.369336605072
    y: 0.0154616255313
    z: 0.0323301441967
  orientation: 
    x: 0.00806355536743
    y: -0.223993187981
    z: -0.00748965393118
    w: 0.974528571103
---
header: 
  seq: 196
  stamp: 
    secs: 2299
    nsecs: 826000000
  frame_id: "world"
pose: 
  position: 
    x: 0.40827563405
    y: -0.00136430875864
    z: 0.0575016364455
  orientation: 
    x: -0.000165378056216
    y: -0.240887333006
    z: -0.0032672100622
    w: 0.970547572655
---
header: 
  seq: 197
  stamp: 
    secs: 2300
    nsecs:  61000000
  frame_id: "world"
pose: 
  position: 
    x: 0.381110161543
    y: -0.00340710044838
    z: 0.0559172928333
  orientation: 
    x: -0.00114790605218
    y: -0.229199660619
    z: -0.00328066453003
    w: 0.973373224988
---
header: 
  seq: 198
  stamp: 
    secs: 2300
    nsecs: 271000000
  frame_id: "world"
pose: 
  position: 
    x: 0.401298552752
    y: -0.00159138033632
    z: 0.0592263862491
  orientation: 
    x: -0.000298447577692
    y: -0.243576429778
    z: -0.0032896133064
    w: 0.969876080863
---
header: 
  seq: 199
  stamp: 
    secs: 2300
    nsecs: 572000000
  frame_id: "world"
pose: 
  position: 
    x: 0.425902068615
    y: 0.00827967189252
    z: 0.057308703661
  orientation: 
    x: 0.00462182650033
    y: -0.24953595875
    z: -0.00494624945413
    w: 0.968341870739
---
header: 
  seq: 200
  stamp: 
    secs: 2300
    nsecs: 986000000
  frame_id: "world"
pose: 
  position: 
    x: 0.417204707861
    y: -0.00131576601416
    z: 0.0614607520401
  orientation: 
    x: -0.000108664752844
    y: -0.248313440378
    z: -0.00329813405749
    w: 0.968674117457
---
header: 
  seq: 201
  stamp: 
    secs: 2301
    nsecs: 387000000
  frame_id: "world"
pose: 
  position: 
    x: 0.442654639482
    y: -0.00178154243622
    z: 0.0715127438307
  orientation: 
    x: -0.000241462162355
    y: -0.259214184014
    z: -0.00359869177601
    w: 0.965813127846
---
header: 
  seq: 202
  stamp: 
    secs: 2301
    nsecs: 629000000
  frame_id: "world"
pose: 
  position: 
    x: 0.432266294956
    y: -0.00271856528707
    z: 0.0709149092436
  orientation: 
    x: -0.000723905282493
    y: -0.25548664774
    z: -0.00359667926701
    w: 0.966805623011
---
header: 
  seq: 203
  stamp: 
    secs: 2301
    nsecs: 851000000
  frame_id: "world"
pose: 
  position: 
    x: 0.427652895451
    y: -0.00153144018259
    z: 0.0674129575491
  orientation: 
    x: -0.000190354436111
    y: -0.253208354382
    z: -0.00373275509881
    w: 0.967404548044
---
header: 
  seq: 204
  stamp: 
    secs: 2302
    nsecs:  94000000
  frame_id: "world"
pose: 
  position: 
    x: 0.427748322487
    y: -0.00195930059999
    z: 0.066530123353
  orientation: 
    x: -0.000395430511775
    y: -0.252281396232
    z: -0.00371212370571
    w: 0.967646712849
---
header: 
  seq: 205
  stamp: 
    secs: 2302
    nsecs: 337000000
  frame_id: "world"
pose: 
  position: 
    x: 0.390949636698
    y: -0.00127259804867
    z: 0.0570042468607
  orientation: 
    x: -0.00016818592195
    y: -0.236839002105
    z: -0.00319844332198
    w: 0.971543631936
---
header: 
  seq: 206
  stamp: 
    secs: 2302
    nsecs: 579000000
  frame_id: "world"
pose: 
  position: 
    x: 0.418339312077
    y: 0.000932641793042
    z: 0.0635338872671
  orientation: 
    x: 0.000839958145735
    y: -0.246023879542
    z: -0.00332022389933
    w: 0.969257716646
---
header: 
  seq: 207
  stamp: 
    secs: 2302
    nsecs: 815000000
  frame_id: "world"
pose: 
  position: 
    x: 0.427863359451
    y: -0.00153503799811
    z: 0.0635362640023
  orientation: 
    x: -0.000211883407407
    y: -0.250257877538
    z: -0.00366805351263
    w: 0.968172244603
---
header: 
  seq: 208
  stamp: 
    secs: 2303
    nsecs:  60000000
  frame_id: "world"
pose: 
  position: 
    x: 0.437812685966
    y: -0.000990881235339
    z: 0.072327002883
  orientation: 
    x: 0.000137021221217
    y: -0.257864971585
    z: -0.00356304072507
    w: 0.966174385085
---
header: 
  seq: 209
  stamp: 
    secs: 2303
    nsecs: 350000000
  frame_id: "world"
pose: 
  position: 
    x: 0.431557446718
    y: -0.00233758706599
    z: 0.0759055539966
  orientation: 
    x: -0.000520948651772
    y: -0.258099070164
    z: -0.00382771515957
    w: 0.966110732364
---
header: 
  seq: 210
  stamp: 
    secs: 2303
    nsecs: 601000000
  frame_id: "world"
pose: 
  position: 
    x: 0.415517807007
    y: -0.00173501763493
    z: 0.0667158961296
  orientation: 
    x: -0.000401813802098
    y: -0.256252987606
    z: -0.00346480450678
    w: 0.966603455414
---
