header: 
  seq: 3813
  stamp: 
    secs: 698
    nsecs: 202000000
  frame_id: "map"
pose: 
  position: 
    x: -2.85326477525e-05
    y: -3.82973461458e-06
    z: 0.039996101972
  orientation: 
    x: -4.17907652065e-09
    y: -2.0486693818e-05
    z: 8.54298748221e-06
    w: 0.999999999754
---
header: 
  seq: 3814
  stamp: 
    secs: 698
    nsecs: 212000000
  frame_id: "map"
pose: 
  position: 
    x: -2.45166556969e-05
    y: -3.83081975353e-06
    z: 0.0399940583315
  orientation: 
    x: 1.84844461578e-09
    y: 2.9704540255e-05
    z: 8.54203704694e-06
    w: 0.999999999522
---
header: 
  seq: 3815
  stamp: 
    secs: 698
    nsecs: 222000000
  frame_id: "map"
pose: 
  position: 
    x: -2.68931091548e-05
    y: -3.830953993e-06
    z: 0.0399999991374
  orientation: 
    x: 1.05871007864e-11
    y: -7.50073736496e-12
    z: 8.54109176654e-06
    w: 0.999999999964
---
header: 
  seq: 3816
  stamp: 
    secs: 698
    nsecs: 232000000
  frame_id: "map"
pose: 
  position: 
    x: -2.85320512739e-05
    y: -3.83080621544e-06
    z: 0.039996101972
  orientation: 
    x: -4.17912802756e-09
    y: -2.0486693818e-05
    z: 8.54047229879e-06
    w: 0.999999999754
---
header: 
  seq: 3817
  stamp: 
    secs: 698
    nsecs: 242000000
  frame_id: "map"
pose: 
  position: 
    x: -2.45160592183e-05
    y: -3.83189137457e-06
    z: 0.0399940583315
  orientation: 
    x: 1.84851930551e-09
    y: 2.97045402551e-05
    z: 8.53952186356e-06
    w: 0.999999999522
---
header: 
  seq: 3818
  stamp: 
    secs: 698
    nsecs: 252000000
  frame_id: "map"
pose: 
  position: 
    x: -2.68925126762e-05
    y: -3.8320256021e-06
    z: 0.0399999991374
  orientation: 
    x: 1.05870954473e-11
    y: -7.50074312478e-12
    z: 8.53857658319e-06
    w: 0.999999999964
---
header: 
  seq: 3819
  stamp: 
    secs: 698
    nsecs: 262000000
  frame_id: "map"
pose: 
  position: 
    x: -2.85314547952e-05
    y: -3.83187781629e-06
    z: 0.039996101972
  orientation: 
    x: -4.17917951439e-09
    y: -2.0486693818e-05
    z: 8.53795711548e-06
    w: 0.999999999754
---
header: 
  seq: 3820
  stamp: 
    secs: 698
    nsecs: 272000000
  frame_id: "map"
pose: 
  position: 
    x: -2.45154627396e-05
    y: -3.83296299563e-06
    z: 0.0399940583315
  orientation: 
    x: 1.84859400503e-09
    y: 2.97045402551e-05
    z: 8.53700668028e-06
    w: 0.999999999522
---
header: 
  seq: 3821
  stamp: 
    secs: 698
    nsecs: 282000000
  frame_id: "map"
pose: 
  position: 
    x: -2.68919161976e-05
    y: -3.8330972112e-06
    z: 0.0399999991374
  orientation: 
    x: 1.05871078409e-11
    y: -7.50073309591e-12
    z: 8.53606139996e-06
    w: 0.999999999964
---
header: 
  seq: 3822
  stamp: 
    secs: 698
    nsecs: 292000000
  frame_id: "map"
pose: 
  position: 
    x: -2.85308583166e-05
    y: -3.83294941715e-06
    z: 0.039996101972
  orientation: 
    x: -4.17923102067e-09
    y: -2.0486693818e-05
    z: 8.53544193229e-06
    w: 0.999999999754
---
header: 
  seq: 3823
  stamp: 
    secs: 698
    nsecs: 302000000
  frame_id: "map"
pose: 
  position: 
    x: -2.4514866261e-05
    y: -3.83403461668e-06
    z: 0.0399940583315
  orientation: 
    x: 1.84866869669e-09
    y: 2.97045402551e-05
    z: 8.53449149712e-06
    w: 0.999999999522
---
header: 
  seq: 3824
  stamp: 
    secs: 698
    nsecs: 312000000
  frame_id: "map"
pose: 
  position: 
    x: -2.68913197189e-05
    y: -3.8341688203e-06
    z: 0.0399999991374
  orientation: 
    x: 1.05870963719e-11
    y: -7.50074072937e-12
    z: 8.53354621684e-06
    w: 0.999999999964
---
header: 
  seq: 3825
  stamp: 
    secs: 698
    nsecs: 322000000
  frame_id: "map"
pose: 
  position: 
    x: -2.8530261838e-05
    y: -3.83402101802e-06
    z: 0.039996101972
  orientation: 
    x: -4.17928249523e-09
    y: -2.0486693818e-05
    z: 8.53292674921e-06
    w: 0.999999999754
---
header: 
  seq: 3826
  stamp: 
    secs: 698
    nsecs: 332000000
  frame_id: "map"
pose: 
  position: 
    x: -2.45142697823e-05
    y: -3.83510623774e-06
    z: 0.0399940583315
  orientation: 
    x: 1.84874340305e-09
    y: 2.97045402552e-05
    z: 8.53197631408e-06
    w: 0.999999999522
---
header: 
  seq: 3827
  stamp: 
    secs: 698
    nsecs: 342000000
  frame_id: "map"
pose: 
  position: 
    x: -2.68907232403e-05
    y: -3.83524042941e-06
    z: 0.0399999991374
  orientation: 
    x: 1.05871040991e-11
    y: -7.50073130359e-12
    z: 8.53103103383e-06
    w: 0.999999999964
---
header: 
  seq: 3828
  stamp: 
    secs: 698
    nsecs: 352000000
  frame_id: "map"
pose: 
  position: 
    x: -2.85296653593e-05
    y: -3.83509261889e-06
    z: 0.039996101972
  orientation: 
    x: -4.17933399498e-09
    y: -2.0486693818e-05
    z: 8.53041156624e-06
    w: 0.999999999754
---
header: 
  seq: 3829
  stamp: 
    secs: 698
    nsecs: 362000000
  frame_id: "map"
pose: 
  position: 
    x: -2.45136733037e-05
    y: -3.83617785881e-06
    z: 0.0399940583315
  orientation: 
    x: 1.84881808242e-09
    y: 2.97045402551e-05
    z: 8.52946113114e-06
    w: 0.999999999522
---
header: 
  seq: 3830
  stamp: 
    secs: 698
    nsecs: 372000000
  frame_id: "map"
pose: 
  position: 
    x: -2.68901267616e-05
    y: -3.83631203853e-06
    z: 0.0399999991374
  orientation: 
    x: 1.05870956823e-11
    y: -7.50073643322e-12
    z: 8.52851585093e-06
    w: 0.999999999964
---
header: 
  seq: 3831
  stamp: 
    secs: 698
    nsecs: 382000000
  frame_id: "map"
pose: 
  position: 
    x: -2.85290688807e-05
    y: -3.83616421976e-06
    z: 0.039996101972
  orientation: 
    x: -4.1793854966e-09
    y: -2.0486693818e-05
    z: 8.52789638338e-06
    w: 0.999999999754
---
header: 
  seq: 3832
  stamp: 
    secs: 698
    nsecs: 392000000
  frame_id: "map"
pose: 
  position: 
    x: -2.4513076825e-05
    y: -3.83724947988e-06
    z: 0.0399940583315
  orientation: 
    x: 1.84889278312e-09
    y: 2.97045402552e-05
    z: 8.52694594832e-06
    w: 0.999999999522
---
header: 
  seq: 3833
  stamp: 
    secs: 698
    nsecs: 402000000
  frame_id: "map"
pose: 
  position: 
    x: -2.6889530283e-05
    y: -3.83738364765e-06
    z: 0.0399999991374
  orientation: 
    x: 1.05871043216e-11
    y: -7.50073325854e-12
    z: 8.52600066815e-06
    w: 0.999999999964
---
header: 
  seq: 3834
  stamp: 
    secs: 698
    nsecs: 412000000
  frame_id: "map"
pose: 
  position: 
    x: -2.8528472402e-05
    y: -3.83723582064e-06
    z: 0.039996101972
  orientation: 
    x: -4.17943699474e-09
    y: -2.04866938179e-05
    z: 8.52538120064e-06
    w: 0.999999999754
---
header: 
  seq: 3835
  stamp: 
    secs: 698
    nsecs: 422000000
  frame_id: "map"
pose: 
  position: 
    x: -2.45124803464e-05
    y: -3.83832110095e-06
    z: 0.0399940583315
  orientation: 
    x: 1.84896749033e-09
    y: 2.97045402551e-05
    z: 8.52443076562e-06
    w: 0.999999999522
---
header: 
  seq: 3836
  stamp: 
    secs: 698
    nsecs: 432000000
  frame_id: "map"
pose: 
  position: 
    x: -2.68889338043e-05
    y: -3.83845525677e-06
    z: 0.0399999991374
  orientation: 
    x: 1.05870992948e-11
    y: -7.50073297394e-12
    z: 8.52348548548e-06
    w: 0.999999999964
---
header: 
  seq: 3837
  stamp: 
    secs: 698
    nsecs: 442000000
  frame_id: "map"
pose: 
  position: 
    x: -2.85278759234e-05
    y: -3.83830742152e-06
    z: 0.039996101972
  orientation: 
    x: -4.17948848886e-09
    y: -2.04866938179e-05
    z: 8.52286601801e-06
    w: 0.999999999754
---
header: 
  seq: 3838
  stamp: 
    secs: 698
    nsecs: 452000000
  frame_id: "map"
pose: 
  position: 
    x: -2.45118838677e-05
    y: -3.83939272203e-06
    z: 0.0399940583315
  orientation: 
    x: 1.84904217239e-09
    y: 2.97045402552e-05
    z: 8.52191558302e-06
    w: 0.999999999523
---
header: 
  seq: 3839
  stamp: 
    secs: 698
    nsecs: 462000000
  frame_id: "map"
pose: 
  position: 
    x: -2.68883373257e-05
    y: -3.83952686589e-06
    z: 0.0399999991374
  orientation: 
    x: 1.05871013332e-11
    y: -7.50073902175e-12
    z: 8.52097030293e-06
    w: 0.999999999964
---
header: 
  seq: 3840
  stamp: 
    secs: 698
    nsecs: 472000000
  frame_id: "map"
pose: 
  position: 
    x: -2.85272794447e-05
    y: -3.83937902241e-06
    z: 0.039996101972
  orientation: 
    x: -4.17953998096e-09
    y: -2.04866938179e-05
    z: 8.52035083549e-06
    w: 0.999999999754
---
header: 
  seq: 3841
  stamp: 
    secs: 698
    nsecs: 482000000
  frame_id: "map"
pose: 
  position: 
    x: -2.45112873891e-05
    y: -3.84046434311e-06
    z: 0.0399940583315
  orientation: 
    x: 1.8491168694e-09
    y: 2.97045402552e-05
    z: 8.51940040054e-06
    w: 0.999999999523
---
header: 
  seq: 3842
  stamp: 
    secs: 698
    nsecs: 492000000
  frame_id: "map"
pose: 
  position: 
    x: -2.6887740847e-05
    y: -3.84059847502e-06
    z: 0.0399999991374
  orientation: 
    x: 1.05870930908e-11
    y: -7.5007396655e-12
    z: 8.51845512049e-06
    w: 0.999999999964
---
header: 
  seq: 3843
  stamp: 
    secs: 698
    nsecs: 502000000
  frame_id: "map"
pose: 
  position: 
    x: -2.85266829661e-05
    y: -3.8404506233e-06
    z: 0.039996101972
  orientation: 
    x: -4.17959146484e-09
    y: -2.04866938179e-05
    z: 8.51783565309e-06
    w: 0.999999999754
---
header: 
  seq: 3844
  stamp: 
    secs: 698
    nsecs: 512000000
  frame_id: "map"
pose: 
  position: 
    x: -2.45106909104e-05
    y: -3.8415359642e-06
    z: 0.0399940583315
  orientation: 
    x: 1.84919157618e-09
    y: 2.97045402552e-05
    z: 8.51688521817e-06
    w: 0.999999999523
---
header: 
  seq: 3845
  stamp: 
    secs: 698
    nsecs: 522000000
  frame_id: "map"
pose: 
  position: 
    x: -2.68871443684e-05
    y: -3.84167008416e-06
    z: 0.0399999991374
  orientation: 
    x: 1.05870930644e-11
    y: -7.50074328063e-12
    z: 8.51593993816e-06
    w: 0.999999999964
---
header: 
  seq: 3846
  stamp: 
    secs: 698
    nsecs: 532000000
  frame_id: "map"
pose: 
  position: 
    x: -2.85260864874e-05
    y: -3.84152222419e-06
    z: 0.039996101972
  orientation: 
    x: -4.17964298508e-09
    y: -2.04866938179e-05
    z: 8.5153204708e-06
    w: 0.999999999754
---
header: 
  seq: 3847
  stamp: 
    secs: 698
    nsecs: 542000000
  frame_id: "map"
pose: 
  position: 
    x: -2.45100944318e-05
    y: -3.84260758529e-06
    z: 0.0399940583315
  orientation: 
    x: 1.84926628016e-09
    y: 2.97045402553e-05
    z: 8.51437003592e-06
    w: 0.999999999523
---
header: 
  seq: 3848
  stamp: 
    secs: 698
    nsecs: 552000000
  frame_id: "map"
pose: 
  position: 
    x: -2.68865478897e-05
    y: -3.8427416933e-06
    z: 0.0399999991374
  orientation: 
    x: 1.0587111304e-11
    y: -7.5007325267e-12
    z: 8.51342475594e-06
    w: 0.999999999964
---
header: 
  seq: 3849
  stamp: 
    secs: 698
    nsecs: 562000000
  frame_id: "map"
pose: 
  position: 
    x: -2.85254900088e-05
    y: -3.84259382509e-06
    z: 0.039996101972
  orientation: 
    x: -4.17969445747e-09
    y: -2.04866938179e-05
    z: 8.51280528862e-06
    w: 0.999999999754
---
header: 
  seq: 3850
  stamp: 
    secs: 698
    nsecs: 572000000
  frame_id: "map"
pose: 
  position: 
    x: -2.45094979531e-05
    y: -3.84367920638e-06
    z: 0.0399940583315
  orientation: 
    x: 1.84934095525e-09
    y: 2.97045402553e-05
    z: 8.51185485378e-06
    w: 0.999999999523
---
header: 
  seq: 3851
  stamp: 
    secs: 698
    nsecs: 582000000
  frame_id: "map"
pose: 
  position: 
    x: -2.68859514111e-05
    y: -3.84381330244e-06
    z: 0.0399999991374
  orientation: 
    x: 1.05871087546e-11
    y: -7.50072672283e-12
    z: 8.51090957384e-06
    w: 0.999999999964
---
header: 
  seq: 3852
  stamp: 
    secs: 698
    nsecs: 592000000
  frame_id: "map"
pose: 
  position: 
    x: -2.85248935301e-05
    y: -3.84366542599e-06
    z: 0.039996101972
  orientation: 
    x: -4.17974596473e-09
    y: -2.04866938179e-05
    z: 8.51029010656e-06
    w: 0.999999999754
---
header: 
  seq: 3853
  stamp: 
    secs: 698
    nsecs: 602000000
  frame_id: "map"
pose: 
  position: 
    x: -2.45089014745e-05
    y: -3.84475082748e-06
    z: 0.0399940583315
  orientation: 
    x: 1.84941566112e-09
    y: 2.97045402553e-05
    z: 8.50933967175e-06
    w: 0.999999999523
---
header: 
  seq: 3854
  stamp: 
    secs: 698
    nsecs: 612000000
  frame_id: "map"
pose: 
  position: 
    x: -2.68853549324e-05
    y: -3.84488491158e-06
    z: 0.0399999991374
  orientation: 
    x: 1.05871016101e-11
    y: -7.50073221161e-12
    z: 8.50839439185e-06
    w: 0.999999999964
---
header: 
  seq: 3855
  stamp: 
    secs: 698
    nsecs: 622000000
  frame_id: "map"
pose: 
  position: 
    x: -2.85242970515e-05
    y: -3.8447370269e-06
    z: 0.039996101972
  orientation: 
    x: -4.17979744851e-09
    y: -2.04866938178e-05
    z: 8.50777492461e-06
    w: 0.999999999754
---
header: 
  seq: 3856
  stamp: 
    secs: 698
    nsecs: 632000000
  frame_id: "map"
pose: 
  position: 
    x: -2.45083049958e-05
    y: -3.84582244858e-06
    z: 0.0399940583315
  orientation: 
    x: 1.8494903503e-09
    y: 2.97045402553e-05
    z: 8.50682448983e-06
    w: 0.999999999523
---
header: 
  seq: 3857
  stamp: 
    secs: 698
    nsecs: 642000000
  frame_id: "map"
pose: 
  position: 
    x: -2.68847584538e-05
    y: -3.84595652073e-06
    z: 0.0399999991374
  orientation: 
    x: 1.05870975442e-11
    y: -7.50074781395e-12
    z: 8.50587920997e-06
    w: 0.999999999964
---
header: 
  seq: 3858
  stamp: 
    secs: 698
    nsecs: 652000000
  frame_id: "map"
pose: 
  position: 
    x: -2.85237005728e-05
    y: -3.84580862781e-06
    z: 0.039996101972
  orientation: 
    x: -4.17984894121e-09
    y: -2.04866938178e-05
    z: 8.50525974277e-06
    w: 0.999999999754
---
header: 
  seq: 3859
  stamp: 
    secs: 698
    nsecs: 662000000
  frame_id: "map"
pose: 
  position: 
    x: -2.45077085172e-05
    y: -3.84689406969e-06
    z: 0.0399940583315
  orientation: 
    x: 1.84956505219e-09
    y: 2.97045402554e-05
    z: 8.50430930803e-06
    w: 0.999999999523
---
header: 
  seq: 3860
  stamp: 
    secs: 698
    nsecs: 672000000
  frame_id: "map"
pose: 
  position: 
    x: -2.68841619751e-05
    y: -3.84702812989e-06
    z: 0.0399999991374
  orientation: 
    x: 1.0587105169e-11
    y: -7.50073350926e-12
    z: 8.50336402821e-06
    w: 0.999999999964
---
header: 
  seq: 3861
  stamp: 
    secs: 698
    nsecs: 682000000
  frame_id: "map"
pose: 
  position: 
    x: -2.85231040941e-05
    y: -3.84688022873e-06
    z: 0.039996101972
  orientation: 
    x: -4.17990044357e-09
    y: -2.04866938178e-05
    z: 8.50274456105e-06
    w: 0.999999999754
---
header: 
  seq: 3862
  stamp: 
    secs: 698
    nsecs: 692000000
  frame_id: "map"
pose: 
  position: 
    x: -2.45071120385e-05
    y: -3.8479656908e-06
    z: 0.0399940583315
  orientation: 
    x: 1.84963975482e-09
    y: 2.97045402554e-05
    z: 8.50179412634e-06
    w: 0.999999999523
---
header: 
  seq: 3863
  stamp: 
    secs: 698
    nsecs: 702000000
  frame_id: "map"
pose: 
  position: 
    x: -2.68835654965e-05
    y: -3.84809973905e-06
    z: 0.0399999991374
  orientation: 
    x: 1.05871025494e-11
    y: -7.50073771054e-12
    z: 8.50084884656e-06
    w: 0.999999999964
---
header: 
  seq: 3864
  stamp: 
    secs: 698
    nsecs: 712000000
  frame_id: "map"
pose: 
  position: 
    x: -2.85225076155e-05
    y: -3.84795182964e-06
    z: 0.039996101972
  orientation: 
    x: -4.17995194764e-09
    y: -2.04866938178e-05
    z: 8.50022937943e-06
    w: 0.999999999754
---
header: 
  seq: 3865
  stamp: 
    secs: 698
    nsecs: 722000000
  frame_id: "map"
pose: 
  position: 
    x: -2.45065155599e-05
    y: -3.84903731191e-06
    z: 0.0399940583315
  orientation: 
    x: 1.84971444167e-09
    y: 2.97045402554e-05
    z: 8.49927894476e-06
    w: 0.999999999523
---
header: 
  seq: 3866
  stamp: 
    secs: 698
    nsecs: 732000000
  frame_id: "map"
pose: 
  position: 
    x: -2.68829690178e-05
    y: -3.84917134821e-06
    z: 0.0399999991374
  orientation: 
    x: 1.05871045963e-11
    y: -7.50072748855e-12
    z: 8.49833366502e-06
    w: 0.999999999964
---
header: 
  seq: 3867
  stamp: 
    secs: 698
    nsecs: 742000000
  frame_id: "map"
pose: 
  position: 
    x: -2.85219111368e-05
    y: -3.84902343057e-06
    z: 0.039996101972
  orientation: 
    x: -4.18000344113e-09
    y: -2.04866938178e-05
    z: 8.49771419794e-06
    w: 0.999999999754
---
header: 
  seq: 3868
  stamp: 
    secs: 698
    nsecs: 752000000
  frame_id: "map"
pose: 
  position: 
    x: -2.45059190812e-05
    y: -3.85010893303e-06
    z: 0.0399940583315
  orientation: 
    x: 1.84978914039e-09
    y: 2.97045402554e-05
    z: 8.4967637633e-06
    w: 0.999999999523
---
header: 
  seq: 3869
  stamp: 
    secs: 698
    nsecs: 762000000
  frame_id: "map"
pose: 
  position: 
    x: -2.68823725392e-05
    y: -3.85024295738e-06
    z: 0.0399999991374
  orientation: 
    x: 1.05870931689e-11
    y: -7.50073941816e-12
    z: 8.4958184836e-06
    w: 0.999999999964
---
header: 
  seq: 3870
  stamp: 
    secs: 698
    nsecs: 772000000
  frame_id: "map"
pose: 
  position: 
    x: -2.85213146582e-05
    y: -3.8500950315e-06
    z: 0.039996101972
  orientation: 
    x: -4.18005493688e-09
    y: -2.04866938178e-05
    z: 8.49519901655e-06
    w: 0.999999999754
---
header: 
  seq: 3871
  stamp: 
    secs: 698
    nsecs: 782000000
  frame_id: "map"
pose: 
  position: 
    x: -2.45053226025e-05
    y: -3.85118055416e-06
    z: 0.0399940583315
  orientation: 
    x: 1.84986384101e-09
    y: 2.97045402555e-05
    z: 8.49424858195e-06
    w: 0.999999999523
---
header: 
  seq: 3872
  stamp: 
    secs: 698
    nsecs: 792000000
  frame_id: "map"
pose: 
  position: 
    x: -2.68817760605e-05
    y: -3.85131456655e-06
    z: 0.0399999991374
  orientation: 
    x: 1.05870986525e-11
    y: -7.50073547777e-12
    z: 8.49330330228e-06
    w: 0.999999999964
---
header: 
  seq: 3873
  stamp: 
    secs: 698
    nsecs: 802000000
  frame_id: "map"
pose: 
  position: 
    x: -2.85207181795e-05
    y: -3.85116663243e-06
    z: 0.039996101972
  orientation: 
    x: -4.18010642238e-09
    y: -2.04866938178e-05
    z: 8.49268383528e-06
    w: 0.999999999754
---
header: 
  seq: 3874
  stamp: 
    secs: 698
    nsecs: 812000000
  frame_id: "map"
pose: 
  position: 
    x: -2.45047261239e-05
    y: -3.85225217528e-06
    z: 0.0399940583315
  orientation: 
    x: 1.84993853059e-09
    y: 2.97045402554e-05
    z: 8.49173340071e-06
    w: 0.999999999523
---
header: 
  seq: 3875
  stamp: 
    secs: 698
    nsecs: 822000000
  frame_id: "map"
pose: 
  position: 
    x: -2.68811795819e-05
    y: -3.85238617573e-06
    z: 0.0399999991374
  orientation: 
    x: 1.05870972994e-11
    y: -7.50073508135e-12
    z: 8.49078812109e-06
    w: 0.999999999964
---
header: 
  seq: 3876
  stamp: 
    secs: 698
    nsecs: 832000000
  frame_id: "map"
pose: 
  position: 
    x: -2.85201217009e-05
    y: -3.85223823337e-06
    z: 0.039996101972
  orientation: 
    x: -4.18015791347e-09
    y: -2.04866938178e-05
    z: 8.49016865412e-06
    w: 0.999999999754
---
header: 
  seq: 3877
  stamp: 
    secs: 698
    nsecs: 842000000
  frame_id: "map"
pose: 
  position: 
    x: -2.45041296452e-05
    y: -3.85332379642e-06
    z: 0.0399940583315
  orientation: 
    x: 1.85001322915e-09
    y: 2.97045402555e-05
    z: 8.48921821959e-06
    w: 0.999999999523
---
header: 
  seq: 3878
  stamp: 
    secs: 698
    nsecs: 852000000
  frame_id: "map"
pose: 
  position: 
    x: -2.68805831032e-05
    y: -3.85345778491e-06
    z: 0.0399999991374
  orientation: 
    x: 1.05870957444e-11
    y: -7.50073389212e-12
    z: 8.48827294e-06
    w: 0.999999999964
---
header: 
  seq: 3879
  stamp: 
    secs: 698
    nsecs: 862000000
  frame_id: "map"
pose: 
  position: 
    x: -2.85195252222e-05
    y: -3.8533098343e-06
    z: 0.039996101972
  orientation: 
    x: -4.18020942797e-09
    y: -2.04866938178e-05
    z: 8.48765347307e-06
    w: 0.999999999754
---
header: 
  seq: 3880
  stamp: 
    secs: 698
    nsecs: 872000000
  frame_id: "map"
pose: 
  position: 
    x: -2.45035331666e-05
    y: -3.85439541755e-06
    z: 0.0399940583315
  orientation: 
    x: 1.85008791448e-09
    y: 2.97045402555e-05
    z: 8.48670303858e-06
    w: 0.999999999523
---
header: 
  seq: 3881
  stamp: 
    secs: 698
    nsecs: 882000000
  frame_id: "map"
pose: 
  position: 
    x: -2.68799866245e-05
    y: -3.85452939409e-06
    z: 0.0399999991374
  orientation: 
    x: 1.05870987523e-11
    y: -7.50073344489e-12
    z: 8.48575775903e-06
    w: 0.999999999964
---
header: 
  seq: 3882
  stamp: 
    secs: 698
    nsecs: 892000000
  frame_id: "map"
pose: 
  position: 
    x: -2.85189287435e-05
    y: -3.85438143525e-06
    z: 0.039996101972
  orientation: 
    x: -4.18026090093e-09
    y: -2.04866938177e-05
    z: 8.48513829214e-06
    w: 0.999999999754
---
header: 
  seq: 3883
  stamp: 
    secs: 698
    nsecs: 902000000
  frame_id: "map"
pose: 
  position: 
    x: -2.45029366879e-05
    y: -3.85546703869e-06
    z: 0.0399940583315
  orientation: 
    x: 1.8501626209e-09
    y: 2.97045402555e-05
    z: 8.48418785768e-06
    w: 0.999999999523
---
header: 
  seq: 3884
  stamp: 
    secs: 698
    nsecs: 912000000
  frame_id: "map"
pose: 
  position: 
    x: -2.68793901459e-05
    y: -3.85560100328e-06
    z: 0.0399999991374
  orientation: 
    x: 1.05870960659e-11
    y: -7.50073858468e-12
    z: 8.48324257817e-06
    w: 0.999999999964
---
header: 
  seq: 3885
  stamp: 
    secs: 698
    nsecs: 922000000
  frame_id: "map"
pose: 
  position: 
    x: -2.85183322649e-05
    y: -3.8554530362e-06
    z: 0.039996101972
  orientation: 
    x: -4.18031240153e-09
    y: -2.04866938177e-05
    z: 8.48262311132e-06
    w: 0.999999999754
---
header: 
  seq: 3886
  stamp: 
    secs: 698
    nsecs: 932000000
  frame_id: "map"
pose: 
  position: 
    x: -2.45023402092e-05
    y: -3.85653865984e-06
    z: 0.0399940583315
  orientation: 
    x: 1.85023730847e-09
    y: 2.97045402556e-05
    z: 8.4816726769e-06
    w: 0.999999999523
---
header: 
  seq: 3887
  stamp: 
    secs: 698
    nsecs: 942000000
  frame_id: "map"
pose: 
  position: 
    x: -2.68787936672e-05
    y: -3.85667261247e-06
    z: 0.0399999991374
  orientation: 
    x: 1.05870887957e-11
    y: -7.50074258268e-12
    z: 8.48072739743e-06
    w: 0.999999999964
---
header: 
  seq: 3888
  stamp: 
    secs: 698
    nsecs: 952000000
  frame_id: "map"
pose: 
  position: 
    x: -2.85177357862e-05
    y: -3.85652463715e-06
    z: 0.039996101972
  orientation: 
    x: -4.18036390835e-09
    y: -2.04866938177e-05
    z: 8.48010793062e-06
    w: 0.999999999754
---
header: 
  seq: 3889
  stamp: 
    secs: 698
    nsecs: 962000000
  frame_id: "map"
pose: 
  position: 
    x: -2.45017437306e-05
    y: -3.85761028098e-06
    z: 0.0399940583315
  orientation: 
    x: 1.85031200836e-09
    y: 2.97045402556e-05
    z: 8.47915749623e-06
    w: 0.999999999523
---
header: 
  seq: 3890
  stamp: 
    secs: 698
    nsecs: 972000000
  frame_id: "map"
pose: 
  position: 
    x: -2.68781971886e-05
    y: -3.85774422167e-06
    z: 0.0399999991374
  orientation: 
    x: 1.05871047396e-11
    y: -7.50072571317e-12
    z: 8.47821221679e-06
    w: 0.999999999964
---
header: 
  seq: 3891
  stamp: 
    secs: 698
    nsecs: 982000000
  frame_id: "map"
pose: 
  position: 
    x: -2.85171393075e-05
    y: -3.85759623811e-06
    z: 0.039996101972
  orientation: 
    x: -4.18041538893e-09
    y: -2.04866938177e-05
    z: 8.47759275002e-06
    w: 0.999999999754
---
header: 
  seq: 3892
  stamp: 
    secs: 698
    nsecs: 992000000
  frame_id: "map"
pose: 
  position: 
    x: -2.45011472519e-05
    y: -3.85868190214e-06
    z: 0.0399940583315
  orientation: 
    x: 1.85038671013e-09
    y: 2.97045402556e-05
    z: 8.47664231567e-06
    w: 0.999999999523
---
header: 
  seq: 3893
  stamp: 
    secs: 699
    nsecs:   2000000
  frame_id: "map"
pose: 
  position: 
    x: -2.68776007099e-05
    y: -3.85881583087e-06
    z: 0.0399999991374
  orientation: 
    x: 1.05870883307e-11
    y: -7.50074985022e-12
    z: 8.47569703627e-06
    w: 0.999999999964
---
header: 
  seq: 3894
  stamp: 
    secs: 699
    nsecs:  12000000
  frame_id: "map"
pose: 
  position: 
    x: -2.85165428289e-05
    y: -3.85866783907e-06
    z: 0.039996101972
  orientation: 
    x: -4.18046689949e-09
    y: -2.04866938177e-05
    z: 8.47507756954e-06
    w: 0.999999999754
---
header: 
  seq: 3895
  stamp: 
    secs: 699
    nsecs:  22000000
  frame_id: "map"
pose: 
  position: 
    x: -2.45005507733e-05
    y: -3.85975352329e-06
    z: 0.0399940583315
  orientation: 
    x: 1.85046139842e-09
    y: 2.97045402557e-05
    z: 8.47412713522e-06
    w: 0.999999999523
---
header: 
  seq: 3896
  stamp: 
    secs: 699
    nsecs:  32000000
  frame_id: "map"
pose: 
  position: 
    x: -2.68770042312e-05
    y: -3.85988744008e-06
    z: 0.0399999991374
  orientation: 
    x: 1.05870926142e-11
    y: -7.50075398713e-12
    z: 8.47318185587e-06
    w: 0.999999999964
---
header: 
  seq: 3897
  stamp: 
    secs: 699
    nsecs:  42000000
  frame_id: "map"
pose: 
  position: 
    x: -2.85159463502e-05
    y: -3.85973944004e-06
    z: 0.039996101972
  orientation: 
    x: -4.1805183891e-09
    y: -2.04866938177e-05
    z: 8.47256238917e-06
    w: 0.999999999754
---
header: 
  seq: 3898
  stamp: 
    secs: 699
    nsecs:  52000000
  frame_id: "map"
pose: 
  position: 
    x: -2.44999542946e-05
    y: -3.86082514446e-06
    z: 0.0399940583315
  orientation: 
    x: 1.85053610783e-09
    y: 2.97045402556e-05
    z: 8.47161195489e-06
    w: 0.999999999523
---
header: 
  seq: 3899
  stamp: 
    secs: 699
    nsecs:  62000000
  frame_id: "map"
pose: 
  position: 
    x: -2.68764077526e-05
    y: -3.86095904929e-06
    z: 0.0399999991374
  orientation: 
    x: 1.05871037765e-11
    y: -7.50074254202e-12
    z: 8.47066667557e-06
    w: 0.999999999964
---
header: 
  seq: 3900
  stamp: 
    secs: 699
    nsecs:  72000000
  frame_id: "map"
pose: 
  position: 
    x: -2.85153498716e-05
    y: -3.86081104101e-06
    z: 0.039996101972
  orientation: 
    x: -4.1805698804e-09
    y: -2.04866938177e-05
    z: 8.47004720892e-06
    w: 0.999999999754
---
header: 
  seq: 3901
  stamp: 
    secs: 699
    nsecs:  82000000
  frame_id: "map"
pose: 
  position: 
    x: -2.44993578159e-05
    y: -3.86189676562e-06
    z: 0.0399940583315
  orientation: 
    x: 1.85061079978e-09
    y: 2.97045402557e-05
    z: 8.46909677467e-06
    w: 0.999999999523
---
header: 
  seq: 3902
  stamp: 
    secs: 699
    nsecs:  92000000
  frame_id: "map"
pose: 
  position: 
    x: -2.68758112739e-05
    y: -3.8620306585e-06
    z: 0.0399999991374
  orientation: 
    x: 1.05870992837e-11
    y: -7.50072564202e-12
    z: 8.46815149539e-06
    w: 0.999999999964
---
header: 
  seq: 3903
  stamp: 
    secs: 699
    nsecs: 102000000
  frame_id: "map"
pose: 
  position: 
    x: -2.85147533929e-05
    y: -3.86188264198e-06
    z: 0.039996101972
  orientation: 
    x: -4.18062137919e-09
    y: -2.04866938177e-05
    z: 8.46753202878e-06
    w: 0.999999999754
---
header: 
  seq: 3904
  stamp: 
    secs: 699
    nsecs: 112000000
  frame_id: "map"
pose: 
  position: 
    x: -2.44987613373e-05
    y: -3.86296838679e-06
    z: 0.0399940583315
  orientation: 
    x: 1.85068547967e-09
    y: 2.97045402557e-05
    z: 8.46658159457e-06
    w: 0.999999999523
---
header: 
  seq: 3905
  stamp: 
    secs: 699
    nsecs: 122000000
  frame_id: "map"
pose: 
  position: 
    x: -2.68752147952e-05
    y: -3.86310226772e-06
    z: 0.0399999991374
  orientation: 
    x: 1.05871054422e-11
    y: -7.50073721249e-12
    z: 8.46563631533e-06
    w: 0.999999999964
---
header: 
  seq: 3906
  stamp: 
    secs: 699
    nsecs: 132000000
  frame_id: "map"
pose: 
  position: 
    x: -2.85141569142e-05
    y: -3.86295424296e-06
    z: 0.039996101972
  orientation: 
    x: -4.18067287849e-09
    y: -2.04866938176e-05
    z: 8.46501684875e-06
    w: 0.999999999754
---
header: 
  seq: 3907
  stamp: 
    secs: 699
    nsecs: 142000000
  frame_id: "map"
pose: 
  position: 
    x: -2.44981648586e-05
    y: -3.86404000796e-06
    z: 0.0399940583315
  orientation: 
    x: 1.85076018813e-09
    y: 2.97045402557e-05
    z: 8.46406641457e-06
    w: 0.999999999523
---
header: 
  seq: 3908
  stamp: 
    secs: 699
    nsecs: 152000000
  frame_id: "map"
pose: 
  position: 
    x: -2.68746183166e-05
    y: -3.86417387694e-06
    z: 0.0399999991374
  orientation: 
    x: 1.058710694e-11
    y: -7.50073061241e-12
    z: 8.46312113537e-06
    w: 0.999999999964
---
header: 
  seq: 3909
  stamp: 
    secs: 699
    nsecs: 162000000
  frame_id: "map"
pose: 
  position: 
    x: -2.85135604356e-05
    y: -3.86402584394e-06
    z: 0.039996101972
  orientation: 
    x: -4.1807243795e-09
    y: -2.04866938176e-05
    z: 8.46250166884e-06
    w: 0.999999999754
---
header: 
  seq: 3910
  stamp: 
    secs: 699
    nsecs: 172000000
  frame_id: "map"
pose: 
  position: 
    x: -2.44975683799e-05
    y: -3.86511162914e-06
    z: 0.0399940583315
  orientation: 
    x: 1.85083488722e-09
    y: 2.97045402558e-05
    z: 8.46155123469e-06
    w: 0.999999999523
---
header: 
  seq: 3911
  stamp: 
    secs: 699
    nsecs: 182000000
  frame_id: "map"
pose: 
  position: 
    x: -2.68740218379e-05
    y: -3.86524548617e-06
    z: 0.0399999991374
  orientation: 
    x: 1.05870926727e-11
    y: -7.5007360402e-12
    z: 8.46060595553e-06
    w: 0.999999999964
---
header: 
  seq: 3912
  stamp: 
    secs: 699
    nsecs: 192000000
  frame_id: "map"
pose: 
  position: 
    x: -2.85129639569e-05
    y: -3.86509744493e-06
    z: 0.039996101972
  orientation: 
    x: -4.18077586925e-09
    y: -2.04866938176e-05
    z: 8.45998648904e-06
    w: 0.999999999754
---
header: 
  seq: 3913
  stamp: 
    secs: 699
    nsecs: 202000000
  frame_id: "map"
pose: 
  position: 
    x: -2.44969719013e-05
    y: -3.86618325032e-06
    z: 0.0399940583315
  orientation: 
    x: 1.85090957582e-09
    y: 2.97045402558e-05
    z: 8.45903605493e-06
    w: 0.999999999523
---
header: 
  seq: 3914
  stamp: 
    secs: 699
    nsecs: 212000000
  frame_id: "map"
pose: 
  position: 
    x: -2.68734253593e-05
    y: -3.8663170954e-06
    z: 0.0399999991374
  orientation: 
    x: 1.0587087203e-11
    y: -7.50075165271e-12
    z: 8.45809077581e-06
    w: 0.999999999964
---
header: 
  seq: 3915
  stamp: 
    secs: 699
    nsecs: 222000000
  frame_id: "map"
pose: 
  position: 
    x: -2.85123674782e-05
    y: -3.86616904592e-06
    z: 0.039996101972
  orientation: 
    x: -4.18082734892e-09
    y: -2.04866938176e-05
    z: 8.45747130935e-06
    w: 0.999999999754
---
header: 
  seq: 3916
  stamp: 
    secs: 699
    nsecs: 232000000
  frame_id: "map"
pose: 
  position: 
    x: -2.44963754226e-05
    y: -3.86725487151e-06
    z: 0.0399940583315
  orientation: 
    x: 1.85098426818e-09
    y: 2.97045402558e-05
    z: 8.45652087527e-06
    w: 0.999999999523
---
header: 
  seq: 3917
  stamp: 
    secs: 699
    nsecs: 242000000
  frame_id: "map"
pose: 
  position: 
    x: -2.68728288806e-05
    y: -3.86738870463e-06
    z: 0.0399999991374
  orientation: 
    x: 1.05871058978e-11
    y: -7.50073408863e-12
    z: 8.45557559619e-06
    w: 0.999999999964
---
header: 
  seq: 3918
  stamp: 
    secs: 699
    nsecs: 252000000
  frame_id: "map"
pose: 
  position: 
    x: -2.85117709995e-05
    y: -3.86724064691e-06
    z: 0.039996101972
  orientation: 
    x: -4.18087885625e-09
    y: -2.04866938176e-05
    z: 8.45495612977e-06
    w: 0.999999999754
---
header: 
  seq: 3919
  stamp: 
    secs: 699
    nsecs: 262000000
  frame_id: "map"
pose: 
  position: 
    x: -2.44957789439e-05
    y: -3.8683264927e-06
    z: 0.0399940583315
  orientation: 
    x: 1.85105897085e-09
    y: 2.97045402558e-05
    z: 8.45400569573e-06
    w: 0.999999999523
---
header: 
  seq: 3920
  stamp: 
    secs: 699
    nsecs: 272000000
  frame_id: "map"
pose: 
  position: 
    x: -2.68722324019e-05
    y: -3.86846031387e-06
    z: 0.0399999991374
  orientation: 
    x: 1.05871024364e-11
    y: -7.50073753436e-12
    z: 8.45306041669e-06
    w: 0.999999999964
---
header: 
  seq: 3921
  stamp: 
    secs: 699
    nsecs: 282000000
  frame_id: "map"
pose: 
  position: 
    x: -2.85111745209e-05
    y: -3.86831224791e-06
    z: 0.039996101972
  orientation: 
    x: -4.18093035052e-09
    y: -2.04866938176e-05
    z: 8.45244095031e-06
    w: 0.999999999754
---
header: 
  seq: 3922
  stamp: 
    secs: 699
    nsecs: 292000000
  frame_id: "map"
pose: 
  position: 
    x: -2.44951824653e-05
    y: -3.86939811389e-06
    z: 0.0399940583315
  orientation: 
    x: 1.85113366503e-09
    y: 2.97045402558e-05
    z: 8.45149051631e-06
    w: 0.999999999523
---
header: 
  seq: 3923
  stamp: 
    secs: 699
    nsecs: 302000000
  frame_id: "map"
pose: 
  position: 
    x: -2.68716359232e-05
    y: -3.86953192311e-06
    z: 0.0399999991374
  orientation: 
    x: 1.05870897819e-11
    y: -7.50074534401e-12
    z: 8.4505452373e-06
    w: 0.999999999964
---
header: 
  seq: 3924
  stamp: 
    secs: 699
    nsecs: 312000000
  frame_id: "map"
pose: 
  position: 
    x: -2.85105780422e-05
    y: -3.86938384891e-06
    z: 0.039996101972
  orientation: 
    x: -4.18098184657e-09
    y: -2.04866938176e-05
    z: 8.44992577096e-06
    w: 0.999999999754
---
header: 
  seq: 3925
  stamp: 
    secs: 699
    nsecs: 322000000
  frame_id: "map"
pose: 
  position: 
    x: -2.44945859866e-05
    y: -3.87046973509e-06
    z: 0.0399940583315
  orientation: 
    x: 1.85120836754e-09
    y: 2.97045402559e-05
    z: 8.44897533699e-06
    w: 0.999999999523
---
header: 
  seq: 3926
  stamp: 
    secs: 699
    nsecs: 332000000
  frame_id: "map"
pose: 
  position: 
    x: -2.68710394446e-05
    y: -3.87060353236e-06
    z: 0.0399999991374
  orientation: 
    x: 1.05871130962e-11
    y: -7.50072569284e-12
    z: 8.44803005803e-06
    w: 0.999999999964
---
header: 
  seq: 3927
  stamp: 
    secs: 699
    nsecs: 342000000
  frame_id: "map"
pose: 
  position: 
    x: -2.85099815635e-05
    y: -3.87045544992e-06
    z: 0.039996101972
  orientation: 
    x: -4.18103334183e-09
    y: -2.04866938175e-05
    z: 8.44741059172e-06
    w: 0.999999999754
---
header: 
  seq: 3928
  stamp: 
    secs: 699
    nsecs: 352000000
  frame_id: "map"
pose: 
  position: 
    x: -2.44939895079e-05
    y: -3.8715413563e-06
    z: 0.0399940583315
  orientation: 
    x: 1.85128305613e-09
    y: 2.97045402559e-05
    z: 8.44646015779e-06
    w: 0.999999999523
---
header: 
  seq: 3929
  stamp: 
    secs: 699
    nsecs: 362000000
  frame_id: "map"
pose: 
  position: 
    x: -2.68704429659e-05
    y: -3.87167514161e-06
    z: 0.0399999991374
  orientation: 
    x: 1.05870949013e-11
    y: -7.50075057189e-12
    z: 8.44551487887e-06
    w: 0.999999999964
---
header: 
  seq: 3930
  stamp: 
    secs: 699
    nsecs: 372000000
  frame_id: "map"
pose: 
  position: 
    x: -2.85093850849e-05
    y: -3.87152705093e-06
    z: 0.039996101972
  orientation: 
    x: -4.18108483976e-09
    y: -2.04866938175e-05
    z: 8.4448954126e-06
    w: 0.999999999754
---
header: 
  seq: 3931
  stamp: 
    secs: 699
    nsecs: 382000000
  frame_id: "map"
pose: 
  position: 
    x: -2.44933930292e-05
    y: -3.8726129775e-06
    z: 0.0399940583315
  orientation: 
    x: 1.85135774899e-09
    y: 2.97045402559e-05
    z: 8.4439449787e-06
    w: 0.999999999523
---
header: 
  seq: 3932
  stamp: 
    secs: 699
    nsecs: 392000000
  frame_id: "map"
pose: 
  position: 
    x: -2.68698464872e-05
    y: -3.87274675087e-06
    z: 0.0399999991374
  orientation: 
    x: 1.0587090689e-11
    y: -7.50074245393e-12
    z: 8.44299969982e-06
    w: 0.999999999964
---
header: 
  seq: 3933
  stamp: 
    secs: 699
    nsecs: 402000000
  frame_id: "map"
pose: 
  position: 
    x: -2.85087886062e-05
    y: -3.87259865195e-06
    z: 0.039996101972
  orientation: 
    x: -4.18113633065e-09
    y: -2.04866938175e-05
    z: 8.44238023359e-06
    w: 0.999999999755
---
header: 
  seq: 3934
  stamp: 
    secs: 699
    nsecs: 412000000
  frame_id: "map"
pose: 
  position: 
    x: -2.44927965506e-05
    y: -3.87368459872e-06
    z: 0.0399940583315
  orientation: 
    x: 1.85143244832e-09
    y: 2.97045402559e-05
    z: 8.44142979973e-06
    w: 0.999999999523
---
header: 
  seq: 3935
  stamp: 
    secs: 699
    nsecs: 422000000
  frame_id: "map"
pose: 
  position: 
    x: -2.68692500086e-05
    y: -3.87381836013e-06
    z: 0.0399999991374
  orientation: 
    x: 1.05870986512e-11
    y: -7.50073821538e-12
    z: 8.44048452088e-06
    w: 0.999999999964
---
header: 
  seq: 3936
  stamp: 
    secs: 699
    nsecs: 432000000
  frame_id: "map"
pose: 
  position: 
    x: -2.85081921275e-05
    y: -3.87367025297e-06
    z: 0.039996101972
  orientation: 
    x: -4.18118781502e-09
    y: -2.04866938175e-05
    z: 8.4398650547e-06
    w: 0.999999999755
---
header: 
  seq: 3937
  stamp: 
    secs: 699
    nsecs: 442000000
  frame_id: "map"
pose: 
  position: 
    x: -2.44922000719e-05
    y: -3.87475621993e-06
    z: 0.0399940583315
  orientation: 
    x: 1.85150713113e-09
    y: 2.9704540256e-05
    z: 8.43891462087e-06
    w: 0.999999999523
---
header: 
  seq: 3938
  stamp: 
    secs: 699
    nsecs: 452000000
  frame_id: "map"
pose: 
  position: 
    x: -2.68686535299e-05
    y: -3.87488996939e-06
    z: 0.0399999991374
  orientation: 
    x: 1.05871001673e-11
    y: -7.50074519832e-12
    z: 8.43796934206e-06
    w: 0.999999999964
---
header: 
  seq: 3939
  stamp: 
    secs: 699
    nsecs: 462000000
  frame_id: "map"
pose: 
  position: 
    x: -2.85075956488e-05
    y: -3.87474185399e-06
    z: 0.039996101972
  orientation: 
    x: -4.18123932536e-09
    y: -2.04866938175e-05
    z: 8.43734987591e-06
    w: 0.999999999755
---
header: 
  seq: 3940
  stamp: 
    secs: 699
    nsecs: 472000000
  frame_id: "map"
pose: 
  position: 
    x: -2.44916035932e-05
    y: -3.87582784115e-06
    z: 0.0399940583315
  orientation: 
    x: 1.85158183599e-09
    y: 2.9704540256e-05
    z: 8.43639944212e-06
    w: 0.999999999523
---
header: 
  seq: 3941
  stamp: 
    secs: 699
    nsecs: 482000000
  frame_id: "map"
pose: 
  position: 
    x: -2.68680570512e-05
    y: -3.87596157866e-06
    z: 0.0399999991374
  orientation: 
    x: 1.05870962849e-11
    y: -7.5007352982e-12
    z: 8.43545416335e-06
    w: 0.999999999964
---
header: 
  seq: 3942
  stamp: 
    secs: 699
    nsecs: 492000000
  frame_id: "map"
pose: 
  position: 
    x: -2.85069991702e-05
    y: -3.87581345502e-06
    z: 0.039996101972
  orientation: 
    x: -4.18129081997e-09
    y: -2.04866938175e-05
    z: 8.43483469724e-06
    w: 0.999999999755
---
header: 
  seq: 3943
  stamp: 
    secs: 699
    nsecs: 502000000
  frame_id: "map"
pose: 
  position: 
    x: -2.44910071145e-05
    y: -3.87689946237e-06
    z: 0.0399940583315
  orientation: 
    x: 1.85165653761e-09
    y: 2.9704540256e-05
    z: 8.43388426349e-06
    w: 0.999999999523
---
header: 
  seq: 3944
  stamp: 
    secs: 699
    nsecs: 512000000
  frame_id: "map"
pose: 
  position: 
    x: -2.68674605725e-05
    y: -3.87703318793e-06
    z: 0.0399999991374
  orientation: 
    x: 1.05870963433e-11
    y: -7.50073898448e-12
    z: 8.43293898475e-06
    w: 0.999999999964
---
header: 
  seq: 3945
  stamp: 
    secs: 699
    nsecs: 522000000
  frame_id: "map"
pose: 
  position: 
    x: -2.85064026915e-05
    y: -3.87688505605e-06
    z: 0.039996101972
  orientation: 
    x: -4.18134230849e-09
    y: -2.04866938175e-05
    z: 8.43231951868e-06
    w: 0.999999999755
---
header: 
  seq: 3946
  stamp: 
    secs: 699
    nsecs: 532000000
  frame_id: "map"
pose: 
  position: 
    x: -2.44904106359e-05
    y: -3.8779710836e-06
    z: 0.0399940583315
  orientation: 
    x: 1.85173122906e-09
    y: 2.9704540256e-05
    z: 8.43136908496e-06
    w: 0.999999999523
---
header: 
  seq: 3947
  stamp: 
    secs: 699
    nsecs: 542000000
  frame_id: "map"
pose: 
  position: 
    x: -2.68668640939e-05
    y: -3.87810479721e-06
    z: 0.0399999991374
  orientation: 
    x: 1.05871039543e-11
    y: -7.50073441728e-12
    z: 8.43042380627e-06
    w: 0.999999999964
---
header: 
  seq: 3948
  stamp: 
    secs: 699
    nsecs: 552000000
  frame_id: "map"
pose: 
  position: 
    x: -2.85058062128e-05
    y: -3.87795665709e-06
    z: 0.039996101972
  orientation: 
    x: -4.18139381441e-09
    y: -2.04866938174e-05
    z: 8.42980434024e-06
    w: 0.999999999755
---
header: 
  seq: 3949
  stamp: 
    secs: 699
    nsecs: 562000000
  frame_id: "map"
pose: 
  position: 
    x: -2.44898141572e-05
    y: -3.87904270483e-06
    z: 0.0399940583315
  orientation: 
    x: 1.85180592729e-09
    y: 2.9704540256e-05
    z: 8.42885390655e-06
    w: 0.999999999523
---
header: 
  seq: 3950
  stamp: 
    secs: 699
    nsecs: 572000000
  frame_id: "map"
pose: 
  position: 
    x: -2.68662676152e-05
    y: -3.87917640649e-06
    z: 0.0399999991374
  orientation: 
    x: 1.05870936889e-11
    y: -7.50074904385e-12
    z: 8.4279086279e-06
    w: 0.999999999964
---
header: 
  seq: 3951
  stamp: 
    secs: 699
    nsecs: 582000000
  frame_id: "map"
pose: 
  position: 
    x: -2.85052097341e-05
    y: -3.87902825813e-06
    z: 0.039996101972
  orientation: 
    x: -4.18144531121e-09
    y: -2.04866938174e-05
    z: 8.42728916191e-06
    w: 0.999999999755
---
header: 
  seq: 3952
  stamp: 
    secs: 699
    nsecs: 592000000
  frame_id: "map"
pose: 
  position: 
    x: -2.44892176785e-05
    y: -3.88011432607e-06
    z: 0.0399940583315
  orientation: 
    x: 1.85188062409e-09
    y: 2.97045402561e-05
    z: 8.42633872826e-06
    w: 0.999999999523
---
header: 
  seq: 3953
  stamp: 
    secs: 699
    nsecs: 602000000
  frame_id: "map"
pose: 
  position: 
    x: -2.68656711365e-05
    y: -3.88024801577e-06
    z: 0.0399999991374
  orientation: 
    x: 1.05871047308e-11
    y: -7.50073777831e-12
    z: 8.42539344964e-06
    w: 0.999999999965
---
header: 
  seq: 3954
  stamp: 
    secs: 699
    nsecs: 612000000
  frame_id: "map"
pose: 
  position: 
    x: -2.85046132554e-05
    y: -3.88009985918e-06
    z: 0.039996101972
  orientation: 
    x: -4.18149677963e-09
    y: -2.04866938174e-05
    z: 8.42477398369e-06
    w: 0.999999999755
---
header: 
  seq: 3955
  stamp: 
    secs: 699
    nsecs: 622000000
  frame_id: "map"
pose: 
  position: 
    x: -2.44886211998e-05
    y: -3.88118594731e-06
    z: 0.0399940583315
  orientation: 
    x: 1.85195531792e-09
    y: 2.97045402561e-05
    z: 8.42382355008e-06
    w: 0.999999999523
---
header: 
  seq: 3956
  stamp: 
    secs: 699
    nsecs: 632000000
  frame_id: "map"
pose: 
  position: 
    x: -2.68650746578e-05
    y: -3.88131962506e-06
    z: 0.0399999991374
  orientation: 
    x: 1.05871023015e-11
    y: -7.50074540499e-12
    z: 8.4228782715e-06
    w: 0.999999999965
---
header: 
  seq: 3957
  stamp: 
    secs: 699
    nsecs: 642000000
  frame_id: "map"
pose: 
  position: 
    x: -2.85040167768e-05
    y: -3.88117146023e-06
    z: 0.039996101972
  orientation: 
    x: -4.18154827595e-09
    y: -2.04866938174e-05
    z: 8.42225880559e-06
    w: 0.999999999755
---
header: 
  seq: 3958
  stamp: 
    secs: 699
    nsecs: 652000000
  frame_id: "map"
pose: 
  position: 
    x: -2.44880247212e-05
    y: -3.88225756856e-06
    z: 0.0399940583315
  orientation: 
    x: 1.85203001926e-09
    y: 2.97045402561e-05
    z: 8.42130837201e-06
    w: 0.999999999523
---
header: 
  seq: 3959
  stamp: 
    secs: 699
    nsecs: 662000000
  frame_id: "map"
pose: 
  position: 
    x: -2.68644781792e-05
    y: -3.88239123436e-06
    z: 0.0399999991374
  orientation: 
    x: 1.05871053132e-11
    y: -7.50073394972e-12
    z: 8.42036309347e-06
    w: 0.999999999965
---
header: 
  seq: 3960
  stamp: 
    secs: 699
    nsecs: 672000000
  frame_id: "map"
pose: 
  position: 
    x: -2.85034202981e-05
    y: -3.88224306128e-06
    z: 0.039996101972
  orientation: 
    x: -4.18159977772e-09
    y: -2.04866938174e-05
    z: 8.41974362759e-06
    w: 0.999999999755
---
header: 
  seq: 3961
  stamp: 
    secs: 699
    nsecs: 682000000
  frame_id: "map"
pose: 
  position: 
    x: -2.44874282425e-05
    y: -3.8833291898e-06
    z: 0.0399940583315
  orientation: 
    x: 1.8521047025e-09
    y: 2.97045402561e-05
    z: 8.41879319405e-06
    w: 0.999999999523
---
header: 
  seq: 3962
  stamp: 
    secs: 699
    nsecs: 692000000
  frame_id: "map"
pose: 
  position: 
    x: -2.68638817005e-05
    y: -3.88346284365e-06
    z: 0.0399999991374
  orientation: 
    x: 1.0587096195e-11
    y: -7.50074244715e-12
    z: 8.41784791555e-06
    w: 0.999999999965
---
header: 
  seq: 3963
  stamp: 
    secs: 699
    nsecs: 702000000
  frame_id: "map"
pose: 
  position: 
    x: -2.85028238194e-05
    y: -3.88331466234e-06
    z: 0.039996101972
  orientation: 
    x: -4.18165127734e-09
    y: -2.04866938174e-05
    z: 8.41722844972e-06
    w: 0.999999999755
---
header: 
  seq: 3964
  stamp: 
    secs: 699
    nsecs: 712000000
  frame_id: "map"
pose: 
  position: 
    x: -2.44868317638e-05
    y: -3.88440081106e-06
    z: 0.0399940583315
  orientation: 
    x: 1.85217939114e-09
    y: 2.97045402561e-05
    z: 8.41627801621e-06
    w: 0.999999999523
---
header: 
  seq: 3965
  stamp: 
    secs: 699
    nsecs: 722000000
  frame_id: "map"
pose: 
  position: 
    x: -2.68632852218e-05
    y: -3.88453445295e-06
    z: 0.0399999991374
  orientation: 
    x: 1.05871015997e-11
    y: -7.50073588434e-12
    z: 8.41533273775e-06
    w: 0.999999999965
---
header: 
  seq: 3966
  stamp: 
    secs: 699
    nsecs: 732000000
  frame_id: "map"
pose: 
  position: 
    x: -2.85022273407e-05
    y: -3.8843862634e-06
    z: 0.039996101972
  orientation: 
    x: -4.18170277791e-09
    y: -2.04866938173e-05
    z: 8.41471327195e-06
    w: 0.999999999755
---
header: 
  seq: 3967
  stamp: 
    secs: 699
    nsecs: 742000000
  frame_id: "map"
pose: 
  position: 
    x: -2.44862352851e-05
    y: -3.88547243232e-06
    z: 0.0399940583315
  orientation: 
    x: 1.85225410521e-09
    y: 2.97045402562e-05
    z: 8.41376283848e-06
    w: 0.999999999523
---
header: 
  seq: 3968
  stamp: 
    secs: 699
    nsecs: 752000000
  frame_id: "map"
pose: 
  position: 
    x: -2.68626887431e-05
    y: -3.88560606226e-06
    z: 0.0399999991374
  orientation: 
    x: 1.05871039801e-11
    y: -7.5007349831e-12
    z: 8.41281756005e-06
    w: 0.999999999965
---
header: 
  seq: 3969
  stamp: 
    secs: 699
    nsecs: 762000000
  frame_id: "map"
pose: 
  position: 
    x: -2.8501630862e-05
    y: -3.88545786447e-06
    z: 0.039996101972
  orientation: 
    x: -4.18175427079e-09
    y: -2.04866938173e-05
    z: 8.4121980943e-06
    w: 0.999999999755
---
header: 
  seq: 3970
  stamp: 
    secs: 699
    nsecs: 772000000
  frame_id: "map"
pose: 
  position: 
    x: -2.44856388064e-05
    y: -3.88654405358e-06
    z: 0.0399940583315
  orientation: 
    x: 1.85232879411e-09
    y: 2.97045402562e-05
    z: 8.41124766086e-06
    w: 0.999999999523
---
header: 
  seq: 3971
  stamp: 
    secs: 699
    nsecs: 782000000
  frame_id: "map"
pose: 
  position: 
    x: -2.68620922644e-05
    y: -3.88667767157e-06
    z: 0.0399999991374
  orientation: 
    x: 1.05871005346e-11
    y: -7.50073985184e-12
    z: 8.41030238248e-06
    w: 0.999999999965
---
header: 
  seq: 3972
  stamp: 
    secs: 699
    nsecs: 792000000
  frame_id: "map"
pose: 
  position: 
    x: -2.85010343833e-05
    y: -3.88652946554e-06
    z: 0.039996101972
  orientation: 
    x: -4.18180575464e-09
    y: -2.04866938173e-05
    z: 8.40968291676e-06
    w: 0.999999999755
---
header: 
  seq: 3973
  stamp: 
    secs: 699
    nsecs: 802000000
  frame_id: "map"
pose: 
  position: 
    x: -2.44850423277e-05
    y: -3.88761567484e-06
    z: 0.0399940583315
  orientation: 
    x: 1.85240348191e-09
    y: 2.97045402562e-05
    z: 8.40873248335e-06
    w: 0.999999999523
---
header: 
  seq: 3974
  stamp: 
    secs: 699
    nsecs: 812000000
  frame_id: "map"
pose: 
  position: 
    x: -2.68614957858e-05
    y: -3.88774928088e-06
    z: 0.0399999991374
  orientation: 
    x: 1.05870986488e-11
    y: -7.500745859e-12
    z: 8.40778720501e-06
    w: 0.999999999965
---
header: 
  seq: 3975
  stamp: 
    secs: 699
    nsecs: 822000000
  frame_id: "map"
pose: 
  position: 
    x: -2.85004379047e-05
    y: -3.88760106661e-06
    z: 0.039996101972
  orientation: 
    x: -4.18185725547e-09
    y: -2.04866938173e-05
    z: 8.40716773933e-06
    w: 0.999999999755
---
header: 
  seq: 3976
  stamp: 
    secs: 699
    nsecs: 832000000
  frame_id: "map"
pose: 
  position: 
    x: -2.44844458491e-05
    y: -3.88868729611e-06
    z: 0.0399940583315
  orientation: 
    x: 1.85247818071e-09
    y: 2.97045402563e-05
    z: 8.40621730596e-06
    w: 0.999999999523
---
header: 
  seq: 3977
  stamp: 
    secs: 699
    nsecs: 842000000
  frame_id: "map"
pose: 
  position: 
    x: -2.68608993071e-05
    y: -3.8888208902e-06
    z: 0.0399999991374
  orientation: 
    x: 1.05870917468e-11
    y: -7.50074661117e-12
    z: 8.40527202766e-06
    w: 0.999999999965
---
header: 
  seq: 3978
  stamp: 
    secs: 699
    nsecs: 852000000
  frame_id: "map"
pose: 
  position: 
    x: -2.8499841426e-05
    y: -3.88867266769e-06
    z: 0.039996101972
  orientation: 
    x: -4.18190875147e-09
    y: -2.04866938173e-05
    z: 8.40465256202e-06
    w: 0.999999999755
---
header: 
  seq: 3979
  stamp: 
    secs: 699
    nsecs: 862000000
  frame_id: "map"
pose: 
  position: 
    x: -2.44838493704e-05
    y: -3.88975891739e-06
    z: 0.0399940583315
  orientation: 
    x: 1.85255288413e-09
    y: 2.97045402563e-05
    z: 8.40370212869e-06
    w: 0.999999999524
---
header: 
  seq: 3980
  stamp: 
    secs: 699
    nsecs: 872000000
  frame_id: "map"
pose: 
  position: 
    x: -2.68603028284e-05
    y: -3.88989249952e-06
    z: 0.0399999991374
  orientation: 
    x: 1.05870979967e-11
    y: -7.50073585385e-12
    z: 8.40275685042e-06
    w: 0.999999999965
---
header: 
  seq: 3981
  stamp: 
    secs: 699
    nsecs: 882000000
  frame_id: "map"
pose: 
  position: 
    x: -2.84992449473e-05
    y: -3.88974426877e-06
    z: 0.039996101972
  orientation: 
    x: -4.18196024299e-09
    y: -2.04866938173e-05
    z: 8.40213738482e-06
    w: 0.999999999755
---
header: 
  seq: 3982
  stamp: 
    secs: 699
    nsecs: 892000000
  frame_id: "map"
pose: 
  position: 
    x: -2.44832528917e-05
    y: -3.89083053867e-06
    z: 0.0399940583315
  orientation: 
    x: 1.85262757061e-09
    y: 2.97045402563e-05
    z: 8.40118695152e-06
    w: 0.999999999524
---
header: 
  seq: 3983
  stamp: 
    secs: 699
    nsecs: 902000000
  frame_id: "map"
pose: 
  position: 
    x: -2.68597063497e-05
    y: -3.89096410885e-06
    z: 0.0399999991374
  orientation: 
    x: 1.05871022871e-11
    y: -7.50074247765e-12
    z: 8.40024167329e-06
    w: 0.999999999965
---
header: 
  seq: 3984
  stamp: 
    secs: 699
    nsecs: 912000000
  frame_id: "map"
pose: 
  position: 
    x: -2.84986484686e-05
    y: -3.89081586986e-06
    z: 0.039996101972
  orientation: 
    x: -4.18201175874e-09
    y: -2.04866938173e-05
    z: 8.39962220773e-06
    w: 0.999999999755
---
header: 
  seq: 3985
  stamp: 
    secs: 699
    nsecs: 922000000
  frame_id: "map"
pose: 
  position: 
    x: -2.4482656413e-05
    y: -3.89190215995e-06
    z: 0.0399940583315
  orientation: 
    x: 1.85270227152e-09
    y: 2.97045402563e-05
    z: 8.39867177447e-06
    w: 0.999999999524
---
header: 
  seq: 3986
  stamp: 
    secs: 699
    nsecs: 932000000
  frame_id: "map"
pose: 
  position: 
    x: -2.6859109871e-05
    y: -3.89203571818e-06
    z: 0.0399999991374
  orientation: 
    x: 1.05870958252e-11
    y: -7.500743118e-12
    z: 8.39772649628e-06
    w: 0.999999999965
---
header: 
  seq: 3987
  stamp: 
    secs: 699
    nsecs: 942000000
  frame_id: "map"
pose: 
  position: 
    x: -2.84980519899e-05
    y: -3.89188747095e-06
    z: 0.039996101972
  orientation: 
    x: -4.18206324124e-09
    y: -2.04866938173e-05
    z: 8.39710703076e-06
    w: 0.999999999755
---
header: 
  seq: 3988
  stamp: 
    secs: 699
    nsecs: 952000000
  frame_id: "map"
pose: 
  position: 
    x: -2.44820599343e-05
    y: -3.89297378124e-06
    z: 0.0399940583315
  orientation: 
    x: 1.85277697242e-09
    y: 2.97045402563e-05
    z: 8.39615659753e-06
    w: 0.999999999524
---
header: 
  seq: 3989
  stamp: 
    secs: 699
    nsecs: 962000000
  frame_id: "map"
pose: 
  position: 
    x: -2.68585133923e-05
    y: -3.89310732752e-06
    z: 0.0399999991374
  orientation: 
    x: 1.05871020501e-11
    y: -7.50074702791e-12
    z: 8.39521131938e-06
    w: 0.999999999965
---
header: 
  seq: 3990
  stamp: 
    secs: 699
    nsecs: 972000000
  frame_id: "map"
pose: 
  position: 
    x: -2.84974555112e-05
    y: -3.89295907204e-06
    z: 0.039996101972
  orientation: 
    x: -4.18211473483e-09
    y: -2.04866938173e-05
    z: 8.3945918539e-06
    w: 0.999999999755
---
header: 
  seq: 3991
  stamp: 
    secs: 699
    nsecs: 982000000
  frame_id: "map"
pose: 
  position: 
    x: -2.44814634556e-05
    y: -3.89404540253e-06
    z: 0.0399940583315
  orientation: 
    x: 1.85285165618e-09
    y: 2.97045402563e-05
    z: 8.39364142071e-06
    w: 0.999999999524
---
header: 
  seq: 3992
  stamp: 
    secs: 699
    nsecs: 992000000
  frame_id: "map"
pose: 
  position: 
    x: -2.68579169136e-05
    y: -3.89417893686e-06
    z: 0.0399999991374
  orientation: 
    x: 1.05870880717e-11
    y: -7.50075199491e-12
    z: 8.3926961426e-06
    w: 0.999999999965
---
header: 
  seq: 3993
  stamp: 
    secs: 700
    nsecs:   2000000
  frame_id: "map"
pose: 
  position: 
    x: -2.84968590325e-05
    y: -3.89403067314e-06
    z: 0.039996101972
  orientation: 
    x: -4.18216622665e-09
    y: -2.04866938172e-05
    z: 8.39207667715e-06
    w: 0.999999999755
---
header: 
  seq: 3994
  stamp: 
    secs: 700
    nsecs:  12000000
  frame_id: "map"
pose: 
  position: 
    x: -2.44808669769e-05
    y: -3.89511702382e-06
    z: 0.0399940583315
  orientation: 
    x: 1.85292635533e-09
    y: 2.97045402563e-05
    z: 8.39112624399e-06
    w: 0.999999999524
---
header: 
  seq: 3995
  stamp: 
    secs: 700
    nsecs:  22000000
  frame_id: "map"
pose: 
  position: 
    x: -2.6857320435e-05
    y: -3.8952505462e-06
    z: 0.0399999991374
  orientation: 
    x: 1.05871111376e-11
    y: -7.50072752921e-12
    z: 8.39018096592e-06
    w: 0.999999999965
---
header: 
  seq: 3996
  stamp: 
    secs: 700
    nsecs:  32000000
  frame_id: "map"
pose: 
  position: 
    x: -2.84962625539e-05
    y: -3.89510227425e-06
    z: 0.039996101972
  orientation: 
    x: -4.18221773588e-09
    y: -2.04866938172e-05
    z: 8.38956150052e-06
    w: 0.999999999755
---
header: 
  seq: 3997
  stamp: 
    secs: 700
    nsecs:  42000000
  frame_id: "map"
pose: 
  position: 
    x: -2.44802704983e-05
    y: -3.89618864512e-06
    z: 0.0399940583315
  orientation: 
    x: 1.85300105511e-09
    y: 2.97045402564e-05
    z: 8.38861106739e-06
    w: 0.999999999524
---
header: 
  seq: 3998
  stamp: 
    secs: 700
    nsecs:  52000000
  frame_id: "map"
pose: 
  position: 
    x: -2.68567239563e-05
    y: -3.89632215555e-06
    z: 0.0399999991374
  orientation: 
    x: 1.05871010346e-11
    y: -7.50073789012e-12
    z: 8.38766578936e-06
    w: 0.999999999965
---
header: 
  seq: 3999
  stamp: 
    secs: 700
    nsecs:  62000000
  frame_id: "map"
pose: 
  position: 
    x: -2.84956660752e-05
    y: -3.89617387536e-06
    z: 0.039996101972
  orientation: 
    x: -4.18226922155e-09
    y: -2.04866938172e-05
    z: 8.387046324e-06
    w: 0.999999999755
---
header: 
  seq: 4000
  stamp: 
    secs: 700
    nsecs:  72000000
  frame_id: "map"
pose: 
  position: 
    x: -2.44796740196e-05
    y: -3.89726026642e-06
    z: 0.0399940583315
  orientation: 
    x: 1.853075751e-09
    y: 2.97045402564e-05
    z: 8.38609589091e-06
    w: 0.999999999524
---
header: 
  seq: 4001
  stamp: 
    secs: 700
    nsecs:  82000000
  frame_id: "map"
pose: 
  position: 
    x: -2.68561274776e-05
    y: -3.8973937649e-06
    z: 0.0399999991374
  orientation: 
    x: 1.05870919045e-11
    y: -7.50074856612e-12
    z: 8.38515061291e-06
    w: 0.999999999965
---
header: 
  seq: 4002
  stamp: 
    secs: 700
    nsecs:  92000000
  frame_id: "map"
pose: 
  position: 
    x: -2.84950695965e-05
    y: -3.89724547647e-06
    z: 0.039996101972
  orientation: 
    x: -4.18232072138e-09
    y: -2.04866938172e-05
    z: 8.38453114759e-06
    w: 0.999999999755
---
header: 
  seq: 4003
  stamp: 
    secs: 700
    nsecs: 102000000
  frame_id: "map"
pose: 
  position: 
    x: -2.44790775409e-05
    y: -3.89833188773e-06
    z: 0.0399940583315
  orientation: 
    x: 1.85315045477e-09
    y: 2.97045402564e-05
    z: 8.38358071453e-06
    w: 0.999999999524
---
header: 
  seq: 4004
  stamp: 
    secs: 700
    nsecs: 112000000
  frame_id: "map"
pose: 
  position: 
    x: -2.68555309989e-05
    y: -3.89846537426e-06
    z: 0.0399999991374
  orientation: 
    x: 1.05870903384e-11
    y: -7.50074441566e-12
    z: 8.38263543658e-06
    w: 0.999999999965
---
header: 
  seq: 4005
  stamp: 
    secs: 700
    nsecs: 122000000
  frame_id: "map"
pose: 
  position: 
    x: -2.84944731178e-05
    y: -3.89831707758e-06
    z: 0.039996101972
  orientation: 
    x: -4.18237221434e-09
    y: -2.04866938172e-05
    z: 8.38201597129e-06
    w: 0.999999999755
---
header: 
  seq: 4006
  stamp: 
    secs: 700
    nsecs: 132000000
  frame_id: "map"
pose: 
  position: 
    x: -2.44784810622e-05
    y: -3.89940350904e-06
    z: 0.0399940583315
  orientation: 
    x: 1.85322514217e-09
    y: 2.97045402564e-05
    z: 8.38106553827e-06
    w: 0.999999999524
---
header: 
  seq: 4007
  stamp: 
    secs: 700
    nsecs: 142000000
  frame_id: "map"
pose: 
  position: 
    x: -2.68549345202e-05
    y: -3.89953698362e-06
    z: 0.0399999991374
  orientation: 
    x: 1.05870997285e-11
    y: -7.50073785623e-12
    z: 8.38012026036e-06
    w: 0.999999999965
---
header: 
  seq: 4008
  stamp: 
    secs: 700
    nsecs: 152000000
  frame_id: "map"
pose: 
  position: 
    x: -2.84938766391e-05
    y: -3.8993886787e-06
    z: 0.039996101972
  orientation: 
    x: -4.18242371144e-09
    y: -2.04866938172e-05
    z: 8.37950079511e-06
    w: 0.999999999755
---
header: 
  seq: 4009
  stamp: 
    secs: 700
    nsecs: 162000000
  frame_id: "map"
pose: 
  position: 
    x: -2.44778845835e-05
    y: -3.90047513036e-06
    z: 0.0399940583315
  orientation: 
    x: 1.85329984248e-09
    y: 2.97045402564e-05
    z: 8.37855036213e-06
    w: 0.999999999524
---
header: 
  seq: 4010
  stamp: 
    secs: 700
    nsecs: 172000000
  frame_id: "map"
pose: 
  position: 
    x: -2.68543380415e-05
    y: -3.90060859298e-06
    z: 0.0399999991374
  orientation: 
    x: 1.05871056942e-11
    y: -7.50074456135e-12
    z: 8.37760508425e-06
    w: 0.999999999965
---
header: 
  seq: 4011
  stamp: 
    secs: 700
    nsecs: 182000000
  frame_id: "map"
pose: 
  position: 
    x: -2.84932801604e-05
    y: -3.90046027983e-06
    z: 0.039996101972
  orientation: 
    x: -4.18247520886e-09
    y: -2.04866938172e-05
    z: 8.37698561904e-06
    w: 0.999999999755
---
header: 
  seq: 4012
  stamp: 
    secs: 700
    nsecs: 192000000
  frame_id: "map"
pose: 
  position: 
    x: -2.44772881048e-05
    y: -3.90154675168e-06
    z: 0.0399940583315
  orientation: 
    x: 1.85337453386e-09
    y: 2.97045402565e-05
    z: 8.37603518609e-06
    w: 0.999999999524
---
header: 
  seq: 4013
  stamp: 
    secs: 700
    nsecs: 202000000
  frame_id: "map"
pose: 
  position: 
    x: -2.68537415628e-05
    y: -3.90168020235e-06
    z: 0.0399999991374
  orientation: 
    x: 1.05870981524e-11
    y: -7.50074172548e-12
    z: 8.37508990826e-06
    w: 0.999999999965
---
header: 
  seq: 4014
  stamp: 
    secs: 700
    nsecs: 212000000
  frame_id: "map"
pose: 
  position: 
    x: -2.84926836817e-05
    y: -3.90153188096e-06
    z: 0.039996101972
  orientation: 
    x: -4.18252669729e-09
    y: -2.04866938171e-05
    z: 8.37447044309e-06
    w: 0.999999999755
---
header: 
  seq: 4015
  stamp: 
    secs: 700
    nsecs: 222000000
  frame_id: "map"
pose: 
  position: 
    x: -2.44766916261e-05
    y: -3.902618373e-06
