header: 
  seq: 15935
  stamp: 
    secs: 21726
    nsecs: 648000000
  frame_id: "map"
pose: 
  position: 
    x: 5.76529896108
    y: -1.95184862605
    z: 0.0399999991374
  orientation: 
    x: 7.34033814084e-12
    y: 1.07008114514e-11
    z: 0.999880329089
    w: -0.0154702133155
---
header: 
  seq: 15936
  stamp: 
    secs: 21726
    nsecs: 658000000
  frame_id: "map"
pose: 
  position: 
    x: 5.76530059925
    y: -1.95184857555
    z: 0.0399961019534
  orientation: 
    x: 2.0484330199e-05
    y: 3.12416093424e-07
    z: 0.999880328892
    w: -0.0154702124907
---
header: 
  seq: 15937
  stamp: 
    secs: 21726
    nsecs: 668000000
  frame_id: "map"
pose: 
  position: 
    x: 5.76529658518
    y: -1.95184869861
    z: 0.0399940583587
  orientation: 
    x: -2.97008442454e-05
    y: -4.57351162996e-07
    z: 0.999880328678
    w: -0.0154702113583
---
header: 
  seq: 15938
  stamp: 
    secs: 21726
    nsecs: 678000000
  frame_id: "map"
pose: 
  position: 
    x: 5.76529896049
    y: -1.95184862502
    z: 0.0399999991374
  orientation: 
    x: 7.34031826606e-12
    y: 1.07008181273e-11
    z: 0.999880329137
    w: -0.0154702102115
---
header: 
  seq: 15939
  stamp: 
    secs: 21726
    nsecs: 688000000
  frame_id: "map"
pose: 
  position: 
    x: 5.76530059866
    y: -1.95184857452
    z: 0.0399961019534
  orientation: 
    x: 2.04843302e-05
    y: 3.12416029848e-07
    z: 0.99988032894
    w: -0.0154702093867
---
header: 
  seq: 15940
  stamp: 
    secs: 21726
    nsecs: 698000000
  frame_id: "map"
pose: 
  position: 
    x: 5.76529658458
    y: -1.95184869758
    z: 0.0399940583587
  orientation: 
    x: -2.97008442468e-05
    y: -4.57351070811e-07
    z: 0.999880328727
    w: -0.0154702082542
---
header: 
  seq: 15941
  stamp: 
    secs: 21726
    nsecs: 708000000
  frame_id: "map"
pose: 
  position: 
    x: 5.76529895989
    y: -1.95184862399
    z: 0.0399999991374
  orientation: 
    x: 7.34033673137e-12
    y: 1.07008134211e-11
    z: 0.999880329185
    w: -0.0154702071075
---
header: 
  seq: 15942
  stamp: 
    secs: 21726
    nsecs: 718000000
  frame_id: "map"
pose: 
  position: 
    x: 5.76530059807
    y: -1.95184857349
    z: 0.0399961019534
  orientation: 
    x: 2.04843302009e-05
    y: 3.12415966274e-07
    z: 0.999880328988
    w: -0.0154702062827
---
header: 
  seq: 15943
  stamp: 
    secs: 21726
    nsecs: 728000000
  frame_id: "map"
pose: 
  position: 
    x: 5.76529658399
    y: -1.95184869655
    z: 0.0399940583587
  orientation: 
    x: -2.97008442482e-05
    y: -4.57350978612e-07
    z: 0.999880328775
    w: -0.0154702051502
---
header: 
  seq: 15944
  stamp: 
    secs: 21726
    nsecs: 738000000
  frame_id: "map"
pose: 
  position: 
    x: 5.7652989593
    y: -1.95184862295
    z: 0.0399999991374
  orientation: 
    x: 7.34033126632e-12
    y: 1.07008205269e-11
    z: 0.999880329233
    w: -0.0154702040034
---
header: 
  seq: 15945
  stamp: 
    secs: 21726
    nsecs: 748000000
  frame_id: "map"
pose: 
  position: 
    x: 5.76530059748
    y: -1.95184857245
    z: 0.0399961019534
  orientation: 
    x: 2.04843302019e-05
    y: 3.12415902712e-07
    z: 0.999880329036
    w: -0.0154702031787
---
header: 
  seq: 15946
  stamp: 
    secs: 21726
    nsecs: 758000000
  frame_id: "map"
pose: 
  position: 
    x: 5.7652965834
    y: -1.95184869551
    z: 0.0399940583587
  orientation: 
    x: -2.97008442497e-05
    y: -4.57350886425e-07
    z: 0.999880328823
    w: -0.0154702020462
---
header: 
  seq: 15947
  stamp: 
    secs: 21726
    nsecs: 768000000
  frame_id: "map"
pose: 
  position: 
    x: 5.76529895871
    y: -1.95184862192
    z: 0.0399999991374
  orientation: 
    x: 7.34034803757e-12
    y: 1.07008101018e-11
    z: 0.999880329282
    w: -0.0154702008994
---
header: 
  seq: 15948
  stamp: 
    secs: 21726
    nsecs: 778000000
  frame_id: "map"
pose: 
  position: 
    x: 5.76530059689
    y: -1.95184857142
    z: 0.0399961019534
  orientation: 
    x: 2.04843302029e-05
    y: 3.12415839158e-07
    z: 0.999880329084
    w: -0.0154702000746
---
header: 
  seq: 15949
  stamp: 
    secs: 21726
    nsecs: 788000000
  frame_id: "map"
pose: 
  position: 
    x: 5.76529658281
    y: -1.95184869448
    z: 0.0399940583587
  orientation: 
    x: -2.97008442512e-05
    y: -4.57350794242e-07
    z: 0.999880328871
    w: -0.0154701989421
---
header: 
  seq: 15950
  stamp: 
    secs: 21726
    nsecs: 798000000
  frame_id: "map"
pose: 
  position: 
    x: 5.76529895812
    y: -1.95184862088
    z: 0.0399999991374
  orientation: 
    x: 7.34033412251e-12
    y: 1.07008163171e-11
    z: 0.99988032933
    w: -0.0154701977954
---
header: 
  seq: 15951
  stamp: 
    secs: 21726
    nsecs: 808000000
  frame_id: "map"
pose: 
  position: 
    x: 5.7653005963
    y: -1.95184857038
    z: 0.0399961019534
  orientation: 
    x: 2.04843302038e-05
    y: 3.12415775577e-07
    z: 0.999880329132
    w: -0.0154701969706
---
header: 
  seq: 15952
  stamp: 
    secs: 21726
    nsecs: 818000000
  frame_id: "map"
pose: 
  position: 
    x: 5.76529658222
    y: -1.95184869344
    z: 0.0399940583587
  orientation: 
    x: -2.97008442526e-05
    y: -4.57350702042e-07
    z: 0.999880328919
    w: -0.0154701958381
---
header: 
  seq: 15953
  stamp: 
    secs: 21726
    nsecs: 828000000
  frame_id: "map"
pose: 
  position: 
    x: 5.76529895753
    y: -1.95184861985
    z: 0.0399999991374
  orientation: 
    x: 7.34033897432e-12
    y: 1.07008217095e-11
    z: 0.999880329378
    w: -0.0154701946913
---
header: 
  seq: 15954
  stamp: 
    secs: 21726
    nsecs: 838000000
  frame_id: "map"
pose: 
  position: 
    x: 5.76530059571
    y: -1.95184856935
    z: 0.0399961019534
  orientation: 
    x: 2.04843302048e-05
    y: 3.12415712008e-07
    z: 0.99988032918
    w: -0.0154701938666
---
header: 
  seq: 15955
  stamp: 
    secs: 21726
    nsecs: 848000000
  frame_id: "map"
pose: 
  position: 
    x: 5.76529658163
    y: -1.95184869241
    z: 0.0399940583587
  orientation: 
    x: -2.97008442541e-05
    y: -4.57350609845e-07
    z: 0.999880328967
    w: -0.0154701927341
---
header: 
  seq: 15956
  stamp: 
    secs: 21726
    nsecs: 858000000
  frame_id: "map"
pose: 
  position: 
    x: 5.76529895694
    y: -1.95184861882
    z: 0.0399999991374
  orientation: 
    x: 7.34034437161e-12
    y: 1.07008092739e-11
    z: 0.999880329426
    w: -0.0154701915873
---
header: 
  seq: 15957
  stamp: 
    secs: 21726
    nsecs: 868000000
  frame_id: "map"
pose: 
  position: 
    x: 5.76530059511
    y: -1.95184856832
    z: 0.0399961019534
  orientation: 
    x: 2.04843302057e-05
    y: 3.12415648453e-07
    z: 0.999880329228
    w: -0.0154701907625
---
header: 
  seq: 15958
  stamp: 
    secs: 21726
    nsecs: 878000000
  frame_id: "map"
pose: 
  position: 
    x: 5.76529658104
    y: -1.95184869138
    z: 0.0399940583587
  orientation: 
    x: -2.97008442555e-05
    y: -4.57350517654e-07
    z: 0.999880329015
    w: -0.0154701896301
---
header: 
  seq: 15959
  stamp: 
    secs: 21726
    nsecs: 888000000
  frame_id: "map"
pose: 
  position: 
    x: 5.76529895635
    y: -1.95184861778
    z: 0.0399999991374
  orientation: 
    x: 7.34033707358e-12
    y: 1.07008132264e-11
    z: 0.999880329474
    w: -0.0154701884833
---
header: 
  seq: 15960
  stamp: 
    secs: 21726
    nsecs: 898000000
  frame_id: "map"
pose: 
  position: 
    x: 5.76530059452
    y: -1.95184856728
    z: 0.0399961019534
  orientation: 
    x: 2.04843302067e-05
    y: 3.12415584887e-07
    z: 0.999880329277
    w: -0.0154701876585
---
header: 
  seq: 15961
  stamp: 
    secs: 21726
    nsecs: 908000000
  frame_id: "map"
pose: 
  position: 
    x: 5.76529658045
    y: -1.95184869034
    z: 0.0399940583587
  orientation: 
    x: -2.9700844257e-05
    y: -4.57350425475e-07
    z: 0.999880329063
    w: -0.015470186526
---
header: 
  seq: 15962
  stamp: 
    secs: 21726
    nsecs: 918000000
  frame_id: "map"
pose: 
  position: 
    x: 5.76529895576
    y: -1.95184861675
    z: 0.0399999991374
  orientation: 
    x: 7.34033807985e-12
    y: 1.07008201942e-11
    z: 0.999880329522
    w: -0.0154701853793
---
header: 
  seq: 15963
  stamp: 
    secs: 21726
    nsecs: 928000000
  frame_id: "map"
pose: 
  position: 
    x: 5.76530059393
    y: -1.95184856625
    z: 0.0399961019534
  orientation: 
    x: 2.04843302077e-05
    y: 3.12415521315e-07
    z: 0.999880329325
    w: -0.0154701845545
---
header: 
  seq: 15964
  stamp: 
    secs: 21726
    nsecs: 938000000
  frame_id: "map"
pose: 
  position: 
    x: 5.76529657986
    y: -1.95184868931
    z: 0.0399940583587
  orientation: 
    x: -2.97008442585e-05
    y: -4.57350333282e-07
    z: 0.999880329111
    w: -0.015470183422
---
header: 
  seq: 15965
  stamp: 
    secs: 21726
    nsecs: 948000000
  frame_id: "map"
pose: 
  position: 
    x: 5.76529895517
    y: -1.95184861571
    z: 0.0399999991374
  orientation: 
    x: 7.34032856937e-12
    y: 1.0700822408e-11
    z: 0.99988032957
    w: -0.0154701822752
---
header: 
  seq: 15966
  stamp: 
    secs: 21726
    nsecs: 958000000
  frame_id: "map"
pose: 
  position: 
    x: 5.76530059334
    y: -1.95184856521
    z: 0.0399961019534
  orientation: 
    x: 2.04843302086e-05
    y: 3.12415457763e-07
    z: 0.999880329373
    w: -0.0154701814505
---
header: 
  seq: 15967
  stamp: 
    secs: 21726
    nsecs: 968000000
  frame_id: "map"
pose: 
  position: 
    x: 5.76529657927
    y: -1.95184868827
    z: 0.0399940583587
  orientation: 
    x: -2.97008442599e-05
    y: -4.57350241082e-07
    z: 0.999880329159
    w: -0.015470180318
---
header: 
  seq: 15968
  stamp: 
    secs: 21726
    nsecs: 978000000
  frame_id: "map"
pose: 
  position: 
    x: 5.76529895458
    y: -1.95184861468
    z: 0.0399999991374
  orientation: 
    x: 7.34033893366e-12
    y: 1.07008151011e-11
    z: 0.999880329618
    w: -0.0154701791712
---
header: 
  seq: 15969
  stamp: 
    secs: 21726
    nsecs: 988000000
  frame_id: "map"
pose: 
  position: 
    x: 5.76530059275
    y: -1.95184856418
    z: 0.0399961019534
  orientation: 
    x: 2.04843302096e-05
    y: 3.12415394184e-07
    z: 0.999880329421
    w: -0.0154701783464
---
header: 
  seq: 15970
  stamp: 
    secs: 21726
    nsecs: 998000000
  frame_id: "map"
pose: 
  position: 
    x: 5.76529657868
    y: -1.95184868724
    z: 0.0399940583587
  orientation: 
    x: -2.97008442614e-05
    y: -4.573501489e-07
    z: 0.999880329207
    w: -0.0154701772139
---
header: 
  seq: 15971
  stamp: 
    secs: 21727
    nsecs:   8000000
  frame_id: "map"
pose: 
  position: 
    x: 5.76529895399
    y: -1.95184861365
    z: 0.0399999991374
  orientation: 
    x: 7.34032221662e-12
    y: 1.07008248091e-11
    z: 0.999880329666
    w: -0.0154701760672
---
header: 
  seq: 15972
  stamp: 
    secs: 21727
    nsecs:  18000000
  frame_id: "map"
pose: 
  position: 
    x: 5.76530059216
    y: -1.95184856314
    z: 0.0399961019534
  orientation: 
    x: 2.04843302106e-05
    y: 3.12415330611e-07
    z: 0.999880329469
    w: -0.0154701752424
---
header: 
  seq: 15973
  stamp: 
    secs: 21727
    nsecs:  28000000
  frame_id: "map"
pose: 
  position: 
    x: 5.76529657809
    y: -1.95184868621
    z: 0.0399940583587
  orientation: 
    x: -2.97008442628e-05
    y: -4.57350056696e-07
    z: 0.999880329255
    w: -0.0154701741099
---
header: 
  seq: 15974
  stamp: 
    secs: 21727
    nsecs:  38000000
  frame_id: "map"
pose: 
  position: 
    x: 5.7652989534
    y: -1.95184861261
    z: 0.0399999991374
  orientation: 
    x: 7.34034072259e-12
    y: 1.07008165436e-11
    z: 0.999880329714
    w: -0.0154701729632
---
header: 
  seq: 15975
  stamp: 
    secs: 21727
    nsecs:  48000000
  frame_id: "map"
pose: 
  position: 
    x: 5.76530059157
    y: -1.95184856211
    z: 0.0399961019534
  orientation: 
    x: 2.04843302115e-05
    y: 3.12415267046e-07
    z: 0.999880329517
    w: -0.0154701721384
---
header: 
  seq: 15976
  stamp: 
    secs: 21727
    nsecs:  58000000
  frame_id: "map"
pose: 
  position: 
    x: 5.76529657749
    y: -1.95184868517
    z: 0.0399940583587
  orientation: 
    x: -2.97008442643e-05
    y: -4.57349964508e-07
    z: 0.999880329303
    w: -0.0154701710059
---
header: 
  seq: 15977
  stamp: 
    secs: 21727
    nsecs:  68000000
  frame_id: "map"
pose: 
  position: 
    x: 5.7652989528
    y: -1.95184861158
    z: 0.0399999991374
  orientation: 
    x: 7.34032283665e-12
    y: 1.0700821756e-11
    z: 0.999880329762
    w: -0.0154701698591
---
header: 
  seq: 15978
  stamp: 
    secs: 21727
    nsecs:  78000000
  frame_id: "map"
pose: 
  position: 
    x: 5.76530059098
    y: -1.95184856108
    z: 0.0399961019534
  orientation: 
    x: 2.04843302125e-05
    y: 3.12415203485e-07
    z: 0.999880329565
    w: -0.0154701690343
---
header: 
  seq: 15979
  stamp: 
    secs: 21727
    nsecs:  88000000
  frame_id: "map"
pose: 
  position: 
    x: 5.7652965769
    y: -1.95184868414
    z: 0.0399940583587
  orientation: 
    x: -2.97008442658e-05
    y: -4.5734987232e-07
    z: 0.999880329351
    w: -0.0154701679019
---
header: 
  seq: 15980
  stamp: 
    secs: 21727
    nsecs:  98000000
  frame_id: "map"
pose: 
  position: 
    x: 5.76529895221
    y: -1.95184861054
    z: 0.0399999991374
  orientation: 
    x: 7.34033053787e-12
    y: 1.07008238667e-11
    z: 0.99988032981
    w: -0.0154701667551
---
header: 
  seq: 15981
  stamp: 
    secs: 21727
    nsecs: 108000000
  frame_id: "map"
pose: 
  position: 
    x: 5.76530059039
    y: -1.95184856004
    z: 0.0399961019534
  orientation: 
    x: 2.04843302135e-05
    y: 3.12415139925e-07
    z: 0.999880329613
    w: -0.0154701659303
---
header: 
  seq: 15982
  stamp: 
    secs: 21727
    nsecs: 118000000
  frame_id: "map"
pose: 
  position: 
    x: 5.76529657631
    y: -1.9518486831
    z: 0.0399940583587
  orientation: 
    x: -2.97008442672e-05
    y: -4.5734978013e-07
    z: 0.999880329399
    w: -0.0154701647978
---
header: 
  seq: 15983
  stamp: 
    secs: 21727
    nsecs: 128000000
  frame_id: "map"
pose: 
  position: 
    x: 5.76529895162
    y: -1.95184860951
    z: 0.0399999991374
  orientation: 
    x: 7.34033176099e-12
    y: 1.07008264625e-11
    z: 0.999880329858
    w: -0.0154701636511
---
header: 
  seq: 15984
  stamp: 
    secs: 21727
    nsecs: 138000000
  frame_id: "map"
pose: 
  position: 
    x: 5.7653005898
    y: -1.95184855901
    z: 0.0399961019534
  orientation: 
    x: 2.04843302144e-05
    y: 3.12415076351e-07
    z: 0.999880329661
    w: -0.0154701628263
---
header: 
  seq: 15985
  stamp: 
    secs: 21727
    nsecs: 148000000
  frame_id: "map"
pose: 
  position: 
    x: 5.76529657572
    y: -1.95184868207
    z: 0.0399940583587
  orientation: 
    x: -2.97008442686e-05
    y: -4.57349687937e-07
    z: 0.999880329447
    w: -0.0154701616938
---
header: 
  seq: 15986
  stamp: 
    secs: 21727
    nsecs: 158000000
  frame_id: "map"
pose: 
  position: 
    x: 5.76529895103
    y: -1.95184860847
    z: 0.0399999991374
  orientation: 
    x: 7.34032370401e-12
    y: 1.07008257249e-11
    z: 0.999880329906
    w: -0.015470160547
---
header: 
  seq: 15987
  stamp: 
    secs: 21727
    nsecs: 168000000
  frame_id: "map"
pose: 
  position: 
    x: 5.76530058921
    y: -1.95184855797
    z: 0.0399961019534
  orientation: 
    x: 2.04843302155e-05
    y: 3.12415012781e-07
    z: 0.999880329709
    w: -0.0154701597223
---
header: 
  seq: 15988
  stamp: 
    secs: 21727
    nsecs: 178000000
  frame_id: "map"
pose: 
  position: 
    x: 5.76529657513
    y: -1.95184868104
    z: 0.0399940583587
  orientation: 
    x: -2.97008442701e-05
    y: -4.57349595751e-07
    z: 0.999880329495
    w: -0.0154701585898
---
header: 
  seq: 15989
  stamp: 
    secs: 21727
    nsecs: 188000000
  frame_id: "map"
pose: 
  position: 
    x: 5.76529895044
    y: -1.95184860744
    z: 0.0399999991374
  orientation: 
    x: 7.34034501536e-12
    y: 1.07008205456e-11
    z: 0.999880329954
    w: -0.015470157443
---
header: 
  seq: 15990
  stamp: 
    secs: 21727
    nsecs: 198000000
  frame_id: "map"
pose: 
  position: 
    x: 5.76530058862
    y: -1.95184855694
    z: 0.0399961019534
  orientation: 
    x: 2.04843302164e-05
    y: 3.12414949209e-07
    z: 0.999880329757
    w: -0.0154701566182
---
header: 
  seq: 15991
  stamp: 
    secs: 21727
    nsecs: 208000000
  frame_id: "map"
pose: 
  position: 
    x: 5.76529657454
    y: -1.95184868
    z: 0.0399940583587
  orientation: 
    x: -2.97008442716e-05
    y: -4.57349503565e-07
    z: 0.999880329543
    w: -0.0154701554858
---
header: 
  seq: 15992
  stamp: 
    secs: 21727
    nsecs: 218000000
  frame_id: "map"
pose: 
  position: 
    x: 5.76529894985
    y: -1.95184860641
    z: 0.0399999991374
  orientation: 
    x: 7.34032503216e-12
    y: 1.07008158025e-11
    z: 0.999880330002
    w: -0.015470154339
---
header: 
  seq: 15993
  stamp: 
    secs: 21727
    nsecs: 228000000
  frame_id: "map"
pose: 
  position: 
    x: 5.76530058802
    y: -1.95184855591
    z: 0.0399961019534
  orientation: 
    x: 2.04843302174e-05
    y: 3.12414885642e-07
    z: 0.999880329805
    w: -0.0154701535142
---
header: 
  seq: 15994
  stamp: 
    secs: 21727
    nsecs: 238000000
  frame_id: "map"
pose: 
  position: 
    x: 5.76529657395
    y: -1.95184867897
    z: 0.0399940583587
  orientation: 
    x: -2.9700844273e-05
    y: -4.57349411364e-07
    z: 0.999880329591
    w: -0.0154701523817
---
header: 
  seq: 15995
  stamp: 
    secs: 21727
    nsecs: 248000000
  frame_id: "map"
pose: 
  position: 
    x: 5.76529894926
    y: -1.95184860537
    z: 0.0399999991374
  orientation: 
    x: 7.34032471367e-12
    y: 1.07008209304e-11
    z: 0.99988033005
    w: -0.015470151235
---
header: 
  seq: 15996
  stamp: 
    secs: 21727
    nsecs: 258000000
  frame_id: "map"
pose: 
  position: 
    x: 5.76530058743
    y: -1.95184855487
    z: 0.0399961019534
  orientation: 
    x: 2.04843302183e-05
    y: 3.1241482208e-07
    z: 0.999880329853
    w: -0.0154701504102
---
header: 
  seq: 15997
  stamp: 
    secs: 21727
    nsecs: 268000000
  frame_id: "map"
pose: 
  position: 
    x: 5.76529657336
    y: -1.95184867793
    z: 0.0399940583587
  orientation: 
    x: -2.97008442744e-05
    y: -4.57349319172e-07
    z: 0.999880329639
    w: -0.0154701492777
---
header: 
  seq: 15998
  stamp: 
    secs: 21727
    nsecs: 278000000
  frame_id: "map"
pose: 
  position: 
    x: 5.76529894867
    y: -1.95184860434
    z: 0.0399999991374
  orientation: 
    x: 7.34032388358e-12
    y: 1.07008270336e-11
    z: 0.999880330098
    w: -0.0154701481309
---
header: 
  seq: 15999
  stamp: 
    secs: 21727
    nsecs: 288000000
  frame_id: "map"
pose: 
  position: 
    x: 5.76530058684
    y: -1.95184855384
    z: 0.0399961019534
  orientation: 
    x: 2.04843302193e-05
    y: 3.12414758525e-07
    z: 0.999880329901
    w: -0.0154701473061
---
header: 
  seq: 16000
  stamp: 
    secs: 21727
    nsecs: 298000000
  frame_id: "map"
pose: 
  position: 
    x: 5.76529657277
    y: -1.9518486769
    z: 0.0399940583587
  orientation: 
    x: -2.97008442759e-05
    y: -4.57349226989e-07
    z: 0.999880329687
    w: -0.0154701461737
---
header: 
  seq: 16001
  stamp: 
    secs: 21727
    nsecs: 308000000
  frame_id: "map"
pose: 
  position: 
    x: 5.76529894808
    y: -1.9518486033
    z: 0.0399999991374
  orientation: 
    x: 7.34033942494e-12
    y: 1.07008221199e-11
    z: 0.999880330146
    w: -0.0154701450269
---
header: 
  seq: 16002
  stamp: 
    secs: 21727
    nsecs: 318000000
  frame_id: "map"
pose: 
  position: 
    x: 5.76530058625
    y: -1.9518485528
    z: 0.0399961019534
  orientation: 
    x: 2.04843302203e-05
    y: 3.1241469495e-07
    z: 0.999880329949
    w: -0.0154701442021
---
header: 
  seq: 16003
  stamp: 
    secs: 21727
    nsecs: 328000000
  frame_id: "map"
pose: 
  position: 
    x: 5.76529657218
    y: -1.95184867586
    z: 0.0399940583587
  orientation: 
    x: -2.97008442773e-05
    y: -4.57349134798e-07
    z: 0.999880329735
    w: -0.0154701430696
---
header: 
  seq: 16004
  stamp: 
    secs: 21727
    nsecs: 338000000
  frame_id: "map"
pose: 
  position: 
    x: 5.76529894749
    y: -1.95184860227
    z: 0.0399999991374
  orientation: 
    x: 7.34033754453e-12
    y: 1.07008113313e-11
    z: 0.999880330194
    w: -0.0154701419229
---
header: 
  seq: 16005
  stamp: 
    secs: 21727
    nsecs: 348000000
  frame_id: "map"
pose: 
  position: 
    x: 5.76530058566
    y: -1.95184855177
    z: 0.0399961019534
  orientation: 
    x: 2.04843302213e-05
    y: 3.12414631381e-07
    z: 0.999880329997
    w: -0.0154701410981
---
header: 
  seq: 16006
  stamp: 
    secs: 21727
    nsecs: 358000000
  frame_id: "map"
pose: 
  position: 
    x: 5.76529657159
    y: -1.95184867483
    z: 0.0399940583587
  orientation: 
    x: -2.97008442789e-05
    y: -4.57349042604e-07
    z: 0.999880329783
    w: -0.0154701399656
---
header: 
  seq: 16007
  stamp: 
    secs: 21727
    nsecs: 368000000
  frame_id: "map"
pose: 
  position: 
    x: 5.7652989469
    y: -1.95184860124
    z: 0.0399999991374
  orientation: 
    x: 7.34033686351e-12
    y: 1.07008132979e-11
    z: 0.999880330242
    w: -0.0154701388189
---
header: 
  seq: 16008
  stamp: 
    secs: 21727
    nsecs: 378000000
  frame_id: "map"
pose: 
  position: 
    x: 5.76530058507
    y: -1.95184855074
    z: 0.0399961019534
  orientation: 
    x: 2.04843302222e-05
    y: 3.12414567819e-07
    z: 0.999880330045
    w: -0.0154701379941
---
header: 
  seq: 16009
  stamp: 
    secs: 21727
    nsecs: 388000000
  frame_id: "map"
pose: 
  position: 
    x: 5.765296571
    y: -1.9518486738
    z: 0.0399940583587
  orientation: 
    x: -2.97008442802e-05
    y: -4.57348950404e-07
    z: 0.999880329831
    w: -0.0154701368616
---
header: 
  seq: 16010
  stamp: 
    secs: 21727
    nsecs: 398000000
  frame_id: "map"
pose: 
  position: 
    x: 5.76529894631
    y: -1.9518486002
    z: 0.0399999991374
  orientation: 
    x: 7.3403358674e-12
    y: 1.07008256401e-11
    z: 0.99988033029
    w: -0.0154701357148
---
header: 
  seq: 16011
  stamp: 
    secs: 21727
    nsecs: 408000000
  frame_id: "map"
pose: 
  position: 
    x: 5.76530058448
    y: -1.9518485497
    z: 0.0399961019534
  orientation: 
    x: 2.04843302232e-05
    y: 3.12414504257e-07
    z: 0.999880330093
    w: -0.01547013489
---
header: 
  seq: 16012
  stamp: 
    secs: 21727
    nsecs: 418000000
  frame_id: "map"
pose: 
  position: 
    x: 5.7652965704
    y: -1.95184867276
    z: 0.0399940583587
  orientation: 
    x: -2.97008442817e-05
    y: -4.57348858211e-07
    z: 0.999880329879
    w: -0.0154701337576
---
header: 
  seq: 16013
  stamp: 
    secs: 21727
    nsecs: 428000000
  frame_id: "map"
pose: 
  position: 
    x: 5.76529894571
    y: -1.95184859917
    z: 0.0399999991374
  orientation: 
    x: 7.34032411736e-12
    y: 1.07008252011e-11
    z: 0.999880330338
    w: -0.0154701326108
---
header: 
  seq: 16014
  stamp: 
    secs: 21727
    nsecs: 438000000
  frame_id: "map"
pose: 
  position: 
    x: 5.76530058389
    y: -1.95184854867
    z: 0.0399961019534
  orientation: 
    x: 2.04843302241e-05
    y: 3.1241444068e-07
    z: 0.999880330141
    w: -0.015470131786
---
header: 
  seq: 16015
  stamp: 
    secs: 21727
    nsecs: 448000000
  frame_id: "map"
pose: 
  position: 
    x: 5.76529656981
    y: -1.95184867173
    z: 0.0399940583587
  orientation: 
    x: -2.97008442832e-05
    y: -4.5734876603e-07
    z: 0.999880329927
    w: -0.0154701306535
---
header: 
  seq: 16016
  stamp: 
    secs: 21727
    nsecs: 458000000
  frame_id: "map"
pose: 
  position: 
    x: 5.76529894512
    y: -1.95184859813
    z: 0.0399999991374
  orientation: 
    x: 7.34032851854e-12
    y: 1.07008265882e-11
    z: 0.999880330386
    w: -0.0154701295068
---
header: 
  seq: 16017
  stamp: 
    secs: 21727
    nsecs: 468000000
  frame_id: "map"
pose: 
  position: 
    x: 5.7653005833
    y: -1.95184854763
    z: 0.0399961019534
  orientation: 
    x: 2.04843302251e-05
    y: 3.12414377115e-07
    z: 0.999880330189
    w: -0.015470128682
---
header: 
  seq: 16018
  stamp: 
    secs: 21727
    nsecs: 478000000
  frame_id: "map"
pose: 
  position: 
    x: 5.76529656922
    y: -1.95184867069
    z: 0.0399940583587
  orientation: 
    x: -2.97008442846e-05
    y: -4.57348673826e-07
    z: 0.999880329975
    w: -0.0154701275495
---
header: 
  seq: 16019
  stamp: 
    secs: 21727
    nsecs: 488000000
  frame_id: "map"
pose: 
  position: 
    x: 5.76529894453
    y: -1.9518485971
    z: 0.0399999991374
  orientation: 
    x: 7.34032995511e-12
    y: 1.07008116572e-11
    z: 0.999880330434
    w: -0.0154701264027
---
header: 
  seq: 16020
  stamp: 
    secs: 21727
    nsecs: 498000000
  frame_id: "map"
pose: 
  position: 
    x: 5.76530058271
    y: -1.9518485466
    z: 0.0399961019534
  orientation: 
    x: 2.0484330226e-05
    y: 3.12414313565e-07
    z: 0.999880330237
    w: -0.015470125578
---
header: 
  seq: 16021
  stamp: 
    secs: 21727
    nsecs: 508000000
  frame_id: "map"
pose: 
  position: 
    x: 5.76529656863
    y: -1.95184866966
    z: 0.0399940583587
  orientation: 
    x: -2.97008442862e-05
    y: -4.57348581648e-07
    z: 0.999880330023
    w: -0.0154701244455
---
header: 
  seq: 16022
  stamp: 
    secs: 21727
    nsecs: 518000000
  frame_id: "map"
pose: 
  position: 
    x: 5.76529894394
    y: -1.95184859607
    z: 0.0399999991374
  orientation: 
    x: 7.34033083264e-12
    y: 1.07008219404e-11
    z: 0.999880330482
    w: -0.0154701232987
---
header: 
  seq: 16023
  stamp: 
    secs: 21727
    nsecs: 528000000
  frame_id: "map"
pose: 
  position: 
    x: 5.76530058212
    y: -1.95184854557
    z: 0.0399961019534
  orientation: 
    x: 2.0484330227e-05
    y: 3.12414249992e-07
    z: 0.999880330285
    w: -0.0154701224739
---
header: 
  seq: 16024
  stamp: 
    secs: 21727
    nsecs: 538000000
  frame_id: "map"
pose: 
  position: 
    x: 5.76529656804
    y: -1.95184866863
    z: 0.0399940583587
  orientation: 
    x: -2.97008442875e-05
    y: -4.57348489464e-07
    z: 0.999880330071
    w: -0.0154701213415
---
header: 
  seq: 16025
  stamp: 
    secs: 21727
    nsecs: 548000000
  frame_id: "map"
pose: 
  position: 
    x: 5.76529894335
    y: -1.95184859503
    z: 0.0399999991374
  orientation: 
    x: 7.34032657376e-12
    y: 1.07008185117e-11
    z: 0.99988033053
    w: -0.0154701201947
---
header: 
  seq: 16026
  stamp: 
    secs: 21727
    nsecs: 558000000
  frame_id: "map"
pose: 
  position: 
    x: 5.76530058153
    y: -1.95184854453
    z: 0.0399961019534
  orientation: 
    x: 2.04843302279e-05
    y: 3.12414186435e-07
    z: 0.999880330333
    w: -0.0154701193699
---
header: 
  seq: 16027
  stamp: 
    secs: 21727
    nsecs: 568000000
  frame_id: "map"
pose: 
  position: 
    x: 5.76529656745
    y: -1.95184866759
    z: 0.0399940583587
  orientation: 
    x: -2.9700844289e-05
    y: -4.57348397265e-07
    z: 0.999880330119
    w: -0.0154701182374
---
header: 
  seq: 16028
  stamp: 
    secs: 21727
    nsecs: 578000000
  frame_id: "map"
pose: 
  position: 
    x: 5.76529894276
    y: -1.951848594
    z: 0.0399999991374
  orientation: 
    x: 7.34034804435e-12
    y: 1.0700820734e-11
    z: 0.999880330578
    w: -0.0154701170907
---
header: 
  seq: 16029
  stamp: 
    secs: 21727
    nsecs: 588000000
  frame_id: "map"
pose: 
  position: 
    x: 5.76530058093
    y: -1.9518485435
    z: 0.0399961019534
  orientation: 
    x: 2.0484330229e-05
    y: 3.12414122853e-07
    z: 0.999880330381
    w: -0.0154701162659
---
header: 
  seq: 16030
  stamp: 
    secs: 21727
    nsecs: 598000000
  frame_id: "map"
pose: 
  position: 
    x: 5.76529656686
    y: -1.95184866656
    z: 0.0399940583587
  orientation: 
    x: -2.97008442905e-05
    y: -4.57348305079e-07
    z: 0.999880330167
    w: -0.0154701151334
---
header: 
  seq: 16031
  stamp: 
    secs: 21727
    nsecs: 608000000
  frame_id: "map"
pose: 
  position: 
    x: 5.76529894217
    y: -1.95184859296
    z: 0.0399999991374
  orientation: 
    x: 7.34033820521e-12
    y: 1.07008137304e-11
    z: 0.999880330626
    w: -0.0154701139866
---
header: 
  seq: 16032
  stamp: 
    secs: 21727
    nsecs: 618000000
  frame_id: "map"
pose: 
  position: 
    x: 5.76530058034
    y: -1.95184854246
    z: 0.0399961019534
  orientation: 
    x: 2.04843302299e-05
    y: 3.12414059297e-07
    z: 0.999880330429
    w: -0.0154701131619
---
header: 
  seq: 16033
  stamp: 
    secs: 21727
    nsecs: 628000000
  frame_id: "map"
pose: 
  position: 
    x: 5.76529656627
    y: -1.95184866552
    z: 0.0399940583587
  orientation: 
    x: -2.97008442919e-05
    y: -4.57348212888e-07
    z: 0.999880330215
    w: -0.0154701120294
---
header: 
  seq: 16034
  stamp: 
    secs: 21727
    nsecs: 638000000
  frame_id: "map"
pose: 
  position: 
    x: 5.76529894158
    y: -1.95184859193
    z: 0.0399999991374
  orientation: 
    x: 7.34032703115e-12
    y: 1.07008273073e-11
    z: 0.999880330674
    w: -0.0154701108826
---
header: 
  seq: 16035
  stamp: 
    secs: 21727
    nsecs: 648000000
  frame_id: "map"
pose: 
  position: 
    x: 5.76530057975
    y: -1.95184854143
    z: 0.0399961019534
  orientation: 
    x: 2.04843302309e-05
    y: 3.1241399573e-07
    z: 0.999880330477
    w: -0.0154701100578
---
header: 
  seq: 16036
  stamp: 
    secs: 21727
    nsecs: 658000000
  frame_id: "map"
pose: 
  position: 
    x: 5.76529656568
    y: -1.95184866449
    z: 0.0399940583587
  orientation: 
    x: -2.97008442934e-05
    y: -4.57348120683e-07
    z: 0.999880330263
    w: -0.0154701089254
---
header: 
  seq: 16037
  stamp: 
    secs: 21727
    nsecs: 668000000
  frame_id: "map"
pose: 
  position: 
    x: 5.76529894099
    y: -1.9518485909
    z: 0.0399999991374
  orientation: 
    x: 7.34034609956e-12
    y: 1.07008154608e-11
    z: 0.999880330722
    w: -0.0154701077786
---
header: 
  seq: 16038
  stamp: 
    secs: 21727
    nsecs: 678000000
  frame_id: "map"
pose: 
  position: 
    x: 5.76530057916
    y: -1.9518485404
    z: 0.0399961019534
  orientation: 
    x: 2.04843302319e-05
    y: 3.12413932143e-07
    z: 0.999880330525
    w: -0.0154701069538
---
header: 
  seq: 16039
  stamp: 
    secs: 21727
    nsecs: 688000000
  frame_id: "map"
pose: 
  position: 
    x: 5.76529656509
    y: -1.95184866346
    z: 0.0399940583587
  orientation: 
    x: -2.97008442949e-05
    y: -4.57348028487e-07
    z: 0.999880330311
    w: -0.0154701058213
---
header: 
  seq: 16040
  stamp: 
    secs: 21727
    nsecs: 698000000
  frame_id: "map"
pose: 
  position: 
    x: 5.7652989404
    y: -1.95184858986
    z: 0.0399999991374
  orientation: 
    x: 7.34033308913e-12
    y: 1.07008220773e-11
    z: 0.99988033077
    w: -0.0154701046746
---
header: 
  seq: 16041
  stamp: 
    secs: 21727
    nsecs: 708000000
  frame_id: "map"
pose: 
  position: 
    x: 5.76530057857
    y: -1.95184853936
    z: 0.0399961019534
  orientation: 
    x: 2.04843302328e-05
    y: 3.12413868587e-07
    z: 0.999880330573
    w: -0.0154701038498
---
header: 
  seq: 16042
  stamp: 
    secs: 21727
    nsecs: 718000000
  frame_id: "map"
pose: 
  position: 
    x: 5.7652965645
    y: -1.95184866242
    z: 0.0399940583587
  orientation: 
    x: -2.97008442963e-05
    y: -4.57347936317e-07
    z: 0.999880330359
    w: -0.0154701027173
---
header: 
  seq: 16043
  stamp: 
    secs: 21727
    nsecs: 728000000
  frame_id: "map"
pose: 
  position: 
    x: 5.76529893981
    y: -1.95184858883
    z: 0.0399999991374
  orientation: 
    x: 7.340337182e-12
    y: 1.07008049655e-11
    z: 0.999880330818
    w: -0.0154701015705
---
header: 
  seq: 16044
  stamp: 
    secs: 21727
    nsecs: 738000000
  frame_id: "map"
pose: 
  position: 
    x: 5.76530057798
    y: -1.95184853833
    z: 0.0399961019534
  orientation: 
    x: 2.04843302338e-05
    y: 3.12413805021e-07
    z: 0.999880330621
    w: -0.0154701007458
---
header: 
  seq: 16045
  stamp: 
    secs: 21727
    nsecs: 748000000
  frame_id: "map"
pose: 
  position: 
    x: 5.76529656391
    y: -1.95184866139
    z: 0.0399940583587
  orientation: 
    x: -2.97008442978e-05
    y: -4.57347844111e-07
    z: 0.999880330407
    w: -0.0154700996133
---
header: 
  seq: 16046
  stamp: 
    secs: 21727
    nsecs: 758000000
  frame_id: "map"
pose: 
  position: 
    x: 5.76529893922
    y: -1.95184858779
    z: 0.0399999991374
  orientation: 
    x: 7.34033163901e-12
    y: 1.07008219919e-11
    z: 0.999880330866
    w: -0.0154700984665
---
header: 
  seq: 16047
  stamp: 
    secs: 21727
    nsecs: 768000000
  frame_id: "map"
pose: 
  position: 
    x: 5.76530057739
    y: -1.95184853729
    z: 0.0399961019534
  orientation: 
    x: 2.04843302347e-05
    y: 3.12413741456e-07
    z: 0.999880330669
    w: -0.0154700976417
---
header: 
  seq: 16048
  stamp: 
    secs: 21727
    nsecs: 778000000
  frame_id: "map"
pose: 
  position: 
    x: 5.76529656331
    y: -1.95184866035
    z: 0.0399940583587
  orientation: 
    x: -2.97008442992e-05
    y: -4.57347751917e-07
    z: 0.999880330455
    w: -0.0154700965092
---
header: 
  seq: 16049
  stamp: 
    secs: 21727
    nsecs: 788000000
  frame_id: "map"
pose: 
  position: 
    x: 5.76529893862
    y: -1.95184858676
    z: 0.0399999991374
  orientation: 
    x: 7.34034350764e-12
    y: 1.07008097685e-11
    z: 0.999880330914
    w: -0.0154700953625
---
header: 
  seq: 16050
  stamp: 
    secs: 21727
    nsecs: 798000000
  frame_id: "map"
pose: 
  position: 
    x: 5.7653005768
    y: -1.95184853626
    z: 0.0399961019534
  orientation: 
    x: 2.04843302357e-05
    y: 3.1241367789e-07
    z: 0.999880330717
    w: -0.0154700945377
---
header: 
  seq: 16051
  stamp: 
    secs: 21727
    nsecs: 808000000
  frame_id: "map"
pose: 
  position: 
    x: 5.76529656272
    y: -1.95184865932
    z: 0.0399940583587
  orientation: 
    x: -2.97008443007e-05
    y: -4.57347659732e-07
    z: 0.999880330503
    w: -0.0154700934052
---
header: 
  seq: 16052
  stamp: 
    secs: 21727
    nsecs: 818000000
  frame_id: "map"
pose: 
  position: 
    x: 5.76529893803
    y: -1.95184858573
    z: 0.0399999991374
  orientation: 
    x: 7.34033698887e-12
    y: 1.07008109142e-11
    z: 0.999880330962
    w: -0.0154700922585
---
header: 
  seq: 16053
  stamp: 
    secs: 21727
    nsecs: 828000000
  frame_id: "map"
pose: 
  position: 
    x: 5.76530057621
    y: -1.95184853522
    z: 0.0399961019534
  orientation: 
    x: 2.04843302367e-05
    y: 3.12413614321e-07
    z: 0.999880330765
    w: -0.0154700914337
---
header: 
  seq: 16054
  stamp: 
    secs: 21727
    nsecs: 838000000
  frame_id: "map"
pose: 
  position: 
    x: 5.76529656213
    y: -1.95184865829
    z: 0.0399940583587
  orientation: 
    x: -2.97008443021e-05
    y: -4.57347567553e-07
    z: 0.999880330551
    w: -0.0154700903012
---
header: 
  seq: 16055
  stamp: 
    secs: 21727
    nsecs: 848000000
  frame_id: "map"
pose: 
  position: 
    x: 5.76529893744
    y: -1.95184858469
    z: 0.0399999991374
  orientation: 
    x: 7.34033608424e-12
    y: 1.07008086147e-11
    z: 0.99988033101
    w: -0.0154700891544
---
header: 
  seq: 16056
  stamp: 
    secs: 21727
    nsecs: 858000000
  frame_id: "map"
pose: 
  position: 
    x: 5.76530057562
    y: -1.95184853419
    z: 0.0399961019534
  orientation: 
    x: 2.04843302377e-05
    y: 3.12413550756e-07
    z: 0.999880330813
    w: -0.0154700883297
---
header: 
  seq: 16057
  stamp: 
    secs: 21727
    nsecs: 868000000
  frame_id: "map"
pose: 
  position: 
    x: 5.76529656154
    y: -1.95184865725
    z: 0.0399940583587
  orientation: 
    x: -2.97008443036e-05
    y: -4.57347475354e-07
    z: 0.999880330599
    w: -0.0154700871972
---
header: 
  seq: 16058
  stamp: 
    secs: 21727
    nsecs: 878000000
  frame_id: "map"
pose: 
  position: 
    x: 5.76529893685
    y: -1.95184858366
    z: 0.0399999991374
  orientation: 
    x: 7.34033501698e-12
    y: 1.07008192189e-11
    z: 0.999880331058
    w: -0.0154700860504
---
header: 
  seq: 16059
  stamp: 
    secs: 21727
    nsecs: 888000000
  frame_id: "map"
pose: 
  position: 
    x: 5.76530057503
    y: -1.95184853316
    z: 0.0399961019534
  orientation: 
    x: 2.04843302386e-05
    y: 3.12413487186e-07
    z: 0.999880330861
    w: -0.0154700852256
---
header: 
  seq: 16060
  stamp: 
    secs: 21727
    nsecs: 898000000
  frame_id: "map"
pose: 
  position: 
    x: 5.76529656095
    y: -1.95184865622
    z: 0.0399940583587
  orientation: 
    x: -2.9700844305e-05
    y: -4.57347383152e-07
    z: 0.999880330648
    w: -0.0154700840931
---
header: 
  seq: 16061
  stamp: 
    secs: 21727
    nsecs: 908000000
  frame_id: "map"
pose: 
  position: 
    x: 5.76529893626
    y: -1.95184858262
    z: 0.0399999991374
  orientation: 
    x: 7.34033539984e-12
    y: 1.07008146394e-11
    z: 0.999880331106
    w: -0.0154700829464
---
header: 
  seq: 16062
  stamp: 
    secs: 21727
    nsecs: 918000000
  frame_id: "map"
pose: 
  position: 
    x: 5.76530057444
    y: -1.95184853212
    z: 0.0399961019534
  orientation: 
    x: 2.04843302396e-05
    y: 3.1241342362e-07
    z: 0.999880330909
    w: -0.0154700821216
---
header: 
  seq: 16063
  stamp: 
    secs: 21727
    nsecs: 928000000
  frame_id: "map"
pose: 
  position: 
    x: 5.76529656036
    y: -1.95184865518
    z: 0.0399940583587
  orientation: 
    x: -2.97008443065e-05
    y: -4.57347290957e-07
    z: 0.999880330696
    w: -0.0154700809891
---
header: 
  seq: 16064
  stamp: 
    secs: 21727
    nsecs: 938000000
  frame_id: "map"
pose: 
  position: 
    x: 5.76529893567
    y: -1.95184858159
    z: 0.0399999991374
  orientation: 
    x: 7.34032195234e-12
    y: 1.0700832055e-11
    z: 0.999880331155
    w: -0.0154700798424
---
header: 
  seq: 16065
  stamp: 
    secs: 21727
    nsecs: 948000000
  frame_id: "map"
pose: 
  position: 
    x: 5.76530057384
    y: -1.95184853109
    z: 0.0399961019534
  orientation: 
    x: 2.04843302405e-05
    y: 3.12413360059e-07
    z: 0.999880330957
    w: -0.0154700790176
---
header: 
  seq: 16066
  stamp: 
    secs: 21727
    nsecs: 958000000
  frame_id: "map"
pose: 
  position: 
    x: 5.76529655977
    y: -1.95184865415
    z: 0.0399940583587
  orientation: 
    x: -2.9700844308e-05
    y: -4.57347198773e-07
    z: 0.999880330744
    w: -0.0154700778851
---
header: 
  seq: 16067
  stamp: 
    secs: 21727
    nsecs: 968000000
  frame_id: "map"
pose: 
  position: 
    x: 5.76529893508
    y: -1.95184858055
    z: 0.0399999991374
  orientation: 
    x: 7.34034120371e-12
    y: 1.07008218958e-11
    z: 0.999880331203
    w: -0.0154700767383
---
header: 
  seq: 16068
  stamp: 
    secs: 21727
    nsecs: 978000000
  frame_id: "map"
pose: 
  position: 
    x: 5.76530057325
    y: -1.95184853005
    z: 0.0399961019534
  orientation: 
    x: 2.04843302415e-05
    y: 3.12413296487e-07
    z: 0.999880331005
    w: -0.0154700759136
---
header: 
  seq: 16069
  stamp: 
    secs: 21727
    nsecs: 988000000
  frame_id: "map"
pose: 
  position: 
    x: 5.76529655918
    y: -1.95184865311
    z: 0.0399940583587
  orientation: 
    x: -2.97008443094e-05
    y: -4.57347106587e-07
    z: 0.999880330792
    w: -0.0154700747811
---
header: 
  seq: 16070
  stamp: 
    secs: 21727
    nsecs: 998000000
  frame_id: "map"
pose: 
  position: 
    x: 5.76529893449
    y: -1.95184857952
    z: 0.0399999991374
  orientation: 
    x: 7.34033443422e-12
    y: 1.07008136311e-11
    z: 0.999880331251
    w: -0.0154700736343
---
header: 
  seq: 16071
  stamp: 
    secs: 21728
    nsecs:   8000000
  frame_id: "map"
pose: 
  position: 
    x: 5.76530057266
    y: -1.95184852902
    z: 0.0399961019534
  orientation: 
    x: 2.04843302425e-05
    y: 3.12413232927e-07
    z: 0.999880331053
    w: -0.0154700728095
---
header: 
  seq: 16072
  stamp: 
    secs: 21728
    nsecs:  18000000
  frame_id: "map"
pose: 
  position: 
    x: 5.76529655859
    y: -1.95184865208
    z: 0.0399940583587
  orientation: 
    x: -2.97008443109e-05
    y: -4.57347014402e-07
    z: 0.99988033084
    w: -0.015470071677
---
header: 
  seq: 16073
  stamp: 
    secs: 21728
    nsecs:  28000000
  frame_id: "map"
pose: 
  position: 
    x: 5.7652989339
    y: -1.95184857849
    z: 0.0399999991374
  orientation: 
    x: 7.34032617734e-12
    y: 1.07008243594e-11
    z: 0.999880331299
    w: -0.0154700705303
---
header: 
  seq: 16074
  stamp: 
    secs: 21728
    nsecs:  38000000
  frame_id: "map"
pose: 
  position: 
    x: 5.76530057207
    y: -1.95184852799
    z: 0.0399961019534
  orientation: 
    x: 2.04843302435e-05
    y: 3.12413169362e-07
    z: 0.999880331101
    w: -0.0154700697055
---
header: 
  seq: 16075
  stamp: 
    secs: 21728
    nsecs:  48000000
  frame_id: "map"
pose: 
  position: 
    x: 5.765296558
    y: -1.95184865105
    z: 0.0399940583587
  orientation: 
    x: -2.97008443123e-05
    y: -4.57346922207e-07
    z: 0.999880330888
    w: -0.015470068573
---
header: 
  seq: 16076
  stamp: 
    secs: 21728
    nsecs:  58000000
  frame_id: "map"
pose: 
  position: 
    x: 5.76529893331
    y: -1.95184857745
    z: 0.0399999991374
  orientation: 
    x: 7.34032259948e-12
    y: 1.07008183799e-11
    z: 0.999880331347
    w: -0.0154700674263
---
header: 
  seq: 16077
  stamp: 
    secs: 21728
    nsecs:  68000000
  frame_id: "map"
pose: 
  position: 
    x: 5.76530057148
    y: -1.95184852695
    z: 0.0399961019534
  orientation: 
    x: 2.04843302444e-05
    y: 3.12413105794e-07
    z: 0.99988033115
    w: -0.0154700666015
---
header: 
  seq: 16078
  stamp: 
    secs: 21728
    nsecs:  78000000
  frame_id: "map"
pose: 
  position: 
    x: 5.76529655741
    y: -1.95184865001
    z: 0.0399940583587
  orientation: 
    x: -2.97008443138e-05
    y: -4.57346830008e-07
    z: 0.999880330936
    w: -0.015470065469
---
header: 
  seq: 16079
  stamp: 
    secs: 21728
    nsecs:  88000000
  frame_id: "map"
pose: 
  position: 
    x: 5.76529893272
    y: -1.95184857642
    z: 0.0399999991374
  orientation: 
    x: 7.34032961291e-12
    y: 1.07008156962e-11
    z: 0.999880331395
    w: -0.0154700643222
---
header: 
  seq: 16080
  stamp: 
    secs: 21728
    nsecs:  98000000
  frame_id: "map"
pose: 
  position: 
    x: 5.76530057089
    y: -1.95184852592
    z: 0.0399961019534
  orientation: 
    x: 2.04843302454e-05
    y: 3.12413042221e-07
    z: 0.999880331198
    w: -0.0154700634975
---
header: 
  seq: 16081
  stamp: 
    secs: 21728
    nsecs: 108000000
  frame_id: "map"
pose: 
  position: 
    x: 5.76529655682
    y: -1.95184864898
    z: 0.0399940583587
  orientation: 
    x: -2.97008443153e-05
    y: -4.57346737816e-07
    z: 0.999880330984
    w: -0.015470062365
---
header: 
  seq: 16082
  stamp: 
    secs: 21728
    nsecs: 118000000
  frame_id: "map"
pose: 
  position: 
    x: 5.76529893213
    y: -1.95184857538
    z: 0.0399999991374
  orientation: 
    x: 7.3403237921e-12
    y: 1.07008173717e-11
    z: 0.999880331443
    w: -0.0154700612182
---
header: 
  seq: 16083
  stamp: 
    secs: 21728
    nsecs: 128000000
  frame_id: "map"
pose: 
  position: 
    x: 5.7653005703
    y: -1.95184852488
    z: 0.0399961019534
  orientation: 
    x: 2.04843302463e-05
    y: 3.12412978659e-07
    z: 0.999880331246
    w: -0.0154700603934
---
header: 
  seq: 16084
  stamp: 
    secs: 21728
    nsecs: 138000000
  frame_id: "map"
pose: 
  position: 
    x: 5.76529655622
    y: -1.95184864794
    z: 0.0399940583587
  orientation: 
    x: -2.97008443167e-05
    y: -4.57346645621e-07
    z: 0.999880331032
    w: -0.015470059261
---
header: 
  seq: 16085
  stamp: 
    secs: 21728
    nsecs: 148000000
  frame_id: "map"
pose: 
  position: 
    x: 5.76529893153
    y: -1.95184857435
    z: 0.0399999991374
  orientation: 
    x: 7.34034126808e-12
    y: 1.07008091581e-11
    z: 0.999880331491
    w: -0.0154700581142
---
header: 
  seq: 16086
  stamp: 
    secs: 21728
    nsecs: 158000000
  frame_id: "map"
pose: 
  position: 
    x: 5.76530056971
    y: -1.95184852385
    z: 0.0399961019534
  orientation: 
    x: 2.04843302473e-05
    y: 3.12412915092e-07
    z: 0.999880331294
    w: -0.0154700572894
---
header: 
  seq: 16087
  stamp: 
    secs: 21728
    nsecs: 168000000
  frame_id: "map"
pose: 
  position: 
    x: 5.76529655563
    y: -1.95184864691
    z: 0.0399940583587
  orientation: 
    x: -2.97008443183e-05
    y: -4.57346553444e-07
    z: 0.99988033108
    w: -0.0154700561569
---
header: 
  seq: 16088
  stamp: 
    secs: 21728
    nsecs: 178000000
  frame_id: "map"
pose: 
  position: 
    x: 5.76529893094
    y: -1.95184857332
    z: 0.0399999991374
  orientation: 
    x: 7.34033875748e-12
    y: 1.07008165697e-11
    z: 0.999880331539
    w: -0.0154700550102
---
header: 
  seq: 16089
  stamp: 
    secs: 21728
    nsecs: 188000000
  frame_id: "map"
pose: 
  position: 
    x: 5.76530056912
    y: -1.95184852282
    z: 0.0399961019534
  orientation: 
    x: 2.04843302483e-05
    y: 3.12412851526e-07
    z: 0.999880331342
    w: -0.0154700541854
---
header: 
  seq: 16090
  stamp: 
    secs: 21728
    nsecs: 198000000
  frame_id: "map"
pose: 
  position: 
    x: 5.76529655504
    y: -1.95184864588
    z: 0.0399940583587
  orientation: 
    x: -2.97008443196e-05
    y: -4.57346461257e-07
    z: 0.999880331128
    w: -0.0154700530529
---
header: 
  seq: 16091
  stamp: 
    secs: 21728
    nsecs: 208000000
  frame_id: "map"
pose: 
  position: 
    x: 5.76529893035
    y: -1.95184857228
    z: 0.0399999991374
  orientation: 
    x: 7.34033775798e-12
    y: 1.07008165157e-11
    z: 0.999880331587
    w: -0.0154700519061
---
header: 
  seq: 16092
  stamp: 
    secs: 21728
    nsecs: 218000000
  frame_id: "map"
pose: 
  position: 
    x: 5.76530056853
    y: -1.95184852178
    z: 0.0399961019534
  orientation: 
    x: 2.04843302492e-05
    y: 3.12412787944e-07
    z: 0.99988033139
    w: -0.0154700510814
---
header: 
  seq: 16093
  stamp: 
    secs: 21728
    nsecs: 228000000
  frame_id: "map"
pose: 
  position: 
    x: 5.76529655445
    y: -1.95184864484
    z: 0.0399940583587
  orientation: 
    x: -2.97008443211e-05
    y: -4.57346369059e-07
    z: 0.999880331176
    w: -0.0154700499489
---
header: 
  seq: 16094
  stamp: 
    secs: 21728
    nsecs: 238000000
  frame_id: "map"
pose: 
  position: 
    x: 5.76529892976
    y: -1.95184857125
    z: 0.0399999991374
  orientation: 
    x: 7.34034737011e-12
    y: 1.07008154252e-11
    z: 0.999880331635
    w: -0.0154700488021
---
header: 
  seq: 16095
  stamp: 
    secs: 21728
    nsecs: 248000000
  frame_id: "map"
pose: 
  position: 
    x: 5.76530056794
    y: -1.95184852075
    z: 0.0399961019534
  orientation: 
    x: 2.04843302502e-05
    y: 3.12412724395e-07
    z: 0.999880331438
    w: -0.0154700479773
---
header: 
  seq: 16096
  stamp: 
    secs: 21728
    nsecs: 258000000
  frame_id: "map"
pose: 
  position: 
    x: 5.76529655386
    y: -1.95184864381
    z: 0.0399940583587
  orientation: 
    x: -2.97008443226e-05
    y: -4.5734627686e-07
    z: 0.999880331224
    w: -0.0154700468449
---
header: 
  seq: 16097
  stamp: 
    secs: 21728
    nsecs: 268000000
  frame_id: "map"
pose: 
  position: 
    x: 5.76529892917
    y: -1.95184857021
    z: 0.0399999991374
  orientation: 
    x: 7.34032806115e-12
    y: 1.07008297884e-11
    z: 0.999880331683
    w: -0.0154700456981
---
header: 
  seq: 16098
  stamp: 
    secs: 21728
    nsecs: 278000000
  frame_id: "map"
pose: 
  position: 
    x: 5.76530056735
    y: -1.95184851971
    z: 0.0399961019534
  orientation: 
    x: 2.04843302512e-05
    y: 3.12412660825e-07
    z: 0.999880331486
    w: -0.0154700448733
---
header: 
  seq: 16099
  stamp: 
    secs: 21728
    nsecs: 288000000
  frame_id: "map"
pose: 
  position: 
    x: 5.76529655327
    y: -1.95184864277
    z: 0.0399940583587
  orientation: 
    x: -2.97008443241e-05
    y: -4.57346184668e-07
    z: 0.999880331272
    w: -0.0154700437408
---
header: 
  seq: 16100
  stamp: 
    secs: 21728
    nsecs: 298000000
  frame_id: "map"
pose: 
  position: 
    x: 5.76529892858
    y: -1.95184856918
    z: 0.0399999991374
  orientation: 
    x: 7.3403497994e-12
    y: 1.07008083334e-11
    z: 0.999880331731
    w: -0.0154700425941
---
header: 
  seq: 16101
  stamp: 
    secs: 21728
    nsecs: 308000000
  frame_id: "map"
pose: 
  position: 
    x: 5.76530056675
    y: -1.95184851868
    z: 0.0399961019534
  orientation: 
    x: 2.04843302521e-05
    y: 3.12412597256e-07
    z: 0.999880331534
    w: -0.0154700417693
---
header: 
  seq: 16102
  stamp: 
    secs: 21728
    nsecs: 318000000
  frame_id: "map"
pose: 
  position: 
    x: 5.76529655268
    y: -1.95184864174
    z: 0.0399940583587
  orientation: 
    x: -2.97008443254e-05
    y: -4.57346092478e-07
    z: 0.99988033132
    w: -0.0154700406368
---
header: 
  seq: 16103
  stamp: 
    secs: 21728
    nsecs: 328000000
  frame_id: "map"
pose: 
  position: 
    x: 5.76529892799
    y: -1.95184856815
    z: 0.0399999991374
  orientation: 
    x: 7.34032794595e-12
    y: 1.07008297123e-11
    z: 0.999880331779
    w: -0.01547003949
---
header: 
  seq: 16104
  stamp: 
    secs: 21728
    nsecs: 338000000
  frame_id: "map"
pose: 
  position: 
    x: 5.76530056616
    y: -1.95184851765
    z: 0.0399961019534
  orientation: 
    x: 2.04843302531e-05
    y: 3.12412533685e-07
    z: 0.999880331582
    w: -0.0154700386653
---
header: 
  seq: 16105
  stamp: 
    secs: 21728
    nsecs: 348000000
  frame_id: "map"
pose: 
  position: 
    x: 5.76529655209
    y: -1.95184864071
    z: 0.0399940583587
  orientation: 
    x: -2.97008443269e-05
    y: -4.57346000291e-07
    z: 0.999880331368
    w: -0.0154700375328
---
header: 
  seq: 16106
  stamp: 
    secs: 21728
    nsecs: 358000000
  frame_id: "map"
pose: 
  position: 
    x: 5.7652989274
    y: -1.95184856711
    z: 0.0399999991374
  orientation: 
    x: 7.34033120194e-12
    y: 1.07008245436e-11
    z: 0.999880331827
    w: -0.015470036386
---
header: 
  seq: 16107
  stamp: 
    secs: 21728
    nsecs: 368000000
  frame_id: "map"
pose: 
  position: 
    x: 5.76530056557
    y: -1.95184851661
    z: 0.0399961019534
  orientation: 
    x: 2.0484330254e-05
    y: 3.12412470127e-07
    z: 0.99988033163
    w: -0.0154700355612
---
header: 
  seq: 16108
  stamp: 
    secs: 21728
    nsecs: 378000000
  frame_id: "map"
pose: 
  position: 
    x: 5.7652965515
    y: -1.95184863967
    z: 0.0399940583587
  orientation: 
    x: -2.97008443284e-05
    y: -4.57345908099e-07
    z: 0.999880331416
    w: -0.0154700344288
---
header: 
  seq: 16109
  stamp: 
    secs: 21728
    nsecs: 388000000
  frame_id: "map"
pose: 
  position: 
    x: 5.76529892681
    y: -1.95184856608
    z: 0.0399999991374
  orientation: 
    x: 7.3403369245e-12
    y: 1.07008130595e-11
    z: 0.999880331875
    w: -0.015470033282
---
header: 
  seq: 16110
  stamp: 
    secs: 21728
    nsecs: 398000000
  frame_id: "map"
pose: 
  position: 
    x: 5.76530056498
    y: -1.95184851558
    z: 0.0399961019534
  orientation: 
    x: 2.0484330255e-05
    y: 3.12412406557e-07
    z: 0.999880331678
    w: -0.0154700324572
---
header: 
  seq: 16111
  stamp: 
    secs: 21728
    nsecs: 408000000
  frame_id: "map"
pose: 
  position: 
    x: 5.76529655091
    y: -1.95184863864
    z: 0.0399940583587
  orientation: 
    x: -2.97008443299e-05
    y: -4.573458159e-07
    z: 0.999880331464
    w: -0.0154700313247
---
header: 
  seq: 16112
  stamp: 
    secs: 21728
    nsecs: 418000000
  frame_id: "map"
pose: 
  position: 
    x: 5.76529892622
    y: -1.95184856504
    z: 0.0399999991374
  orientation: 
    x: 7.34033470527e-12
    y: 1.07008188462e-11
    z: 0.999880331923
    w: -0.015470030178
---
header: 
  seq: 16113
  stamp: 
    secs: 21728
    nsecs: 428000000
  frame_id: "map"
pose: 
  position: 
    x: 5.76530056439
    y: -1.95184851454
    z: 0.0399961019534
  orientation: 
    x: 2.04843302559e-05
    y: 3.12412343001e-07
    z: 0.999880331726
    w: -0.0154700293532
---
header: 
  seq: 16114
  stamp: 
    secs: 21728
    nsecs: 438000000
  frame_id: "map"
pose: 
  position: 
    x: 5.76529655032
    y: -1.9518486376
    z: 0.0399940583587
  orientation: 
    x: -2.97008443313e-05
    y: -4.57345723726e-07
    z: 0.999880331512
    w: -0.0154700282207
---
header: 
  seq: 16115
  stamp: 
    secs: 21728
    nsecs: 448000000
  frame_id: "map"
pose: 
  position: 
    x: 5.76529892563
    y: -1.95184856401
    z: 0.0399999991374
  orientation: 
    x: 7.34033240134e-12
    y: 1.07008201182e-11
    z: 0.999880331971
    w: -0.015470027074
---
header: 
  seq: 16116
  stamp: 
    secs: 21728
    nsecs: 458000000
  frame_id: "map"
pose: 
  position: 
    x: 5.7653005638
    y: -1.95184851351
    z: 0.0399961019534
  orientation: 
    x: 2.0484330257e-05
    y: 3.12412279437e-07
    z: 0.999880331774
    w: -0.0154700262492
---
header: 
  seq: 16117
  stamp: 
    secs: 21728
    nsecs: 468000000
  frame_id: "map"
pose: 
  position: 
    x: 5.76529654973
    y: -1.95184863657
    z: 0.0399940583587
  orientation: 
    x: -2.97008443328e-05
    y: -4.57345631528e-07
    z: 0.99988033156
    w: -0.0154700251167
---
header: 
  seq: 16118
  stamp: 
    secs: 21728
    nsecs: 478000000
  frame_id: "map"
pose: 
  position: 
    x: 5.76529892504
    y: -1.95184856298
    z: 0.0399999991374
  orientation: 
    x: 7.34033567767e-12
    y: 1.07008191289e-11
    z: 0.999880332019
    w: -0.0154700239699
---
header: 
  seq: 16119
  stamp: 
    secs: 21728
    nsecs: 488000000
  frame_id: "map"
pose: 
  position: 
    x: 5.76530056321
    y: -1.95184851248
    z: 0.0399961019534
  orientation: 
    x: 2.04843302579e-05
    y: 3.12412215859e-07
    z: 0.999880331822
    w: -0.0154700231451
---
header: 
  seq: 16120
  stamp: 
    secs: 21728
    nsecs: 498000000
  frame_id: "map"
pose: 
  position: 
    x: 5.76529654913
    y: -1.95184863554
    z: 0.0399940583587
  orientation: 
    x: -2.97008443342e-05
    y: -4.57345539335e-07
    z: 0.999880331608
    w: -0.0154700220127
---
header: 
  seq: 16121
  stamp: 
    secs: 21728
    nsecs: 508000000
  frame_id: "map"
pose: 
  position: 
    x: 5.76529892444
    y: -1.95184856194
    z: 0.0399999991374
  orientation: 
    x: 7.34033576576e-12
    y: 1.0700811223e-11
    z: 0.999880332067
    w: -0.0154700208659
---
header: 
  seq: 16122
  stamp: 
    secs: 21728
    nsecs: 518000000
  frame_id: "map"
pose: 
  position: 
    x: 5.76530056262
    y: -1.95184851144
    z: 0.0399961019534
  orientation: 
    x: 2.04843302588e-05
    y: 3.12412152303e-07
    z: 0.99988033187
    w: -0.0154700200411
---
header: 
  seq: 16123
  stamp: 
    secs: 21728
    nsecs: 528000000
  frame_id: "map"
pose: 
  position: 
    x: 5.76529654854
    y: -1.9518486345
    z: 0.0399940583587
  orientation: 
    x: -2.97008443356e-05
    y: -4.57345447144e-07
    z: 0.999880331656
    w: -0.0154700189086
---
header: 
  seq: 16124
  stamp: 
    secs: 21728
    nsecs: 538000000
  frame_id: "map"
pose: 
  position: 
    x: 5.76529892385
    y: -1.95184856091
    z: 0.0399999991374
  orientation: 
    x: 7.34033791044e-12
    y: 1.07008123209e-11
    z: 0.999880332115
    w: -0.0154700177619
---
header: 
  seq: 16125
  stamp: 
    secs: 21728
    nsecs: 548000000
  frame_id: "map"
pose: 
  position: 
    x: 5.76530056203
    y: -1.95184851041
    z: 0.0399961019534
  orientation: 
    x: 2.04843302598e-05
    y: 3.12412088731e-07
    z: 0.999880331918
    w: -0.0154700169371
---
header: 
  seq: 16126
  stamp: 
    secs: 21728
    nsecs: 558000000
  frame_id: "map"
pose: 
  position: 
    x: 5.76529654795
    y: -1.95184863347
    z: 0.0399940583587
  orientation: 
    x: -2.97008443371e-05
    y: -4.57345354964e-07
    z: 0.999880331704
    w: -0.0154700158046
---
header: 
  seq: 16127
  stamp: 
    secs: 21728
    nsecs: 568000000
  frame_id: "map"
pose: 
  position: 
    x: 5.76529892326
    y: -1.95184855987
    z: 0.0399999991374
  orientation: 
    x: 7.34033884557e-12
    y: 1.07008199353e-11
    z: 0.999880332163
    w: -0.0154700146579
---
header: 
  seq: 16128
  stamp: 
    secs: 21728
    nsecs: 578000000
  frame_id: "map"
pose: 
  position: 
    x: 5.76530056144
    y: -1.95184850937
    z: 0.0399961019534
  orientation: 
    x: 2.04843302608e-05
    y: 3.12412025151e-07
    z: 0.999880331966
    w: -0.0154700138331
---
header: 
  seq: 16129
  stamp: 
    secs: 21728
    nsecs: 588000000
  frame_id: "map"
pose: 
  position: 
    x: 5.76529654736
    y: -1.95184863243
    z: 0.0399940583587
  orientation: 
    x: -2.97008443385e-05
    y: -4.57345262759e-07
    z: 0.999880331752
    w: -0.0154700127006
---
header: 
  seq: 16130
  stamp: 
    secs: 21728
    nsecs: 598000000
  frame_id: "map"
pose: 
  position: 
    x: 5.76529892267
    y: -1.95184855884
    z: 0.0399999991374
  orientation: 
    x: 7.34032758003e-12
    y: 1.07008166033e-11
    z: 0.999880332211
    w: -0.0154700115538
---
header: 
  seq: 16131
  stamp: 
    secs: 21728
    nsecs: 608000000
  frame_id: "map"
pose: 
  position: 
    x: 5.76530056085
    y: -1.95184850834
    z: 0.0399961019534
  orientation: 
    x: 2.04843302617e-05
    y: 3.12411961586e-07
    z: 0.999880332014
    w: -0.0154700107291
---
header: 
  seq: 16132
  stamp: 
    secs: 21728
    nsecs: 618000000
  frame_id: "map"
pose: 
  position: 
    x: 5.76529654677
    y: -1.9518486314
    z: 0.0399940583587
  orientation: 
    x: -2.97008443401e-05
    y: -4.57345170572e-07
    z: 0.9998803318
    w: -0.0154700095966
---
header: 
  seq: 16133
  stamp: 
    secs: 21728
    nsecs: 628000000
  frame_id: "map"
pose: 
  position: 
    x: 5.76529892208
    y: -1.9518485578
    z: 0.0399999991374
  orientation: 
    x: 7.34032918601e-12
    y: 1.07008153406e-11
    z: 0.999880332259
    w: -0.0154700084498
---
header: 
  seq: 16134
  stamp: 
    secs: 21728
    nsecs: 638000000
  frame_id: "map"
pose: 
  position: 
    x: 5.76530056026
    y: -1.95184850731
    z: 0.0399961019534
  orientation: 
    x: 2.04843302627e-05
    y: 3.12411898021e-07
    z: 0.999880332062
    w: -0.015470007625
---
header: 
  seq: 16135
  stamp: 
    secs: 21728
    nsecs: 648000000
  frame_id: "map"
pose: 
  position: 
    x: 5.76529654618
    y: -1.95184863036
    z: 0.0399940583587
  orientation: 
    x: -2.97008443414e-05
    y: -4.57345078379e-07
    z: 0.999880331848
    w: -0.0154700064926
---
header: 
  seq: 16136
  stamp: 
    secs: 21728
    nsecs: 658000000
  frame_id: "map"
pose: 
  position: 
    x: 5.76529892149
    y: -1.95184855677
    z: 0.0399999991374
  orientation: 
    x: 7.34033962823e-12
    y: 1.07008106514e-11
    z: 0.999880332307
    w: -0.0154700053458
---
header: 
  seq: 16137
  stamp: 
    secs: 21728
    nsecs: 668000000
  frame_id: "map"
pose: 
  position: 
    x: 5.76530055966
    y: -1.95184850627
    z: 0.0399961019534
  orientation: 
    x: 2.04843302637e-05
    y: 3.1241183446e-07
    z: 0.99988033211
    w: -0.015470004521
---
header: 
  seq: 16138
  stamp: 
    secs: 21728
    nsecs: 678000000
  frame_id: "map"
pose: 
  position: 
    x: 5.76529654559
    y: -1.95184862933
    z: 0.0399940583587
  orientation: 
    x: -2.97008443429e-05
    y: -4.57344986182e-07
    z: 0.999880331896
    w: -0.0154700033885
---
header: 
  seq: 16139
  stamp: 
    secs: 21728
    nsecs: 688000000
  frame_id: "map"
pose: 
  position: 
    x: 5.7652989209
    y: -1.95184855574
    z: 0.0399999991374
  orientation: 
    x: 7.34032982297e-12
    y: 1.07008154533e-11
    z: 0.999880332355
    w: -0.0154700022418
---
header: 
  seq: 16140
  stamp: 
    secs: 21728
    nsecs: 698000000
  frame_id: "map"
pose: 
  position: 
    x: 5.76530055907
    y: -1.95184850524
    z: 0.0399961019534
  orientation: 
    x: 2.04843302647e-05
    y: 3.12411770896e-07
    z: 0.999880332158
    w: -0.015470001417
---
header: 
  seq: 16141
  stamp: 
    secs: 21728
    nsecs: 708000000
  frame_id: "map"
pose: 
  position: 
    x: 5.765296545
    y: -1.9518486283
    z: 0.0399940583587
  orientation: 
    x: -2.97008443444e-05
    y: -4.57344894007e-07
    z: 0.999880331944
    w: -0.0154700002845
---
header: 
  seq: 16142
  stamp: 
    secs: 21728
    nsecs: 718000000
  frame_id: "map"
pose: 
  position: 
    x: 5.76529892031
    y: -1.9518485547
    z: 0.0399999991374
