header: 
  seq: 28
  stamp: 
    secs: 696
    nsecs: 348000000
  frame_id: "world"
pose: 
  position: 
    x: 0.000111722125439
    y: -0.000114788126666
    z: -8.18487606011e-05
  orientation: 
    x: -9.80192775408e-05
    y: -3.84275370067e-05
    z: -2.58055250403e-06
    w: 0.999999994454
---
header: 
  seq: 29
  stamp: 
    secs: 696
    nsecs: 677000000
  frame_id: "world"
pose: 
  position: 
    x: -5.24416236658e-07
    y: 1.41449947932e-06
    z: 5.27134659478e-07
  orientation: 
    x: 7.95378582552e-07
    y: 1.51292525174e-07
    z: 8.97919036902e-08
    w: 1.0
---
header: 
  seq: 30
  stamp: 
    secs: 697
    nsecs:  20000000
  frame_id: "world"
pose: 
  position: 
    x: 0.000112097899546
    y: -0.000114450893307
    z: -8.18741609692e-05
  orientation: 
    x: -9.79252721694e-05
    y: -3.85556738957e-05
    z: -2.64776211576e-06
    w: 0.999999994459
---
header: 
  seq: 31
  stamp: 
    secs: 697
    nsecs: 459000000
  frame_id: "world"
pose: 
  position: 
    x: 4.19265998062e-05
    y: -8.93996548257e-05
    z: -3.4910885006e-05
  orientation: 
    x: -6.32678855735e-05
    y: -1.50493887895e-05
    z: -7.93977674815e-07
    w: 0.999999997885
---
header: 
  seq: 32
  stamp: 
    secs: 697
    nsecs: 836000000
  frame_id: "world"
pose: 
  position: 
    x: 0.000112842426461
    y: -0.000114835522254
    z: -8.17409309093e-05
  orientation: 
    x: -9.8060743221e-05
    y: -3.88365767888e-05
    z: -2.83843972523e-06
    w: 0.999999994434
---
header: 
  seq: 33
  stamp: 
    secs: 698
    nsecs:  76000000
  frame_id: "world"
pose: 
  position: 
    x: 0.000112218709546
    y: -0.000115628427011
    z: -8.1841753854e-05
  orientation: 
    x: -9.845621334e-05
    y: -3.86522476784e-05
    z: -2.58109115213e-06
    w: 0.999999994403
---
header: 
  seq: 34
  stamp: 
    secs: 698
    nsecs: 484000000
  frame_id: "world"
pose: 
  position: 
    x: 0.000112218709546
    y: -0.000115628427011
    z: -8.1841753854e-05
  orientation: 
    x: -9.845621334e-05
    y: -3.86522476784e-05
    z: -2.58109115213e-06
    w: 0.999999994403
---
header: 
  seq: 35
  stamp: 
    secs: 698
    nsecs: 718000000
  frame_id: "world"
pose: 
  position: 
    x: 0.000112218709546
    y: -0.000115628427011
    z: -8.1841753854e-05
  orientation: 
    x: -9.845621334e-05
    y: -3.86522476784e-05
    z: -2.58109115213e-06
    w: 0.999999994403
---
header: 
  seq: 36
  stamp: 
    secs: 698
    nsecs: 908000000
  frame_id: "world"
pose: 
  position: 
    x: 4.19148600486e-05
    y: -8.93938922673e-05
    z: -3.49272886524e-05
  orientation: 
    x: -6.32691224863e-05
    y: -1.50364794218e-05
    z: -7.85161260568e-07
    w: 0.999999997885
---
header: 
  seq: 37
  stamp: 
    secs: 699
    nsecs: 158000000
  frame_id: "world"
pose: 
  position: 
    x: -5.3534458857e-06
    y: -1.22450228446e-05
    z: -9.17742727324e-06
  orientation: 
    x: -7.93894741917e-06
    y: 2.45407636603e-06
    z: 2.2994686332e-06
    w: 0.999999999963
---
header: 
  seq: 38
  stamp: 
    secs: 699
    nsecs: 416000000
  frame_id: "world"
pose: 
  position: 
    x: -5.34028231414e-06
    y: -1.20266740851e-05
    z: -9.12201358005e-06
  orientation: 
    x: -7.82089409739e-06
    y: 2.46017020791e-06
    z: 2.27315149451e-06
    w: 0.999999999964
---
header: 
  seq: 39
  stamp: 
    secs: 699
    nsecs: 713000000
  frame_id: "world"
pose: 
  position: 
    x: 2.42369793568e-07
    y: -9.92811592937e-08
    z: 1.75557186566e-08
  orientation: 
    x: 4.01461903721e-08
    y: -9.17369078479e-08
    z: -7.15290298103e-08
    w: 1.0
---
header: 
  seq: 40
  stamp: 
    secs: 700
    nsecs:  85000000
  frame_id: "world"
pose: 
  position: 
    x: 2.42369793568e-07
    y: -9.92811592937e-08
    z: 1.75557186566e-08
  orientation: 
    x: 4.01461903721e-08
    y: -9.17369078479e-08
    z: -7.15290298103e-08
    w: 1.0
---
header: 
  seq: 41
  stamp: 
    secs: 700
    nsecs: 434000000
  frame_id: "world"
pose: 
  position: 
    x: 0.000110900829895
    y: -0.000115137198009
    z: -8.21357098175e-05
  orientation: 
    x: -9.96094016747e-05
    y: -3.7753623259e-05
    z: -5.09528851411e-06
    w: 0.999999994313
---
header: 
  seq: 42
  stamp: 
    secs: 700
    nsecs: 685000000
  frame_id: "world"
pose: 
  position: 
    x: 2.52791210187e-07
    y: -6.47994568226e-07
    z: -3.99771984405e-08
  orientation: 
    x: -2.12439971392e-07
    y: -9.69159259512e-08
    z: -5.5443244662e-08
    w: 1.0
---
header: 
  seq: 43
  stamp: 
    secs: 700
    nsecs: 940000000
  frame_id: "world"
pose: 
  position: 
    x: -4.12153076468e-06
    y: -1.24602411233e-05
    z: -9.49823061092e-06
  orientation: 
    x: -8.04644878342e-06
    y: 2.0677362044e-06
    z: 2.16260104927e-06
    w: 0.999999999963
---
header: 
  seq: 44
  stamp: 
    secs: 701
    nsecs: 314000000
  frame_id: "world"
pose: 
  position: 
    x: 4.16630755353e-05
    y: -8.93901305972e-05
    z: -3.49797810486e-05
  orientation: 
    x: -6.33246962503e-05
    y: -1.49190227287e-05
    z: -7.11151925175e-07
    w: 0.999999997883
---
header: 
  seq: 45
  stamp: 
    secs: 701
    nsecs: 758000000
  frame_id: "world"
pose: 
  position: 
    x: 5.04244599142e-05
    y: -0.000100031473266
    z: -4.57028545497e-05
  orientation: 
    x: -6.89688384311e-05
    y: -1.6411016945e-05
    z: -2.22445100357e-06
    w: 0.999999997485
---
header: 
  seq: 46
  stamp: 
    secs: 702
    nsecs: 103000000
  frame_id: "world"
pose: 
  position: 
    x: 5.03094379383e-05
    y: -0.000100227509392
    z: -4.56709094578e-05
  orientation: 
    x: -6.90296799883e-05
    y: -1.6381320124e-05
    z: -2.19693219507e-06
    w: 0.999999997481
---
header: 
  seq: 47
  stamp: 
    secs: 702
    nsecs: 458000000
  frame_id: "world"
pose: 
  position: 
    x: -5.26696157976e-06
    y: -1.18935249702e-05
    z: -9.09791651793e-06
  orientation: 
    x: -7.73112333236e-06
    y: 2.43783529177e-06
    z: 2.23039955919e-06
    w: 0.999999999965
---
header: 
  seq: 48
  stamp: 
    secs: 702
    nsecs: 748000000
  frame_id: "world"
pose: 
  position: 
    x: 5.00382520841e-05
    y: -0.000100365745311
    z: -4.581576286e-05
  orientation: 
    x: -6.9151996111e-05
    y: -1.62514752036e-05
    z: -2.13630550576e-06
    w: 0.999999997475
---
header: 
  seq: 49
  stamp: 
    secs: 702
    nsecs: 975000000
  frame_id: "world"
pose: 
  position: 
    x: 5.00382520841e-05
    y: -0.000100365752587
    z: -4.5815766498e-05
  orientation: 
    x: -6.9151996111e-05
    y: -1.62514752036e-05
    z: -2.13630550576e-06
    w: 0.999999997475
---
header: 
  seq: 50
  stamp: 
    secs: 703
    nsecs: 346000000
  frame_id: "world"
pose: 
  position: 
    x: -4.88439036417e-06
    y: -1.24532643895e-05
    z: -9.50217781792e-06
  orientation: 
    x: -8.02216527488e-06
    y: 2.36176560966e-06
    z: 2.16970465764e-06
    w: 0.999999999963
---
header: 
  seq: 51
  stamp: 
    secs: 703
    nsecs: 676000000
  frame_id: "world"
pose: 
  position: 
    x: -4.9248283176e-06
    y: -1.24390471683e-05
    z: -9.53189100983e-06
  orientation: 
    x: -8.0148492995e-06
    y: 2.38156849255e-06
    z: 2.17351657731e-06
    w: 0.999999999963
---
header: 
  seq: 52
  stamp: 
    secs: 704
    nsecs:  31000000
  frame_id: "world"
pose: 
  position: 
    x: 0.000164328928804
    y: -0.000121159355331
    z: -9.99579860945e-05
  orientation: 
    x: -0.000111565029359
    y: -5.70010629472e-05
    z: -8.19814152142e-06
    w: 0.999999992118
---
header: 
  seq: 53
  stamp: 
    secs: 704
    nsecs: 444000000
  frame_id: "world"
pose: 
  position: 
    x: -4.85451755594e-06
    y: -1.2302891264e-05
    z: -9.53256221692e-06
  orientation: 
    x: -7.97046686755e-06
    y: 2.3622394564e-06
    z: 2.17825549945e-06
    w: 0.999999999963
---
header: 
  seq: 54
  stamp: 
    secs: 704
    nsecs: 900000000
  frame_id: "world"
pose: 
  position: 
    x: 0.00068616727367
    y: -0.00410913489759
    z: 0.00146322208457
  orientation: 
    x: 0.00781581136917
    y: -0.000161426526211
    z: -0.00189824462129
    w: 0.999967641327
---
header: 
  seq: 55
  stamp: 
    secs: 705
    nsecs: 168000000
  frame_id: "world"
pose: 
  position: 
    x: 0.00284588872455
    y: -0.018210971728
    z: 0.000273812911473
  orientation: 
    x: 0.00298746715707
    y: -0.000531172077947
    z: -0.0060407322527
    w: 0.999977150964
---
header: 
  seq: 56
  stamp: 
    secs: 705
    nsecs: 474000000
  frame_id: "world"
pose: 
  position: 
    x: 0.0065907635726
    y: -0.0512464158237
    z: -0.0021992533002
  orientation: 
    x: 0.00140498332615
    y: -0.0013541178637
    z: -0.0141649803536
    w: 0.999897767633
---
header: 
  seq: 57
  stamp: 
    secs: 705
    nsecs: 759000000
  frame_id: "world"
pose: 
  position: 
    x: 0.000823650218081
    y: -0.120690025389
    z: -0.00384621787816
  orientation: 
    x: -0.0119579499868
    y: 0.000420027529875
    z: -0.0214821696786
    w: 0.999697627983
---
header: 
  seq: 58
  stamp: 
    secs: 706
    nsecs:  46000000
  frame_id: "world"
pose: 
  position: 
    x: 0.00225861882791
    y: -0.147417724133
    z: -0.00398800801486
  orientation: 
    x: -0.00704568053084
    y: -0.000242307937904
    z: -0.0304430401088
    w: 0.999511641244
---
header: 
  seq: 59
  stamp: 
    secs: 706
    nsecs: 509000000
  frame_id: "world"
pose: 
  position: 
    x: -0.00148049822063
    y: -0.177426938797
    z: -0.00339286646985
  orientation: 
    x: -0.0106832321483
    y: 0.000528791387042
    z: -0.0353803291125
    w: 0.999316677156
---
header: 
  seq: 60
  stamp: 
    secs: 706
    nsecs: 944000000
  frame_id: "world"
pose: 
  position: 
    x: -0.00312091797504
    y: -0.191318002574
    z: -0.00272172250696
  orientation: 
    x: -0.0140494178637
    y: 0.000821218275753
    z: -0.0363748007042
    w: 0.999239117195
---
header: 
  seq: 61
  stamp: 
    secs: 707
    nsecs: 391000000
  frame_id: "world"
pose: 
  position: 
    x: -0.0040090803059
    y: -0.194847677864
    z: -0.00256062492485
  orientation: 
    x: -0.014401859235
    y: 0.00104621521789
    z: -0.0370678362904
    w: 0.999208420399
---
header: 
  seq: 62
  stamp: 
    secs: 707
    nsecs: 883000000
  frame_id: "world"
pose: 
  position: 
    x: -0.00302806699028
    y: -0.195469902885
    z: -0.00270084791844
  orientation: 
    x: -0.0142982668135
    y: 0.000665253374037
    z: -0.0371576377785
    w: 0.999206898975
---
header: 
  seq: 63
  stamp: 
    secs: 708
    nsecs: 234000000
  frame_id: "world"
pose: 
  position: 
    x: -0.00298449600755
    y: -0.196233979895
    z: -0.00267945258913
  orientation: 
    x: -0.0146250779762
    y: 0.000639606167184
    z: -0.0370824687376
    w: 0.999204978225
---
header: 
  seq: 64
  stamp: 
    secs: 708
    nsecs: 660000000
  frame_id: "world"
pose: 
  position: 
    x: -0.00334881698862
    y: -0.194756524423
    z: -0.00285305389264
  orientation: 
    x: -0.0136914191275
    y: 0.000799109435953
    z: -0.0372885868164
    w: 0.999210422163
---
header: 
  seq: 65
  stamp: 
    secs: 709
    nsecs: 138000000
  frame_id: "world"
pose: 
  position: 
    x: -0.00327916316047
    y: -0.195188203576
    z: -0.00279100471166
  orientation: 
    x: -0.0139269542604
    y: 0.000763067355037
    z: -0.0371863060249
    w: 0.999211006904
---
header: 
  seq: 66
  stamp: 
    secs: 709
    nsecs: 665000000
  frame_id: "world"
pose: 
  position: 
    x: -0.00322013323276
    y: -0.195678309315
    z: -0.00285604341974
  orientation: 
    x: -0.0142317533209
    y: 0.000757085895151
    z: -0.0371871226299
    w: 0.999206686291
---
header: 
  seq: 67
  stamp: 
    secs: 710
    nsecs: 166000000
  frame_id: "world"
pose: 
  position: 
    x: -0.00332342788239
    y: -0.195141447215
    z: -0.00286838987762
  orientation: 
    x: -0.0138957697863
    y: 0.00079503628992
    z: -0.0372428566345
    w: 0.999209309969
---
header: 
  seq: 68
  stamp: 
    secs: 710
    nsecs: 599000000
  frame_id: "world"
pose: 
  position: 
    x: -0.00318906442265
    y: -0.195802133353
    z: -0.00281536467847
  orientation: 
    x: -0.0142659379367
    y: 0.000735692608915
    z: -0.0371089684372
    w: 0.999209120371
---
header: 
  seq: 69
  stamp: 
    secs: 711
    nsecs: 160000000
  frame_id: "world"
pose: 
  position: 
    x: 0.000680151549249
    y: -0.192014443866
    z: 0.00617606006014
  orientation: 
    x: -0.0342912129142
    y: 0.00377040172234
    z: -0.0369109666576
    w: 0.998722923201
---
header: 
  seq: 70
  stamp: 
    secs: 711
    nsecs: 454000000
  frame_id: "world"
pose: 
  position: 
    x: 0.00693611721728
    y: -0.193868813076
    z: 0.0199725342872
  orientation: 
    x: -0.0137625305905
    y: 0.00302989234245
    z: -0.0415710026467
    w: 0.999036167635
---
header: 
  seq: 71
  stamp: 
    secs: 711
    nsecs: 750000000
  frame_id: "world"
pose: 
  position: 
    x: 0.0117329569304
    y: -0.195351526504
    z: 0.0339293275207
  orientation: 
    x: -0.0144557013883
    y: 0.00241048942892
    z: -0.0362725471005
    w: 0.999234469264
---
header: 
  seq: 72
  stamp: 
    secs: 712
    nsecs:  12000000
  frame_id: "world"
pose: 
  position: 
    x: 0.0158554840755
    y: -0.194444721044
    z: 0.0463584582999
  orientation: 
    x: -0.016450257373
    y: 0.00173607707064
    z: -0.0383395188871
    w: 0.999127847855
---
header: 
  seq: 73
  stamp: 
    secs: 712
    nsecs: 430000000
  frame_id: "world"
pose: 
  position: 
    x: 0.0219912069595
    y: -0.196193723078
    z: 0.0669209934607
  orientation: 
    x: -0.0130689107668
    y: -0.00501198631821
    z: -0.0380098999337
    w: 0.999179328785
---
header: 
  seq: 74
  stamp: 
    secs: 712
    nsecs: 872000000
  frame_id: "world"
pose: 
  position: 
    x: 0.0244669817419
    y: -0.248964397666
    z: 0.0923676886058
  orientation: 
    x: -0.041445962133
    y: -0.00857121250301
    z: -0.0291821062879
    w: 0.998677711382
---
header: 
  seq: 75
  stamp: 
    secs: 713
    nsecs: 339000000
  frame_id: "world"
pose: 
  position: 
    x: 0.0272575131239
    y: -0.243081864448
    z: 0.115141548308
  orientation: 
    x: -0.0402938977472
    y: -0.0185517108799
    z: -0.0363509383881
    w: 0.998354068007
---
header: 
  seq: 76
  stamp: 
    secs: 713
    nsecs: 840000000
  frame_id: "world"
pose: 
  position: 
    x: 0.0314992203045
    y: -0.242074127467
    z: 0.141754351251
  orientation: 
    x: -0.0447020565266
    y: -0.0262382793529
    z: -0.0300284039258
    w: 0.998204174403
---
header: 
  seq: 77
  stamp: 
    secs: 714
    nsecs: 123000000
  frame_id: "world"
pose: 
  position: 
    x: 0.0337438048635
    y: -0.241702933672
    z: 0.155688341052
  orientation: 
    x: -0.0409879792806
    y: -0.0316623169598
    z: -0.0299593331218
    w: 0.998208355805
---
header: 
  seq: 78
  stamp: 
    secs: 714
    nsecs: 432000000
  frame_id: "world"
pose: 
  position: 
    x: 0.0391261791393
    y: -0.23970897097
    z: 0.170335711608
  orientation: 
    x: -0.0420495461891
    y: -0.0335676629343
    z: -0.0289739957367
    w: 0.998131031098
---
header: 
  seq: 79
  stamp: 
    secs: 714
    nsecs: 742000000
  frame_id: "world"
pose: 
  position: 
    x: 0.0421261557463
    y: -0.237829590601
    z: 0.18610192683
  orientation: 
    x: -0.040131639884
    y: -0.0360837188563
    z: -0.0374412833733
    w: 0.997840451682
---
header: 
  seq: 80
  stamp: 
    secs: 715
    nsecs: 235000000
  frame_id: "world"
pose: 
  position: 
    x: 0.0453621749151
    y: -0.235539920829
    z: 0.210006514211
  orientation: 
    x: -0.041900288559
    y: -0.0411243156285
    z: -0.0248740537573
    w: 0.997965148656
---
header: 
  seq: 81
  stamp: 
    secs: 715
    nsecs: 663000000
  frame_id: "world"
pose: 
  position: 
    x: 0.0465594713054
    y: -0.235900411822
    z: 0.231532698079
  orientation: 
    x: -0.0393513455835
    y: -0.0459616998823
    z: -0.0289366524261
    w: 0.997748296862
---
header: 
  seq: 82
  stamp: 
    secs: 716
    nsecs: 133000000
  frame_id: "world"
pose: 
  position: 
    x: 0.05338974268
    y: -0.232891194735
    z: 0.254571576301
  orientation: 
    x: -0.0440232561898
    y: -0.0452706900206
    z: -0.0300355384428
    w: 0.997552196113
---
header: 
  seq: 83
  stamp: 
    secs: 716
    nsecs: 507000000
  frame_id: "world"
pose: 
  position: 
    x: 0.0576670076178
    y: -0.22961587495
    z: 0.272402557443
  orientation: 
    x: -0.0443021817608
    y: -0.0448655900158
    z: -0.0283506283914
    w: 0.997607456565
---
header: 
  seq: 84
  stamp: 
    secs: 716
    nsecs: 813000000
  frame_id: "world"
pose: 
  position: 
    x: 0.0610108437706
    y: -0.229378288447
    z: 0.286740782689
  orientation: 
    x: -0.042183894254
    y: -0.0446434404923
    z: -0.029983878956
    w: 0.997661490331
---
header: 
  seq: 85
  stamp: 
    secs: 717
    nsecs: 116000000
  frame_id: "world"
pose: 
  position: 
    x: 0.0660528873043
    y: -0.224964054157
    z: 0.301825943943
  orientation: 
    x: -0.0404063489628
    y: -0.0444413758291
    z: -0.0280333250572
    w: 0.997800793628
---
header: 
  seq: 86
  stamp: 
    secs: 717
    nsecs: 539000000
  frame_id: "world"
pose: 
  position: 
    x: 0.0742493831778
    y: -0.222819139527
    z: 0.320523673313
  orientation: 
    x: -0.0422087090509
    y: -0.0398013496726
    z: -0.0315998281474
    w: 0.997815478085
---
header: 
  seq: 87
  stamp: 
    secs: 718
    nsecs: 216000000
  frame_id: "world"
pose: 
  position: 
    x: 0.0894472832023
    y: -0.217354062025
    z: 0.351088522214
  orientation: 
    x: -0.0421796844698
    y: -0.0247800303323
    z: -0.0280757282578
    w: 0.998408021701
---
header: 
  seq: 88
  stamp: 
    secs: 718
    nsecs: 760000000
  frame_id: "world"
pose: 
  position: 
    x: 0.100320703374
    y: -0.209797918827
    z: 0.374456199625
  orientation: 
    x: -0.0400252170448
    y: -0.012303601031
    z: -0.0275792658793
    w: 0.998742202721
---
header: 
  seq: 89
  stamp: 
    secs: 719
    nsecs: 313000000
  frame_id: "world"
pose: 
  position: 
    x: 0.110691070589
    y: -0.202367101967
    z: 0.398269458446
  orientation: 
    x: -0.0379642410921
    y: 0.000911804779407
    z: -0.0271042054477
    w: 0.998911030602
---
header: 
  seq: 90
  stamp: 
    secs: 719
    nsecs: 598000000
  frame_id: "world"
pose: 
  position: 
    x: 0.11711957331
    y: -0.199977479991
    z: 0.410510862684
  orientation: 
    x: -0.0379505177115
    y: 0.00713335187461
    z: -0.026840103315
    w: 0.998893629147
---
header: 
  seq: 91
  stamp: 
    secs: 719
    nsecs: 903000000
  frame_id: "world"
pose: 
  position: 
    x: 0.122829285203
    y: -0.196700545757
    z: 0.423899905299
  orientation: 
    x: -0.0373263017163
    y: 0.0146809187615
    z: -0.0268823834114
    w: 0.998833597396
---
header: 
  seq: 92
  stamp: 
    secs: 720
    nsecs: 176000000
  frame_id: "world"
pose: 
  position: 
    x: 0.124393265755
    y: -0.195888675778
    z: 0.434118002741
  orientation: 
    x: -0.00698169211693
    y: 0.0142831517755
    z: -0.0594456934948
    w: 0.998104932898
---
header: 
  seq: 93
  stamp: 
    secs: 720
    nsecs: 701000000
  frame_id: "world"
pose: 
  position: 
    x: 0.106120443851
    y: -0.185153488429
    z: 0.441299664884
  orientation: 
    x: -0.0327293832971
    y: 0.0134266906122
    z: -0.0268844997627
    w: 0.999012379864
---
header: 
  seq: 94
  stamp: 
    secs: 721
    nsecs: 343000000
  frame_id: "world"
pose: 
  position: 
    x: 0.0689170069378
    y: -0.175617643329
    z: 0.443604919386
  orientation: 
    x: -0.0352120381587
    y: 0.0172203050246
    z: -0.0271406387438
    w: 0.998862833022
---
header: 
  seq: 95
  stamp: 
    secs: 721
    nsecs: 738000000
  frame_id: "world"
pose: 
  position: 
    x: 0.0319768404594
    y: -0.172517083091
    z: 0.445743909476
  orientation: 
    x: -0.0212133584623
    y: 0.021931405491
    z: -0.0318278757355
    w: 0.999027523746
---
header: 
  seq: 96
  stamp: 
    secs: 722
    nsecs:  13000000
  frame_id: "world"
pose: 
  position: 
    x: 0.0136549669654
    y: -0.172874129175
    z: 0.448006525994
  orientation: 
    x: -0.0305645330969
    y: 0.0204681458697
    z: -0.0281776094997
    w: 0.998925866441
---
header: 
  seq: 97
  stamp: 
    secs: 722
    nsecs: 292000000
  frame_id: "world"
pose: 
  position: 
    x: -0.00196269198791
    y: -0.172039274924
    z: 0.449636421874
  orientation: 
    x: -0.0281148603753
    y: 0.0248544436362
    z: -0.0291667757624
    w: 0.99886991668
---
header: 
  seq: 98
  stamp: 
    secs: 722
    nsecs: 674000000
  frame_id: "world"
pose: 
  position: 
    x: -0.0265367052028
    y: -0.167131477764
    z: 0.452353014259
  orientation: 
    x: -0.0233699547841
    y: 0.0226967401777
    z: -0.0323378733673
    w: 0.998945927037
---
header: 
  seq: 99
  stamp: 
    secs: 723
    nsecs:  88000000
  frame_id: "world"
pose: 
  position: 
    x: -0.0567162209353
    y: -0.162478813644
    z: 0.454823321952
  orientation: 
    x: -0.0266480277658
    y: 0.0219775696802
    z: -0.0274775625559
    w: 0.999025451429
---
header: 
  seq: 100
  stamp: 
    secs: 723
    nsecs: 479000000
  frame_id: "world"
pose: 
  position: 
    x: -0.0835081626481
    y: -0.159241881255
    z: 0.457345685548
  orientation: 
    x: -0.023514306455
    y: 0.0207805556361
    z: -0.0303820052776
    w: 0.999045634421
---
header: 
  seq: 101
  stamp: 
    secs: 724
    nsecs:  25000000
  frame_id: "world"
pose: 
  position: 
    x: -0.117421550183
    y: -0.151012347468
    z: 0.461716996565
  orientation: 
    x: -0.0211637317591
    y: 0.0286547915694
    z: -0.0286394742721
    w: 0.99895484377
---
header: 
  seq: 102
  stamp: 
    secs: 724
    nsecs: 497000000
  frame_id: "world"
pose: 
  position: 
    x: -0.145336057428
    y: -0.148815889632
    z: 0.465461725657
  orientation: 
    x: -0.0210356125665
    y: 0.025946686094
    z: -0.030393587546
    w: 0.998979730686
---
header: 
  seq: 103
  stamp: 
    secs: 724
    nsecs: 806000000
  frame_id: "world"
pose: 
  position: 
    x: -0.163602472362
    y: -0.144594131519
    z: 0.467208377084
  orientation: 
    x: -0.0103872658631
    y: 0.0267795950693
    z: -0.0260115565589
    w: 0.999248896382
---
header: 
  seq: 104
  stamp: 
    secs: 725
    nsecs:  95000000
  frame_id: "world"
pose: 
  position: 
    x: -0.178421715729
    y: -0.144358854084
    z: 0.470006316748
  orientation: 
    x: -0.0125651223511
    y: 0.0245120470087
    z: -0.0337475322688
    w: 0.999050740112
---
header: 
  seq: 105
  stamp: 
    secs: 725
    nsecs: 447000000
  frame_id: "world"
pose: 
  position: 
    x: -0.198061254199
    y: -0.141501106355
    z: 0.471538291422
  orientation: 
    x: -0.0204638574271
    y: 0.0257772565222
    z: -0.0283690015416
    w: 0.999055535662
---
header: 
  seq: 106
  stamp: 
    secs: 725
    nsecs: 970000000
  frame_id: "world"
pose: 
  position: 
    x: -0.227345961276
    y: -0.139766337667
    z: 0.474567010784
  orientation: 
    x: -0.0148276087442
    y: 0.0216788242897
    z: -0.0273710529376
    w: 0.999280239001
---
header: 
  seq: 107
  stamp: 
    secs: 726
    nsecs: 558000000
  frame_id: "world"
pose: 
  position: 
    x: -0.26466618248
    y: -0.128529946838
    z: 0.478675883587
  orientation: 
    x: -0.0178811133369
    y: 0.0175589865393
    z: -0.0276852813108
    w: 0.99930249323
---
header: 
  seq: 108
  stamp: 
    secs: 727
    nsecs: 104000000
  frame_id: "world"
pose: 
  position: 
    x: -0.293750558128
    y: -0.124312766281
    z: 0.482129457661
  orientation: 
    x: -0.0119999415124
    y: 0.0104070033078
    z: -0.029829962901
    w: 0.999428771349
---
header: 
  seq: 109
  stamp: 
    secs: 727
    nsecs: 515000000
  frame_id: "world"
pose: 
  position: 
    x: -0.315154416612
    y: -0.122551564735
    z: 0.484538038694
  orientation: 
    x: -0.0114151271586
    y: 0.00515524510018
    z: -0.0302099475452
    w: 0.999465095633
---
header: 
  seq: 110
  stamp: 
    secs: 728
    nsecs:  63000000
  frame_id: "world"
pose: 
  position: 
    x: -0.343517182541
    y: -0.118441063953
    z: 0.488468305998
  orientation: 
    x: -0.00958249255682
    y: -0.00169548737218
    z: -0.0302188634444
    w: 0.999495933684
---
header: 
  seq: 111
  stamp: 
    secs: 728
    nsecs: 618000000
  frame_id: "world"
pose: 
  position: 
    x: -0.372870184615
    y: -0.116374505807
    z: 0.492075764914
  orientation: 
    x: -0.00895591100699
    y: -0.00801876712737
    z: -0.030108045698
    w: 0.999474360159
---
header: 
  seq: 112
  stamp: 
    secs: 729
    nsecs: 129000000
  frame_id: "world"
pose: 
  position: 
    x: -0.399020838218
    y: -0.111448129395
    z: 0.4953962355
  orientation: 
    x: -0.00594821899121
    y: -0.0140628640366
    z: -0.0310497839543
    w: 0.999401203453
---
header: 
  seq: 113
  stamp: 
    secs: 729
    nsecs: 650000000
  frame_id: "world"
pose: 
  position: 
    x: -0.427351562973
    y: -0.118868428781
    z: 0.495430519706
  orientation: 
    x: 0.0291705292773
    y: -0.0163381731608
    z: -0.00250210071531
    w: 0.999437783862
---
header: 
  seq: 114
  stamp: 
    secs: 730
    nsecs:  18000000
  frame_id: "world"
pose: 
  position: 
    x: -0.434592812907
    y: -0.111015769929
    z: 0.482628425702
  orientation: 
    x: 0.00614099924741
    y: -0.0257570308277
    z: -0.0208903613428
    w: 0.999431066304
---
header: 
  seq: 115
  stamp: 
    secs: 730
    nsecs: 320000000
  frame_id: "world"
pose: 
  position: 
    x: -0.436621756098
    y: -0.106504077752
    z: 0.471191863279
  orientation: 
    x: -0.0012116009675
    y: -0.0252331136451
    z: -0.0263401634673
    w: 0.999333786974
---
header: 
  seq: 116
  stamp: 
    secs: 730
    nsecs: 627000000
  frame_id: "world"
pose: 
  position: 
    x: -0.439017084664
    y: -0.104633725524
    z: 0.45810693602
  orientation: 
    x: -0.00728017568615
    y: -0.0257041492256
    z: -0.0266979862372
    w: 0.999286502103
---
header: 
  seq: 117
  stamp: 
    secs: 731
    nsecs:  81000000
  frame_id: "world"
pose: 
  position: 
    x: -0.440583456636
    y: -0.104624839403
    z: 0.439436788684
  orientation: 
    x: 0.000990175572374
    y: -0.0280066145298
    z: -0.0276628487412
    w: 0.999224407175
---
header: 
  seq: 118
  stamp: 
    secs: 731
    nsecs: 494000000
  frame_id: "world"
pose: 
  position: 
    x: -0.445470795338
    y: -0.102105885021
    z: 0.419197348288
  orientation: 
    x: -0.00561893792183
    y: -0.0324695055319
    z: -0.036227062773
    w: 0.998800159526
---
header: 
  seq: 119
  stamp: 
    secs: 731
    nsecs: 945000000
  frame_id: "world"
pose: 
  position: 
    x: -0.449320732214
    y: -0.104122846342
    z: 0.398803597307
  orientation: 
    x: -0.00475014360061
    y: -0.0353869112703
    z: -0.031605216032
    w: 0.998862509541
---
header: 
  seq: 120
  stamp: 
    secs: 732
    nsecs: 460000000
  frame_id: "world"
pose: 
  position: 
    x: -0.45398367797
    y: -0.103066921293
    z: 0.375250174022
  orientation: 
    x: -0.00696485265756
    y: -0.0394194491483
    z: -0.0312308423084
    w: 0.998710284489
---
header: 
  seq: 121
  stamp: 
    secs: 732
    nsecs: 748000000
  frame_id: "world"
pose: 
  position: 
    x: -0.455582109186
    y: -0.102924687266
    z: 0.36295807465
  orientation: 
    x: -0.00323248070768
    y: -0.0418117213326
    z: -0.0268592208437
    w: 0.998759186833
---
header: 
  seq: 122
  stamp: 
    secs: 733
    nsecs:  44000000
  frame_id: "world"
pose: 
  position: 
    x: -0.455736121611
    y: -0.101122305048
    z: 0.350034988979
  orientation: 
    x: -0.00288712339801
    y: -0.0475585894854
    z: -0.0312568086862
    w: 0.998375108361
---
header: 
  seq: 123
  stamp: 
    secs: 733
    nsecs: 391000000
  frame_id: "world"
pose: 
  position: 
    x: -0.458571734912
    y: -0.096482996018
    z: 0.332416498741
  orientation: 
    x: -0.00223447422515
    y: -0.0524459600072
    z: -0.0307105329063
    w: 0.998148932561
---
header: 
  seq: 124
  stamp: 
    secs: 733
    nsecs: 772000000
  frame_id: "world"
pose: 
  position: 
    x: -0.460360090597
    y: -0.0931281146088
    z: 0.315324240199
  orientation: 
    x: -0.000679111330978
    y: -0.0581082317656
    z: -0.0342559416205
    w: 0.997722157052
---
header: 
  seq: 125
  stamp: 
    secs: 734
    nsecs: 308000000
  frame_id: "world"
pose: 
  position: 
    x: -0.461363329278
    y: -0.0901225842407
    z: 0.290990434463
  orientation: 
    x: 0.00037047397224
    y: -0.0591092289198
    z: -0.0342296262087
    w: 0.99766441978
---
header: 
  seq: 126
  stamp: 
    secs: 734
    nsecs: 772000000
  frame_id: "world"
pose: 
  position: 
    x: -0.46390511251
    y: -0.0899939972918
    z: 0.26889343497
  orientation: 
    x: -0.00534862086549
    y: -0.0596968795562
    z: -0.0334334186776
    w: 0.997642160968
---
header: 
  seq: 127
  stamp: 
    secs: 735
    nsecs:  24000000
  frame_id: "world"
pose: 
  position: 
    x: -0.468582073068
    y: -0.0898345585516
    z: 0.25695476429
  orientation: 
    x: 0.000924384326033
    y: -0.0593952338061
    z: -0.0319350075673
    w: 0.997723161506
---
header: 
  seq: 128
  stamp: 
    secs: 735
    nsecs: 339000000
  frame_id: "world"
pose: 
  position: 
    x: -0.466376716764
    y: -0.0874958805516
    z: 0.244521116238
  orientation: 
    x: 0.00193359530276
    y: -0.0641906810178
    z: -0.0298383801373
    w: 0.997489593304
---
header: 
  seq: 129
  stamp: 
    secs: 735
    nsecs: 800000000
  frame_id: "world"
pose: 
  position: 
    x: -0.469201708283
    y: -0.089394472912
    z: 0.223534832361
  orientation: 
    x: 0.0017200681427
    y: -0.0583358616893
    z: -0.0338098828001
    w: 0.997722837481
---
header: 
  seq: 130
  stamp: 
    secs: 736
    nsecs: 227000000
  frame_id: "world"
pose: 
  position: 
    x: -0.468360429997
    y: -0.0914430900761
    z: 0.203636668913
  orientation: 
    x: -0.000784553439648
    y: -0.0516641927348
    z: -0.033938347226
    w: 0.998087363036
---
header: 
  seq: 131
  stamp: 
    secs: 736
    nsecs: 781000000
  frame_id: "world"
pose: 
  position: 
    x: -0.471893171259
    y: -0.0963970539554
    z: 0.174474414656
  orientation: 
    x: -0.00205704820534
    y: -0.0413169923993
    z: -0.034067384993
    w: 0.998563011518
---
header: 
  seq: 132
  stamp: 
    secs: 737
    nsecs: 498000000
  frame_id: "world"
pose: 
  position: 
    x: -0.466722785828
    y: -0.101861902412
    z: 0.14358085182
  orientation: 
    x: -0.00277167540857
    y: -0.0324185459771
    z: -0.0339965879019
    w: 0.998892180219
---
header: 
  seq: 133
  stamp: 
    secs: 738
    nsecs:  97000000
  frame_id: "world"
pose: 
  position: 
    x: -0.463403515059
    y: -0.108271490901
    z: 0.113503684857
  orientation: 
    x: -0.00420247549079
    y: -0.0249165502249
    z: -0.0341385033896
    w: 0.999097626517
---
header: 
  seq: 134
  stamp: 
    secs: 738
    nsecs: 751000000
  frame_id: "world"
pose: 
  position: 
    x: -0.468067003493
    y: -0.114345561347
    z: 0.0800823884468
  orientation: 
    x: -0.00542037923515
    y: -0.0131536031908
    z: -0.0339824382325
    w: 0.999321167645
---
header: 
  seq: 135
  stamp: 
    secs: 739
    nsecs: 250000000
  frame_id: "world"
pose: 
  position: 
    x: -0.462754780153
    y: -0.11586134992
    z: 0.0570524586151
  orientation: 
    x: -0.0358973787949
    y: -0.0082608514992
    z: -0.00887783026227
    w: 0.999281902497
---
header: 
  seq: 136
  stamp: 
    secs: 739
    nsecs: 891000000
  frame_id: "world"
pose: 
  position: 
    x: -0.447206590013
    y: -0.12745950117
    z: 0.0432587299133
  orientation: 
    x: -0.0096040353566
    y: -0.00586035001911
    z: -0.0306224608254
    w: 0.999467700176
---
header: 
  seq: 137
  stamp: 
    secs: 740
    nsecs: 348000000
  frame_id: "world"
pose: 
  position: 
    x: -0.422331011551
    y: -0.131998975286
    z: 0.0439975028847
  orientation: 
    x: -0.0131713241838
    y: -0.0066768227009
    z: -0.0353413541274
    w: 0.999266193237
---
header: 
  seq: 138
  stamp: 
    secs: 740
    nsecs: 900000000
  frame_id: "world"
pose: 
  position: 
    x: -0.387802804609
    y: -0.137250159346
    z: 0.0449294953725
  orientation: 
    x: -0.00597402416568
    y: -0.0010468350411
    z: -0.0326006649545
    w: 0.999450054688
---
header: 
  seq: 139
  stamp: 
    secs: 741
    nsecs: 227000000
  frame_id: "world"
pose: 
  position: 
    x: -0.373194843071
    y: -0.146983879905
    z: 0.0431021438183
  orientation: 
    x: -0.0111759680593
    y: -0.000266892227116
    z: -0.0333973182087
    w: 0.999379630392
---
header: 
  seq: 140
  stamp: 
    secs: 741
    nsecs: 559000000
  frame_id: "world"
pose: 
  position: 
    x: -0.348724753788
    y: -0.151061161773
    z: 0.0455897022463
  orientation: 
    x: -0.00507434969181
    y: -0.000373602126265
    z: -0.0352653455467
    w: 0.999365031808
---
header: 
  seq: 141
  stamp: 
    secs: 741
    nsecs: 995000000
  frame_id: "world"
pose: 
  position: 
    x: -0.307514427528
    y: -0.153849529899
    z: 0.0362395120593
  orientation: 
    x: -0.01600390748
    y: -0.00521206008805
    z: -0.0318320861317
    w: 0.99935150356
---
header: 
  seq: 142
  stamp: 
    secs: 742
    nsecs: 408000000
  frame_id: "world"
pose: 
  position: 
    x: -0.278462165306
    y: -0.156877191951
    z: 0.0404739541218
  orientation: 
    x: -0.00952643043949
    y: -0.00339179960961
    z: -0.0378664653794
    w: 0.999231641622
---
header: 
  seq: 143
  stamp: 
    secs: 742
    nsecs: 879000000
  frame_id: "world"
pose: 
  position: 
    x: -0.243490525976
    y: -0.164318447281
    z: 0.0452351067962
  orientation: 
    x: -0.00664075150979
    y: -0.00642010081567
    z: -0.0336984683334
    w: 0.999389361539
---
header: 
  seq: 144
  stamp: 
    secs: 743
    nsecs: 546000000
  frame_id: "world"
pose: 
  position: 
    x: -0.190522404825
    y: -0.175217298807
    z: 0.0444887763455
  orientation: 
    x: -0.0156365139369
    y: -0.0124561757696
    z: -0.0385475524908
    w: 0.999056769815
---
header: 
  seq: 145
  stamp: 
    secs: 744
    nsecs: 167000000
  frame_id: "world"
pose: 
  position: 
    x: -0.150623070231
    y: -0.183002143694
    z: 0.0460320313124
  orientation: 
    x: -0.0166454807038
    y: -0.0203534596142
    z: -0.0349717835678
    w: 0.999042360968
---
header: 
  seq: 146
  stamp: 
    secs: 744
    nsecs: 858000000
  frame_id: "world"
pose: 
  position: 
    x: -0.115999936164
    y: -0.190397772673
    z: 0.0513333813216
  orientation: 
    x: -0.0157003933024
    y: -0.0235643774104
    z: -0.036298184823
    w: 0.998939767727
---
header: 
  seq: 147
  stamp: 
    secs: 745
    nsecs: 691000000
  frame_id: "world"
pose: 
  position: 
    x: -0.0622054799323
    y: -0.199920261497
    z: 0.0623685592603
  orientation: 
    x: -0.0165160318536
    y: -0.0325251745489
    z: -0.036165640284
    w: 0.998679818648
---
header: 
  seq: 148
  stamp: 
    secs: 746
    nsecs: 444000000
  frame_id: "world"
pose: 
  position: 
    x: -0.0826064062953
    y: -0.196582665882
    z: 0.0694740589753
  orientation: 
    x: -0.0119145517485
    y: -0.0164769712954
    z: -0.03818588168
    w: 0.999063757382
---
header: 
  seq: 149
  stamp: 
    secs: 747
    nsecs: 249000000
  frame_id: "world"
pose: 
  position: 
    x: -0.0097807122459
    y: -0.247245756588
    z: 0.0532213609972
  orientation: 
    x: -0.0330113627585
    y: -0.02831901498
    z: -0.0311265302601
    w: 0.998568686888
---
header: 
  seq: 150
  stamp: 
    secs: 747
    nsecs: 867000000
  frame_id: "world"
pose: 
  position: 
    x: 0.0245119800313
    y: -0.253995753698
    z: 0.058452006841
  orientation: 
    x: -0.0336594852135
    y: -0.0328031102057
    z: -0.0314226009099
    w: 0.998400528429
---
header: 
  seq: 151
  stamp: 
    secs: 748
    nsecs: 466000000
  frame_id: "world"
pose: 
  position: 
    x: 0.0579528696328
    y: -0.263604654279
    z: 0.0651540530233
  orientation: 
    x: -0.0360945379812
    y: -0.0371880616575
    z: -0.0308248817894
    w: 0.998180374011
---
header: 
  seq: 152
  stamp: 
    secs: 749
    nsecs: 205000000
  frame_id: "world"
pose: 
  position: 
    x: 0.0978816159039
    y: -0.275642041902
    z: 0.0731710345998
  orientation: 
    x: -0.0391317889279
    y: -0.0418441608901
    z: -0.0304708350686
    w: 0.997892427822
---
header: 
  seq: 153
  stamp: 
    secs: 749
    nsecs: 683000000
  frame_id: "world"
pose: 
  position: 
    x: 0.117868943566
    y: -0.276496344981
    z: 0.0873048391116
  orientation: 
    x: -0.0390415325451
    y: -0.0451681865889
    z: -0.0300242093398
    w: 0.997764571685
---
header: 
  seq: 154
  stamp: 
    secs: 750
    nsecs: 218000000
  frame_id: "world"
pose: 
  position: 
    x: 0.152667136275
    y: -0.267907933576
    z: 0.0966043452202
  orientation: 
    x: -0.0426115212767
    y: -0.0510443945454
    z: -0.0270557188441
    w: 0.997420029936
---
header: 
  seq: 155
  stamp: 
    secs: 750
    nsecs: 780000000
  frame_id: "world"
pose: 
  position: 
    x: 0.194337187235
    y: -0.232697593146
    z: 0.105594710972
  orientation: 
    x: -0.0433804729922
    y: -0.0591330604606
    z: -0.025423070545
    w: 0.99698299043
---
header: 
  seq: 156
  stamp: 
    secs: 751
    nsecs: 115000000
  frame_id: "world"
pose: 
  position: 
    x: 0.216460583577
    y: -0.216533694952
    z: 0.106866932644
  orientation: 
    x: -0.0489354708646
    y: -0.062767524177
    z: -0.0223177183256
    w: 0.996577883082
---
header: 
  seq: 157
  stamp: 
    secs: 751
    nsecs: 533000000
  frame_id: "world"
pose: 
  position: 
    x: 0.331982599781
    y: -0.229409160141
    z: 0.100427206061
  orientation: 
    x: -0.0725337069044
    y: -0.0899377487255
    z: -0.0177396929143
    w: 0.993144181885
---
header: 
  seq: 158
  stamp: 
    secs: 752
    nsecs:  92000000
  frame_id: "world"
pose: 
  position: 
    x: 0.388160097354
    y: -0.185340359315
    z: 0.113146121662
  orientation: 
    x: -0.0760997726881
    y: -0.0997243429674
    z: -0.0133366841808
    w: 0.992011095135
---
header: 
  seq: 159
  stamp: 
    secs: 752
    nsecs: 353000000
  frame_id: "world"
pose: 
  position: 
    x: 0.39455720099
    y: -0.157670683664
    z: 0.110667374862
  orientation: 
    x: -0.0712579291447
    y: -0.0766441512734
    z: -0.081195017716
    w: 0.991188857235
---
header: 
  seq: 160
  stamp: 
    secs: 752
    nsecs: 668000000
  frame_id: "world"
pose: 
  position: 
    x: 0.394503421259
    y: -0.156770514482
    z: 0.110487286577
  orientation: 
    x: -0.0706889789053
    y: -0.0766000900088
    z: -0.0812698247879
    w: 0.99122687113
---
header: 
  seq: 161
  stamp: 
    secs: 752
    nsecs: 906000000
  frame_id: "world"
pose: 
  position: 
    x: 0.39456167064
    y: -0.156236357757
    z: 0.110869187137
  orientation: 
    x: -0.0703572734177
    y: -0.0766608122806
    z: -0.0812749011215
    w: 0.991245360335
---
header: 
  seq: 162
  stamp: 
    secs: 753
    nsecs: 143000000
  frame_id: "world"
pose: 
  position: 
    x: 0.394586218854
    y: -0.155707545462
    z: 0.111247795452
  orientation: 
    x: -0.070060963231
    y: -0.076686411679
    z: -0.0812209593706
    w: 0.991268788702
---
header: 
  seq: 163
  stamp: 
    secs: 753
    nsecs: 423000000
  frame_id: "world"
pose: 
  position: 
    x: 0.394573715062
    y: -0.155475860971
    z: 0.111436555626
  orientation: 
    x: -0.0699497256991
    y: -0.0766591950543
    z: -0.0810090407686
    w: 0.991296090481
---
header: 
  seq: 164
  stamp: 
    secs: 753
    nsecs: 700000000
  frame_id: "world"
pose: 
  position: 
    x: 0.394584105639
    y: -0.15519256073
    z: 0.111579480413
  orientation: 
    x: -0.0697918268482
    y: -0.0766329000529
    z: -0.0809392538466
    w: 0.991314953343
---
header: 
  seq: 165
  stamp: 
    secs: 754
    nsecs:  26000000
  frame_id: "world"
pose: 
  position: 
    x: 0.394510251083
    y: -0.154954228509
    z: 0.111632290224
  orientation: 
    x: -0.0696706224492
    y: -0.0765773796616
    z: -0.0807812452375
    w: 0.991340657751
---
header: 
  seq: 166
  stamp: 
    secs: 754
    nsecs: 248000000
  frame_id: "world"
pose: 
  position: 
    x: 0.394532856804
    y: -0.154822366544
    z: 0.111752486134
  orientation: 
    x: -0.0696020424152
    y: -0.0765861645054
    z: -0.0807242923796
    w: 0.991349435728
---
header: 
  seq: 167
  stamp: 
    secs: 754
    nsecs: 489000000
  frame_id: "world"
pose: 
  position: 
    x: 0.394574861397
    y: -0.154812010956
    z: 0.111747679016
  orientation: 
    x: -0.0696036152043
    y: -0.0765649223459
    z: -0.08062420923
    w: 0.991359110667
---
header: 
  seq: 168
  stamp: 
    secs: 754
    nsecs: 797000000
  frame_id: "world"
pose: 
  position: 
    x: 0.394609529546
    y: -0.154687702974
    z: 0.112016226658
  orientation: 
    x: -0.069550633311
    y: -0.0765737454415
    z: -0.0804506197416
    w: 0.991376249816
---
header: 
  seq: 169
  stamp: 
    secs: 755
    nsecs:  92000000
  frame_id: "world"
pose: 
  position: 
    x: 0.394711465611
    y: -0.154501266036
    z: 0.1121427208
  orientation: 
    x: -0.0694478004736
    y: -0.0766091636363
    z: -0.0803189885204
    w: 0.991391395534
---
header: 
  seq: 170
  stamp: 
    secs: 755
    nsecs: 405000000
  frame_id: "world"
pose: 
  position: 
    x: 0.394741805668
    y: -0.154281279978
    z: 0.112502569979
  orientation: 
    x: -0.0693373743524
    y: -0.0765895658772
    z: -0.0800945798872
    w: 0.991418794047
---
header: 
  seq: 171
  stamp: 
    secs: 755
    nsecs: 707000000
  frame_id: "world"
pose: 
  position: 
    x: 0.394711313564
    y: -0.154212080589
    z: 0.112372223607
  orientation: 
    x: -0.0692985784538
    y: -0.0765206264312
    z: -0.0799548448011
    w: 0.991438108783
---
header: 
  seq: 172
  stamp: 
    secs: 756
    nsecs:   1000000
  frame_id: "world"
pose: 
  position: 
    x: 0.394805877193
    y: -0.15412271787
    z: 0.112544634453
  orientation: 
    x: -0.0692534111634
    y: -0.0765001105998
    z: -0.0798186580259
    w: 0.991453821391
---
header: 
  seq: 173
  stamp: 
    secs: 756
    nsecs: 217000000
  frame_id: "world"
pose: 
  position: 
    x: 0.394750683514
    y: -0.154044740229
    z: 0.112475166547
  orientation: 
    x: -0.0692137668559
    y: -0.0764567814512
    z: -0.0797356988618
    w: 0.991466607292
---
header: 
  seq: 174
  stamp: 
    secs: 756
    nsecs: 512000000
  frame_id: "world"
pose: 
  position: 
    x: 0.394813418204
    y: -0.154011785587
    z: 0.11257247812
  orientation: 
    x: -0.0692226801166
    y: -0.0764465425234
    z: -0.0795703475714
    w: 0.991480058539
---
